{'word': 'Mill', 'spans': [{'start': 0, 'end': 4}], 'country_predicted': 'GBR', 'country_conf': 0.28868946}
{'word': 'Texas', 'spans': [{'start': 0, 'end': 5}], 'country_predicted': 'USA', 'country_conf': 0.9634983, 'geo': {'admin1': 'Texas', 'lat': '31.25044', 'lon': '-99.25061', 'country_code3': 'USA', 'geonameid': '4736286', 'place_name': 'Texas', 'feature_class': 'A', 'feature_code': 'ADM1'}}
{'word': 'Mexico', 'spans': [{'start': 0, 'end': 6}], 'country_predicted': 'MEX', 'country_conf': 0.9516948, 'geo': {'admin1': 'NA', 'lat': '23', 'lon': '-102', 'country_code3': 'MEX', 'geonameid': '3996063', 'place_name': 'Mexico', 'feature_class': 'A', 'feature_code': 'PCLI'}}
{'word': 'Michigan', 'spans': [{'start': 0, 'end': 8}], 'country_predicted': 'USA', 'country_conf': 0.9634983, 'geo': {'admin1': 'Michigan', 'lat': '44.25029', 'lon': '-85.50033', 'country_code3': 'USA', 'geonameid': '5001836', 'place_name': 'Michigan', 'feature_class': 'A', 'feature_code': 'ADM1'}}
{'word': 'Minnesota', 'spans': [{'start': 0, 'end': 9}], 'country_predicted': 'USA', 'country_conf': 0.9516948, 'geo': {'admin1': 'Minnesota', 'lat': '46.25024', 'lon': '-94.25055', 'country_code3': 'USA', 'geonameid': '5037779', 'place_name': 'Minnesota', 'feature_class': 'A', 'feature_code': 'ADM1'}}
{'word': 'Wisconsin', 'spans': [{'start': 0, 'end': 9}], 'country_predicted': 'USA', 'country_conf': 0.9634983, 'geo': {'admin1': 'Wisconsin', 'lat': '44.50024', 'lon': '-90.00041', 'country_code3': 'USA', 'geonameid': '5279468', 'place_name': 'Wisconsin', 'feature_class': 'A', 'feature_code': 'ADM1'}}
{'word': 's.l.', 'spans': [{'start': 0, 'end': 4}], 'country_predicted': 'ESP', 'country_conf': 0.9048774, 'geo': {'admin1': 'Canary Islands', 'lat': '28.38952', 'lon': '-13.87492', 'country_code3': 'ESP', 'geonameid': '9882389', 'place_name': 'Elba Palace Golf Fuerteventura S.L.', 'feature_class': 'S', 'feature_code': 'HTL'}}
{'word': 'Phylogenetically', 'spans': [{'start': 0, 'end': 16}], 'country_predicted': '', 'country_conf': 0}
{'word': 's.l.', 'spans': [{'start': 0, 'end': 4}], 'country_predicted': 'ESP', 'country_conf': 0.9048774, 'geo': {'admin1': 'Canary Islands', 'lat': '28.38952', 'lon': '-13.87492', 'country_code3': 'ESP', 'geonameid': '9882389', 'place_name': 'Elba Palace Golf Fuerteventura S.L.', 'feature_class': 'S', 'feature_code': 'HTL'}}
