{'word': 'Puerto', 'spans': [{'start': 0, 'end': 6}], 'country_predicted': 'GTM', 'country_conf': 0.87992215, 'geo': {'admin1': 'Izabal', 'lat': '15.72778', 'lon': '-88.59444', 'country_code3': 'GTM', 'geonameid': '3591062', 'place_name': 'Puerto Barrios', 'feature_class': 'P', 'feature_code': 'PPLA'}}
{'word': 'Rico', 'spans': [{'start': 0, 'end': 4}], 'country_predicted': 'COL', 'country_conf': 0.87992215, 'geo': {'admin1': 'Caquet', 'lat': '1.90999', 'lon': '-75.15931', 'country_code3': 'COL', 'geonameid': '3671348', 'place_name': 'Puerto Rico', 'feature_class': 'P', 'feature_code': 'PPLA2'}}
{'word': 'Australia', 'spans': [{'start': 0, 'end': 9}], 'country_predicted': 'AUS', 'country_conf': 0.9516948, 'geo': {'admin1': 'NA', 'lat': '-25', 'lon': '135', 'country_code3': 'AUS', 'geonameid': '2077456', 'place_name': 'Commonwealth of Australia', 'feature_class': 'A', 'feature_code': 'PCLI'}}
{'word': 'Zealand', 'spans': [{'start': 0, 'end': 7}], 'country_predicted': 'NA', 'country_conf': 0.28365934}
{'word': 'China', 'spans': [{'start': 0, 'end': 5}], 'country_predicted': 'CHN', 'country_conf': 0.68758196, 'geo': {'admin1': 'Hubei', 'lat': '30.52047', 'lon': '114.39637', 'country_code3': 'CHN', 'geonameid': '6620465', 'place_name': 'China University of Geosciences', 'feature_class': 'S', 'feature_code': 'SCHC'}}
{'word': 'America', 'spans': [{'start': 0, 'end': 7}], 'country_predicted': 'USA', 'country_conf': 0.9516948, 'geo': {'admin1': 'Wyoming', 'lat': '41.54357', 'lon': '-109.85903', 'country_code3': 'USA', 'geonameid': '5830444', 'place_name': 'Little America', 'feature_class': 'P', 'feature_code': 'PPL'}}
{'word': 'Santa', 'spans': [{'start': 0, 'end': 5}], 'country_predicted': 'PHL', 'country_conf': 0.28365934}
{'word': 'Pantanal', 'spans': [{'start': 0, 'end': 8}], 'country_predicted': 'BRA', 'country_conf': 0.87992215, 'geo': {'admin1': 'Santa Catarina', 'lat': '-27.60985', 'lon': '-48.51648', 'country_code3': 'BRA', 'geonameid': '7874482', 'place_name': 'Pantanal', 'feature_class': 'P', 'feature_code': 'PPLL'}}
{'word': 'Pantanal', 'spans': [{'start': 0, 'end': 8}], 'country_predicted': 'BRA', 'country_conf': 0.87992215, 'geo': {'admin1': 'Santa Catarina', 'lat': '-27.60985', 'lon': '-48.51648', 'country_code3': 'BRA', 'geonameid': '7874482', 'place_name': 'Pantanal', 'feature_class': 'P', 'feature_code': 'PPLL'}}
