{'word': 'America', 'spans': [{'start': 0, 'end': 7}], 'country_predicted': 'USA', 'country_conf': 0.9516948, 'geo': {'admin1': 'Wyoming', 'lat': '41.54357', 'lon': '-109.85903', 'country_code3': 'USA', 'geonameid': '5830444', 'place_name': 'Little America', 'feature_class': 'P', 'feature_code': 'PPL'}}
{'word': 'America', 'spans': [{'start': 0, 'end': 7}], 'country_predicted': 'USA', 'country_conf': 0.9516948, 'geo': {'admin1': 'Wyoming', 'lat': '41.54357', 'lon': '-109.85903', 'country_code3': 'USA', 'geonameid': '5830444', 'place_name': 'Little America', 'feature_class': 'P', 'feature_code': 'PPL'}}
{'word': 'Canada', 'spans': [{'start': 1, 'end': 7}], 'country_predicted': 'CAN', 'country_conf': 0.9516948, 'geo': {'admin1': 'NA', 'lat': '60.10867', 'lon': '-113.64258', 'country_code3': 'CAN', 'geonameid': '6251999', 'place_name': 'Canada', 'feature_class': 'A', 'feature_code': 'PCLI'}}
{'word': 'Ontario', 'spans': [{'start': 0, 'end': 7}], 'country_predicted': 'CAN', 'country_conf': 0.87992215, 'geo': {'admin1': 'Ontario', 'lat': '49.25014', 'lon': '-84.49983', 'country_code3': 'CAN', 'geonameid': '6093943', 'place_name': 'Ontario', 'feature_class': 'A', 'feature_code': 'ADM1'}}
{'word': 'Quebec', 'spans': [{'start': 0, 'end': 6}], 'country_predicted': 'CAN', 'country_conf': 0.87992215, 'geo': {'admin1': 'Quebec', 'lat': '52.00017', 'lon': '-71.99907', 'country_code3': 'CAN', 'geonameid': '6115047', 'place_name': 'Qubec', 'feature_class': 'A', 'feature_code': 'ADM1'}}
{'word': 'Brunswick', 'spans': [{'start': 0, 'end': 9}], 'country_predicted': 'CAN', 'country_conf': 0.87992215, 'geo': {'admin1': 'New Brunswick', 'lat': '46.5001', 'lon': '-65.99878', 'country_code3': 'CAN', 'geonameid': '6087430', 'place_name': 'New Brunswick/Nouveau-Brunswick', 'feature_class': 'A', 'feature_code': 'ADM1'}}
{'word': 'Hampshire', 'spans': [{'start': 0, 'end': 9}], 'country_predicted': 'USA', 'country_conf': 0.6353264, 'geo': {'admin1': 'New Hampshire', 'lat': '43.66702', 'lon': '-71.4998', 'country_code3': 'USA', 'geonameid': '5090174', 'place_name': 'New Hampshire', 'feature_class': 'A', 'feature_code': 'ADM1'}}
