{'word': 'Iowa', 'spans': [{'start': 0, 'end': 4}], 'country_predicted': 'USA', 'country_conf': 0.9634983, 'geo': {'admin1': 'Iowa', 'lat': '42.00027', 'lon': '-93.50049', 'country_code3': 'USA', 'geonameid': '4862182', 'place_name': 'Iowa', 'feature_class': 'A', 'feature_code': 'ADM1'}}
{'word': 'Arizona', 'spans': [{'start': 0, 'end': 7}], 'country_predicted': 'USA', 'country_conf': 0.9634983, 'geo': {'admin1': 'Arizona', 'lat': '34.5003', 'lon': '-111.50098', 'country_code3': 'USA', 'geonameid': '5551752', 'place_name': 'Arizona', 'feature_class': 'A', 'feature_code': 'ADM1'}}
{'word': 'Kansas', 'spans': [{'start': 0, 'end': 6}], 'country_predicted': 'USA', 'country_conf': 0.9634983, 'geo': {'admin1': 'Kansas', 'lat': '38.50029', 'lon': '-98.50063', 'country_code3': 'USA', 'geonameid': '4273857', 'place_name': 'Kansas', 'feature_class': 'A', 'feature_code': 'ADM1'}}
{'word': 'Dakota', 'spans': [{'start': 0, 'end': 6}], 'country_predicted': 'USA', 'country_conf': 0.957188, 'geo': {'admin1': 'South Dakota', 'lat': '44.50026', 'lon': '-100.25069', 'country_code3': 'USA', 'geonameid': '5769223', 'place_name': 'South Dakota', 'feature_class': 'A', 'feature_code': 'ADM1'}}
{'word': 'Iowa', 'spans': [{'start': 0, 'end': 4}], 'country_predicted': 'USA', 'country_conf': 0.9634983, 'geo': {'admin1': 'Iowa', 'lat': '42.00027', 'lon': '-93.50049', 'country_code3': 'USA', 'geonameid': '4862182', 'place_name': 'Iowa', 'feature_class': 'A', 'feature_code': 'ADM1'}}
{'word': 'virgatum', 'spans': [{'start': 0, 'end': 8}], 'country_predicted': 'ITA', 'country_conf': 0.9528109, 'geo': {'admin1': 'Emilia-Romagna', 'lat': '44.28266', 'lon': '11.10731', 'country_code3': 'ITA', 'geonameid': '6538478', 'place_name': 'Vergato', 'feature_class': 'A', 'feature_code': 'ADM3'}}
{'word': 'Iowa', 'spans': [{'start': 0, 'end': 4}], 'country_predicted': 'USA', 'country_conf': 0.9634983, 'geo': {'admin1': 'Iowa', 'lat': '42.00027', 'lon': '-93.50049', 'country_code3': 'USA', 'geonameid': '4862182', 'place_name': 'Iowa', 'feature_class': 'A', 'feature_code': 'ADM1'}}
{'word': 'poco', 'spans': [{'start': 0, 'end': 4}], 'country_predicted': 'HTI', 'country_conf': 0.28868946}
{'word': 'los', 'spans': [{'start': 0, 'end': 3}], 'country_predicted': 'MEX', 'country_conf': 0.7178229, 'geo': {'admin1': 'Jalisco', 'lat': '20.42278', 'lon': '-103.18306', 'country_code3': 'MEX', 'geonameid': '8860783', 'place_name': 'Los Freseros (Los Sabinos)', 'feature_class': 'P', 'feature_code': 'PPL'}}
{'word': 'virgatum', 'spans': [{'start': 0, 'end': 8}], 'country_predicted': 'ITA', 'country_conf': 0.9528109, 'geo': {'admin1': 'Emilia-Romagna', 'lat': '44.28266', 'lon': '11.10731', 'country_code3': 'ITA', 'geonameid': '6538478', 'place_name': 'Vergato', 'feature_class': 'A', 'feature_code': 'ADM3'}}
{'word': 'Iowa', 'spans': [{'start': 0, 'end': 4}], 'country_predicted': 'USA', 'country_conf': 0.9634983, 'geo': {'admin1': 'Iowa', 'lat': '42.00027', 'lon': '-93.50049', 'country_code3': 'USA', 'geonameid': '4862182', 'place_name': 'Iowa', 'feature_class': 'A', 'feature_code': 'ADM1'}}
{'word': 'los', 'spans': [{'start': 0, 'end': 3}], 'country_predicted': 'MEX', 'country_conf': 0.7178229, 'geo': {'admin1': 'Jalisco', 'lat': '20.42278', 'lon': '-103.18306', 'country_code3': 'MEX', 'geonameid': '8860783', 'place_name': 'Los Freseros (Los Sabinos)', 'feature_class': 'P', 'feature_code': 'PPL'}}
{'word': 'los', 'spans': [{'start': 0, 'end': 3}], 'country_predicted': 'MEX', 'country_conf': 0.7178229, 'geo': {'admin1': 'Jalisco', 'lat': '20.42278', 'lon': '-103.18306', 'country_code3': 'MEX', 'geonameid': '8860783', 'place_name': 'Los Freseros (Los Sabinos)', 'feature_class': 'P', 'feature_code': 'PPL'}}
{'word': 'pasto', 'spans': [{'start': 0, 'end': 5}], 'country_predicted': 'COL', 'country_conf': 0.9048774, 'geo': {'admin1': 'Nario', 'lat': '1.21467', 'lon': '-77.27865', 'country_code3': 'COL', 'geonameid': '3672779', 'place_name': 'Pasto', 'feature_class': 'A', 'feature_code': 'ADM2'}}
{'word': 'Praderas', 'spans': [{'start': 0, 'end': 8}], 'country_predicted': 'NIC', 'country_conf': 0.5339668}
{'word': 'virgatum', 'spans': [{'start': 0, 'end': 8}], 'country_predicted': 'ITA', 'country_conf': 0.9528109, 'geo': {'admin1': 'Emilia-Romagna', 'lat': '44.28266', 'lon': '11.10731', 'country_code3': 'ITA', 'geonameid': '6538478', 'place_name': 'Vergato', 'feature_class': 'A', 'feature_code': 'ADM3'}}
{'word': 'Jaenike', 'spans': [{'start': 0, 'end': 7}], 'country_predicted': 'EST', 'country_conf': 0.9528109, 'geo': {'admin1': 'Prnumaa', 'lat': '58.66583', 'lon': '23.68194', 'country_code3': 'EST', 'geonameid': '591976', 'place_name': 'Jrise', 'feature_class': 'P', 'feature_code': 'PPL'}}
{'word': 'Iowa', 'spans': [{'start': 0, 'end': 4}], 'country_predicted': 'USA', 'country_conf': 0.9634983, 'geo': {'admin1': 'Iowa', 'lat': '42.00027', 'lon': '-93.50049', 'country_code3': 'USA', 'geonameid': '4862182', 'place_name': 'Iowa', 'feature_class': 'A', 'feature_code': 'ADM1'}}
{'word': 'virgatum', 'spans': [{'start': 0, 'end': 8}], 'country_predicted': 'ITA', 'country_conf': 0.9528109, 'geo': {'admin1': 'Emilia-Romagna', 'lat': '44.28266', 'lon': '11.10731', 'country_code3': 'ITA', 'geonameid': '6538478', 'place_name': 'Vergato', 'feature_class': 'A', 'feature_code': 'ADM3'}}
{'word': 'Iowa', 'spans': [{'start': 0, 'end': 4}], 'country_predicted': 'USA', 'country_conf': 0.9634983, 'geo': {'admin1': 'Iowa', 'lat': '42.00027', 'lon': '-93.50049', 'country_code3': 'USA', 'geonameid': '4862182', 'place_name': 'Iowa', 'feature_class': 'A', 'feature_code': 'ADM1'}}
{'word': 'America', 'spans': [{'start': 0, 'end': 7}], 'country_predicted': 'USA', 'country_conf': 0.9516948, 'geo': {'admin1': 'Wyoming', 'lat': '41.54357', 'lon': '-109.85903', 'country_code3': 'USA', 'geonameid': '5830444', 'place_name': 'Little America', 'feature_class': 'P', 'feature_code': 'PPL'}}
{'word': 'Iowa', 'spans': [{'start': 0, 'end': 4}], 'country_predicted': 'USA', 'country_conf': 0.9634983, 'geo': {'admin1': 'Iowa', 'lat': '42.00027', 'lon': '-93.50049', 'country_code3': 'USA', 'geonameid': '4862182', 'place_name': 'Iowa', 'feature_class': 'A', 'feature_code': 'ADM1'}}
{'word': 'Vienna', 'spans': [{'start': 0, 'end': 6}], 'country_predicted': 'AUT', 'country_conf': 0.957188, 'geo': {'admin1': 'Vienna', 'lat': '48.20849', 'lon': '16.37208', 'country_code3': 'AUT', 'geonameid': '2761369', 'place_name': 'Vienna', 'feature_class': 'P', 'feature_code': 'PPLC'}}
{'word': 'Austria', 'spans': [{'start': 0, 'end': 7}], 'country_predicted': 'AUT', 'country_conf': 0.9516948, 'geo': {'admin1': 'NA', 'lat': '47.33333', 'lon': '13.33333', 'country_code3': 'AUT', 'geonameid': '2782113', 'place_name': 'Republic of Austria', 'feature_class': 'A', 'feature_code': 'PCLI'}}
{'word': '100&percnt', 'spans': [{'start': 0, 'end': 10}], 'country_predicted': '', 'country_conf': 0}
{'word': 'Iowa', 'spans': [{'start': 0, 'end': 4}], 'country_predicted': 'USA', 'country_conf': 0.9634983, 'geo': {'admin1': 'Iowa', 'lat': '42.00027', 'lon': '-93.50049', 'country_code3': 'USA', 'geonameid': '4862182', 'place_name': 'Iowa', 'feature_class': 'A', 'feature_code': 'ADM1'}}
{'word': 'Iowa', 'spans': [{'start': 0, 'end': 4}], 'country_predicted': 'USA', 'country_conf': 0.9634983, 'geo': {'admin1': 'Iowa', 'lat': '42.00027', 'lon': '-93.50049', 'country_code3': 'USA', 'geonameid': '4862182', 'place_name': 'Iowa', 'feature_class': 'A', 'feature_code': 'ADM1'}}
{'word': 'Iowa', 'spans': [{'start': 0, 'end': 4}], 'country_predicted': 'USA', 'country_conf': 0.9634983, 'geo': {'admin1': 'Iowa', 'lat': '42.00027', 'lon': '-93.50049', 'country_code3': 'USA', 'geonameid': '4862182', 'place_name': 'Iowa', 'feature_class': 'A', 'feature_code': 'ADM1'}}
{'word': 'Iowa', 'spans': [{'start': 0, 'end': 4}], 'country_predicted': 'USA', 'country_conf': 0.9634983, 'geo': {'admin1': 'Iowa', 'lat': '42.00027', 'lon': '-93.50049', 'country_code3': 'USA', 'geonameid': '4862182', 'place_name': 'Iowa', 'feature_class': 'A', 'feature_code': 'ADM1'}}
{'word': 'Iowa', 'spans': [{'start': 0, 'end': 4}], 'country_predicted': 'USA', 'country_conf': 0.9634983, 'geo': {'admin1': 'Iowa', 'lat': '42.00027', 'lon': '-93.50049', 'country_code3': 'USA', 'geonameid': '4862182', 'place_name': 'Iowa', 'feature_class': 'A', 'feature_code': 'ADM1'}}
{'word': 'Iowa', 'spans': [{'start': 0, 'end': 4}], 'country_predicted': 'USA', 'country_conf': 0.9634983, 'geo': {'admin1': 'Iowa', 'lat': '42.00027', 'lon': '-93.50049', 'country_code3': 'USA', 'geonameid': '4862182', 'place_name': 'Iowa', 'feature_class': 'A', 'feature_code': 'ADM1'}}
{'word': 'Iowa', 'spans': [{'start': 0, 'end': 4}], 'country_predicted': 'USA', 'country_conf': 0.9634983, 'geo': {'admin1': 'Iowa', 'lat': '42.00027', 'lon': '-93.50049', 'country_code3': 'USA', 'geonameid': '4862182', 'place_name': 'Iowa', 'feature_class': 'A', 'feature_code': 'ADM1'}}
{'word': 'Iowa', 'spans': [{'start': 0, 'end': 4}], 'country_predicted': 'USA', 'country_conf': 0.9634983, 'geo': {'admin1': 'Iowa', 'lat': '42.00027', 'lon': '-93.50049', 'country_code3': 'USA', 'geonameid': '4862182', 'place_name': 'Iowa', 'feature_class': 'A', 'feature_code': 'ADM1'}}
{'word': 'Iowa', 'spans': [{'start': 0, 'end': 4}], 'country_predicted': 'USA', 'country_conf': 0.9634983, 'geo': {'admin1': 'Iowa', 'lat': '42.00027', 'lon': '-93.50049', 'country_code3': 'USA', 'geonameid': '4862182', 'place_name': 'Iowa', 'feature_class': 'A', 'feature_code': 'ADM1'}}
