{'word': 'America', 'spans': [{'start': 0, 'end': 7}], 'country_predicted': 'USA', 'country_conf': 0.9516948, 'geo': {'admin1': 'Wyoming', 'lat': '41.54357', 'lon': '-109.85903', 'country_code3': 'USA', 'geonameid': '5830444', 'place_name': 'Little America', 'feature_class': 'P', 'feature_code': 'PPL'}}
{'word': 'America', 'spans': [{'start': 0, 'end': 7}], 'country_predicted': 'USA', 'country_conf': 0.9516948, 'geo': {'admin1': 'Wyoming', 'lat': '41.54357', 'lon': '-109.85903', 'country_code3': 'USA', 'geonameid': '5830444', 'place_name': 'Little America', 'feature_class': 'P', 'feature_code': 'PPL'}}
{'word': 'Gibraltar', 'spans': [{'start': 0, 'end': 9}], 'country_predicted': 'GIB', 'country_conf': 0.3105929}
{'word': 'Aberdeen', 'spans': [{'start': 0, 'end': 8}], 'country_predicted': 'GBR', 'country_conf': 0.957188, 'geo': {'admin1': 'Scotland', 'lat': '57.16667', 'lon': '-2.16667', 'country_code3': 'GBR', 'geonameid': '3333224', 'place_name': 'Aberdeen City', 'feature_class': 'A', 'feature_code': 'ADM2'}}
{'word': 'Maryland', 'spans': [{'start': 0, 'end': 8}], 'country_predicted': 'USA', 'country_conf': 0.9634983, 'geo': {'admin1': 'Maryland', 'lat': '39.00039', 'lon': '-76.74997', 'country_code3': 'USA', 'geonameid': '4361885', 'place_name': 'Maryland', 'feature_class': 'A', 'feature_code': 'ADM1'}}
{'word': 'Dakota', 'spans': [{'start': 0, 'end': 6}], 'country_predicted': 'USA', 'country_conf': 0.957188, 'geo': {'admin1': 'South Dakota', 'lat': '44.50026', 'lon': '-100.25069', 'country_code3': 'USA', 'geonameid': '5769223', 'place_name': 'South Dakota', 'feature_class': 'A', 'feature_code': 'ADM1'}}
{'word': 'Plains', 'spans': [{'start': 0, 'end': 6}], 'country_predicted': 'USA', 'country_conf': 0.957188, 'geo': {'admin1': 'Pennsylvania', 'lat': '41.27536', 'lon': '-75.8502', 'country_code3': 'USA', 'geonameid': '5206422', 'place_name': 'Plains', 'feature_class': 'P', 'feature_code': 'PPL'}}
{'word': 'USA', 'spans': [{'start': 0, 'end': 3}], 'country_predicted': 'USA', 'country_conf': 0.9516948, 'geo': {'admin1': 'Louisiana', 'lat': '29.2605', 'lon': '-89.35478', 'country_code3': 'USA', 'geonameid': '4319780', 'place_name': 'Chevron USA Incorporated Seaplane Base', 'feature_class': 'S', 'feature_code': 'AIRP'}}
{'word': 'Alberta', 'spans': [{'start': 0, 'end': 7}], 'country_predicted': 'CAN', 'country_conf': 0.87992215, 'geo': {'admin1': 'Alberta', 'lat': '52.28333', 'lon': '-117.469', 'country_code3': 'CAN', 'geonameid': '5883102', 'place_name': 'Alberta', 'feature_class': 'A', 'feature_code': 'ADM1'}}
{'word': 'Carolina', 'spans': [{'start': 0, 'end': 8}], 'country_predicted': 'BRA', 'country_conf': 0.87992215, 'geo': {'admin1': 'Maranho', 'lat': '-7.50794', 'lon': '-47.14907', 'country_code3': 'BRA', 'geonameid': '6319678', 'place_name': 'Carolina', 'feature_class': 'A', 'feature_code': 'ADM2'}}
{'word': 'Dakota', 'spans': [{'start': 0, 'end': 6}], 'country_predicted': 'USA', 'country_conf': 0.957188, 'geo': {'admin1': 'South Dakota', 'lat': '44.50026', 'lon': '-100.25069', 'country_code3': 'USA', 'geonameid': '5769223', 'place_name': 'South Dakota', 'feature_class': 'A', 'feature_code': 'ADM1'}}
{'word': 'Pennsylvania', 'spans': [{'start': 0, 'end': 12}], 'country_predicted': 'USA', 'country_conf': 0.9634983, 'geo': {'admin1': 'Pennsylvania', 'lat': '40.8', 'lon': '-77.7', 'country_code3': 'USA', 'geonameid': '6254927', 'place_name': 'Pennsylvania', 'feature_class': 'A', 'feature_code': 'ADM1'}}
{'word': 'Jersey', 'spans': [{'start': 0, 'end': 6}], 'country_predicted': 'JEY', 'country_conf': 0.9048774, 'geo': {'admin1': 'NA', 'lat': '49.2167', 'lon': '-2.13753', 'country_code3': 'JEY', 'geonameid': '3042143', 'place_name': 'Jersey', 'feature_class': 'T', 'feature_code': 'ISL'}}
{'word': 'Pennsylvania', 'spans': [{'start': 0, 'end': 12}], 'country_predicted': 'USA', 'country_conf': 0.9634983, 'geo': {'admin1': 'Pennsylvania', 'lat': '40.8', 'lon': '-77.7', 'country_code3': 'USA', 'geonameid': '6254927', 'place_name': 'Pennsylvania', 'feature_class': 'A', 'feature_code': 'ADM1'}}
{'word': 'USA', 'spans': [{'start': 0, 'end': 3}], 'country_predicted': 'USA', 'country_conf': 0.9516948, 'geo': {'admin1': 'Louisiana', 'lat': '29.2605', 'lon': '-89.35478', 'country_code3': 'USA', 'geonameid': '4319780', 'place_name': 'Chevron USA Incorporated Seaplane Base', 'feature_class': 'S', 'feature_code': 'AIRP'}}
{'word': 'los', 'spans': [{'start': 0, 'end': 3}], 'country_predicted': 'MEX', 'country_conf': 0.7178229, 'geo': {'admin1': 'Jalisco', 'lat': '20.42278', 'lon': '-103.18306', 'country_code3': 'MEX', 'geonameid': '8860783', 'place_name': 'Los Freseros (Los Sabinos)', 'feature_class': 'P', 'feature_code': 'PPL'}}
{'word': 'Jersey', 'spans': [{'start': 0, 'end': 6}], 'country_predicted': 'JEY', 'country_conf': 0.9048774, 'geo': {'admin1': 'NA', 'lat': '49.2167', 'lon': '-2.13753', 'country_code3': 'JEY', 'geonameid': '3042143', 'place_name': 'Jersey', 'feature_class': 'T', 'feature_code': 'ISL'}}
{'word': 'arriba', 'spans': [{'start': 0, 'end': 6}], 'country_predicted': 'ESP', 'country_conf': 0.28365934}
{'word': 'cruces', 'spans': [{'start': 0, 'end': 6}], 'country_predicted': 'CUB', 'country_conf': 0.87992215, 'geo': {'admin1': 'Cienfuegos', 'lat': '22.34203', 'lon': '-80.27021', 'country_code3': 'CUB', 'geonameid': '3563145', 'place_name': 'Cruces', 'feature_class': 'P', 'feature_code': 'PPLA2'}}
{'word': 'arriba', 'spans': [{'start': 0, 'end': 6}], 'country_predicted': 'ESP', 'country_conf': 0.28365934}
{'word': 'cruces', 'spans': [{'start': 0, 'end': 6}], 'country_predicted': 'CUB', 'country_conf': 0.87992215, 'geo': {'admin1': 'Cienfuegos', 'lat': '22.34203', 'lon': '-80.27021', 'country_code3': 'CUB', 'geonameid': '3563145', 'place_name': 'Cruces', 'feature_class': 'P', 'feature_code': 'PPLA2'}}
{'word': 'arriba', 'spans': [{'start': 0, 'end': 6}], 'country_predicted': 'ESP', 'country_conf': 0.28365934}
{'word': 'arriba', 'spans': [{'start': 0, 'end': 6}], 'country_predicted': 'ESP', 'country_conf': 0.28365934}
{'word': 'los', 'spans': [{'start': 0, 'end': 3}], 'country_predicted': 'MEX', 'country_conf': 0.7178229, 'geo': {'admin1': 'Jalisco', 'lat': '20.42278', 'lon': '-103.18306', 'country_code3': 'MEX', 'geonameid': '8860783', 'place_name': 'Los Freseros (Los Sabinos)', 'feature_class': 'P', 'feature_code': 'PPL'}}
{'word': 'riesgosas', 'spans': [{'start': 0, 'end': 9}], 'country_predicted': '', 'country_conf': 0}
{'word': 'Jersey', 'spans': [{'start': 0, 'end': 6}], 'country_predicted': 'JEY', 'country_conf': 0.9048774, 'geo': {'admin1': 'NA', 'lat': '49.2167', 'lon': '-2.13753', 'country_code3': 'JEY', 'geonameid': '3042143', 'place_name': 'Jersey', 'feature_class': 'T', 'feature_code': 'ISL'}}
{'word': 'USA', 'spans': [{'start': 0, 'end': 3}], 'country_predicted': 'USA', 'country_conf': 0.9516948, 'geo': {'admin1': 'Louisiana', 'lat': '29.2605', 'lon': '-89.35478', 'country_code3': 'USA', 'geonameid': '4319780', 'place_name': 'Chevron USA Incorporated Seaplane Base', 'feature_class': 'S', 'feature_code': 'AIRP'}}
{'word': 'Pennsylvania', 'spans': [{'start': 0, 'end': 12}], 'country_predicted': 'USA', 'country_conf': 0.9634983, 'geo': {'admin1': 'Pennsylvania', 'lat': '40.8', 'lon': '-77.7', 'country_code3': 'USA', 'geonameid': '6254927', 'place_name': 'Pennsylvania', 'feature_class': 'A', 'feature_code': 'ADM1'}}
{'word': 'Pennsylvania', 'spans': [{'start': 0, 'end': 12}], 'country_predicted': 'USA', 'country_conf': 0.9634983, 'geo': {'admin1': 'Pennsylvania', 'lat': '40.8', 'lon': '-77.7', 'country_code3': 'USA', 'geonameid': '6254927', 'place_name': 'Pennsylvania', 'feature_class': 'A', 'feature_code': 'ADM1'}}
{'word': 'Jersey', 'spans': [{'start': 0, 'end': 6}], 'country_predicted': 'JEY', 'country_conf': 0.9048774, 'geo': {'admin1': 'NA', 'lat': '49.2167', 'lon': '-2.13753', 'country_code3': 'JEY', 'geonameid': '3042143', 'place_name': 'Jersey', 'feature_class': 'T', 'feature_code': 'ISL'}}
{'word': 'Cleveland', 'spans': [{'start': 0, 'end': 9}], 'country_predicted': 'USA', 'country_conf': 0.6353264, 'geo': {'admin1': 'Ohio', 'lat': '41.4995', 'lon': '-81.69541', 'country_code3': 'USA', 'geonameid': '5150529', 'place_name': 'Cleveland', 'feature_class': 'P', 'feature_code': 'PPLA2'}}
{'word': 'Ohio', 'spans': [{'start': 0, 'end': 4}], 'country_predicted': 'USA', 'country_conf': 0.9634983, 'geo': {'admin1': 'Ohio', 'lat': '40.25034', 'lon': '-83.00018', 'country_code3': 'USA', 'geonameid': '5165418', 'place_name': 'Ohio', 'feature_class': 'A', 'feature_code': 'ADM1'}}
{'word': 'Jersey', 'spans': [{'start': 0, 'end': 6}], 'country_predicted': 'JEY', 'country_conf': 0.9048774, 'geo': {'admin1': 'NA', 'lat': '49.2167', 'lon': '-2.13753', 'country_code3': 'JEY', 'geonameid': '3042143', 'place_name': 'Jersey', 'feature_class': 'T', 'feature_code': 'ISL'}}
{'word': 'USA', 'spans': [{'start': 0, 'end': 3}], 'country_predicted': 'USA', 'country_conf': 0.9516948, 'geo': {'admin1': 'Louisiana', 'lat': '29.2605', 'lon': '-89.35478', 'country_code3': 'USA', 'geonameid': '4319780', 'place_name': 'Chevron USA Incorporated Seaplane Base', 'feature_class': 'S', 'feature_code': 'AIRP'}}
{'word': 'America', 'spans': [{'start': 0, 'end': 7}], 'country_predicted': 'USA', 'country_conf': 0.9516948, 'geo': {'admin1': 'Wyoming', 'lat': '41.54357', 'lon': '-109.85903', 'country_code3': 'USA', 'geonameid': '5830444', 'place_name': 'Little America', 'feature_class': 'P', 'feature_code': 'PPL'}}
{'word': 'Jersey', 'spans': [{'start': 0, 'end': 6}], 'country_predicted': 'JEY', 'country_conf': 0.9048774, 'geo': {'admin1': 'NA', 'lat': '49.2167', 'lon': '-2.13753', 'country_code3': 'JEY', 'geonameid': '3042143', 'place_name': 'Jersey', 'feature_class': 'T', 'feature_code': 'ISL'}}
{'word': 'USA', 'spans': [{'start': 0, 'end': 3}], 'country_predicted': 'USA', 'country_conf': 0.9516948, 'geo': {'admin1': 'Louisiana', 'lat': '29.2605', 'lon': '-89.35478', 'country_code3': 'USA', 'geonameid': '4319780', 'place_name': 'Chevron USA Incorporated Seaplane Base', 'feature_class': 'S', 'feature_code': 'AIRP'}}
{'word': 'Beaverton', 'spans': [{'start': 0, 'end': 9}], 'country_predicted': 'USA', 'country_conf': 0.957188, 'geo': {'admin1': 'Oregon', 'lat': '45.48706', 'lon': '-122.80371', 'country_code3': 'USA', 'geonameid': '5713376', 'place_name': 'Beaverton', 'feature_class': 'P', 'feature_code': 'PPL'}}
{'word': 'Oregon', 'spans': [{'start': 0, 'end': 6}], 'country_predicted': 'USA', 'country_conf': 0.9634983, 'geo': {'admin1': 'Oregon', 'lat': '44.00013', 'lon': '-120.50139', 'country_code3': 'USA', 'geonameid': '5744337', 'place_name': 'Oregon', 'feature_class': 'A', 'feature_code': 'ADM1'}}
{'word': 'Jersey', 'spans': [{'start': 0, 'end': 6}], 'country_predicted': 'JEY', 'country_conf': 0.9048774, 'geo': {'admin1': 'NA', 'lat': '49.2167', 'lon': '-2.13753', 'country_code3': 'JEY', 'geonameid': '3042143', 'place_name': 'Jersey', 'feature_class': 'T', 'feature_code': 'ISL'}}
{'word': 'USA', 'spans': [{'start': 0, 'end': 3}], 'country_predicted': 'USA', 'country_conf': 0.9516948, 'geo': {'admin1': 'Louisiana', 'lat': '29.2605', 'lon': '-89.35478', 'country_code3': 'USA', 'geonameid': '4319780', 'place_name': 'Chevron USA Incorporated Seaplane Base', 'feature_class': 'S', 'feature_code': 'AIRP'}}
{'word': 'Redlands', 'spans': [{'start': 0, 'end': 8}], 'country_predicted': 'USA', 'country_conf': 0.957188, 'geo': {'admin1': 'California', 'lat': '34.05557', 'lon': '-117.18254', 'country_code3': 'USA', 'geonameid': '5386754', 'place_name': 'Redlands', 'feature_class': 'P', 'feature_code': 'PPL'}}
{'word': 'California', 'spans': [{'start': 0, 'end': 10}], 'country_predicted': 'COL', 'country_conf': 0.19161284}
{'word': 'USA', 'spans': [{'start': 0, 'end': 3}], 'country_predicted': 'USA', 'country_conf': 0.9516948, 'geo': {'admin1': 'Louisiana', 'lat': '29.2605', 'lon': '-89.35478', 'country_code3': 'USA', 'geonameid': '4319780', 'place_name': 'Chevron USA Incorporated Seaplane Base', 'feature_class': 'S', 'feature_code': 'AIRP'}}
{'word': 'Redlands', 'spans': [{'start': 0, 'end': 8}], 'country_predicted': 'USA', 'country_conf': 0.957188, 'geo': {'admin1': 'California', 'lat': '34.05557', 'lon': '-117.18254', 'country_code3': 'USA', 'geonameid': '5386754', 'place_name': 'Redlands', 'feature_class': 'P', 'feature_code': 'PPL'}}
{'word': 'California', 'spans': [{'start': 0, 'end': 10}], 'country_predicted': 'COL', 'country_conf': 0.19161284}
{'word': 'Wisconsin', 'spans': [{'start': 0, 'end': 9}], 'country_predicted': 'USA', 'country_conf': 0.9634983, 'geo': {'admin1': 'Wisconsin', 'lat': '44.50024', 'lon': '-90.00041', 'country_code3': 'USA', 'geonameid': '5279468', 'place_name': 'Wisconsin', 'feature_class': 'A', 'feature_code': 'ADM1'}}
{'word': 'Pretoria', 'spans': [{'start': 0, 'end': 8}], 'country_predicted': 'ZAF', 'country_conf': 0.87992215, 'geo': {'admin1': 'Gauteng', 'lat': '-26.08333', 'lon': '28.25', 'country_code3': 'ZAF', 'geonameid': '1085594', 'place_name': 'Gauteng', 'feature_class': 'A', 'feature_code': 'ADM1'}}
{'word': 'Jersey', 'spans': [{'start': 0, 'end': 6}], 'country_predicted': 'JEY', 'country_conf': 0.9048774, 'geo': {'admin1': 'NA', 'lat': '49.2167', 'lon': '-2.13753', 'country_code3': 'JEY', 'geonameid': '3042143', 'place_name': 'Jersey', 'feature_class': 'T', 'feature_code': 'ISL'}}
{'word': 'USA', 'spans': [{'start': 0, 'end': 3}], 'country_predicted': 'USA', 'country_conf': 0.9516948, 'geo': {'admin1': 'Louisiana', 'lat': '29.2605', 'lon': '-89.35478', 'country_code3': 'USA', 'geonameid': '4319780', 'place_name': 'Chevron USA Incorporated Seaplane Base', 'feature_class': 'S', 'feature_code': 'AIRP'}}
{'word': 'Jersey', 'spans': [{'start': 0, 'end': 6}], 'country_predicted': 'JEY', 'country_conf': 0.9048774, 'geo': {'admin1': 'NA', 'lat': '49.2167', 'lon': '-2.13753', 'country_code3': 'JEY', 'geonameid': '3042143', 'place_name': 'Jersey', 'feature_class': 'T', 'feature_code': 'ISL'}}
{'word': 'USA', 'spans': [{'start': 0, 'end': 3}], 'country_predicted': 'USA', 'country_conf': 0.9516948, 'geo': {'admin1': 'Louisiana', 'lat': '29.2605', 'lon': '-89.35478', 'country_code3': 'USA', 'geonameid': '4319780', 'place_name': 'Chevron USA Incorporated Seaplane Base', 'feature_class': 'S', 'feature_code': 'AIRP'}}
{'word': 'Turkey', 'spans': [{'start': 0, 'end': 6}], 'country_predicted': 'TUR', 'country_conf': 0.9516948, 'geo': {'admin1': 'NA', 'lat': '39', 'lon': '35', 'country_code3': 'TUR', 'geonameid': '298795', 'place_name': 'Republic of Turkey', 'feature_class': 'A', 'feature_code': 'PCLI'}}
{'word': 'Turkey', 'spans': [{'start': 1, 'end': 7}], 'country_predicted': 'TUR', 'country_conf': 0.9516948, 'geo': {'admin1': 'NA', 'lat': '39', 'lon': '35', 'country_code3': 'TUR', 'geonameid': '298795', 'place_name': 'Republic of Turkey', 'feature_class': 'A', 'feature_code': 'PCLI'}}
{'word': 'Canada', 'spans': [{'start': 0, 'end': 6}], 'country_predicted': 'CAN', 'country_conf': 0.9516948, 'geo': {'admin1': 'NA', 'lat': '60.10867', 'lon': '-113.64258', 'country_code3': 'CAN', 'geonameid': '6251999', 'place_name': 'Canada', 'feature_class': 'A', 'feature_code': 'PCLI'}}
{'word': 'Pennsylvania', 'spans': [{'start': 0, 'end': 12}], 'country_predicted': 'USA', 'country_conf': 0.9634983, 'geo': {'admin1': 'Pennsylvania', 'lat': '40.8', 'lon': '-77.7', 'country_code3': 'USA', 'geonameid': '6254927', 'place_name': 'Pennsylvania', 'feature_class': 'A', 'feature_code': 'ADM1'}}
{'word': 'USA', 'spans': [{'start': 0, 'end': 3}], 'country_predicted': 'USA', 'country_conf': 0.9516948, 'geo': {'admin1': 'Louisiana', 'lat': '29.2605', 'lon': '-89.35478', 'country_code3': 'USA', 'geonameid': '4319780', 'place_name': 'Chevron USA Incorporated Seaplane Base', 'feature_class': 'S', 'feature_code': 'AIRP'}}
{'word': 'Colorado', 'spans': [{'start': 0, 'end': 8}], 'country_predicted': 'CRI', 'country_conf': 0.19161284}
{'word': 'USA', 'spans': [{'start': 0, 'end': 3}], 'country_predicted': 'USA', 'country_conf': 0.9516948, 'geo': {'admin1': 'Louisiana', 'lat': '29.2605', 'lon': '-89.35478', 'country_code3': 'USA', 'geonameid': '4319780', 'place_name': 'Chevron USA Incorporated Seaplane Base', 'feature_class': 'S', 'feature_code': 'AIRP'}}
