{'word': 'Mexico', 'spans': [{'start': 0, 'end': 6}], 'country_predicted': 'MEX', 'country_conf': 0.9516948, 'geo': {'admin1': 'NA', 'lat': '23', 'lon': '-102', 'country_code3': 'MEX', 'geonameid': '3996063', 'place_name': 'Mexico', 'feature_class': 'A', 'feature_code': 'PCLI'}}
{'word': 'California', 'spans': [{'start': 0, 'end': 10}], 'country_predicted': 'COL', 'country_conf': 0.19161284}
{'word': 'California', 'spans': [{'start': 0, 'end': 10}], 'country_predicted': 'COL', 'country_conf': 0.19161284}
{'word': 'Arizona', 'spans': [{'start': 0, 'end': 7}], 'country_predicted': 'USA', 'country_conf': 0.9634983, 'geo': {'admin1': 'Arizona', 'lat': '34.5003', 'lon': '-111.50098', 'country_code3': 'USA', 'geonameid': '5551752', 'place_name': 'Arizona', 'feature_class': 'A', 'feature_code': 'ADM1'}}
{'word': 'los', 'spans': [{'start': 0, 'end': 3}], 'country_predicted': 'MEX', 'country_conf': 0.7178229, 'geo': {'admin1': 'Jalisco', 'lat': '20.42278', 'lon': '-103.18306', 'country_code3': 'MEX', 'geonameid': '8860783', 'place_name': 'Los Freseros (Los Sabinos)', 'feature_class': 'P', 'feature_code': 'PPL'}}
{'word': 'largo', 'spans': [{'start': 0, 'end': 5}], 'country_predicted': 'USA', 'country_conf': 0.957188, 'geo': {'admin1': 'Florida', 'lat': '27.90979', 'lon': '-82.78842', 'country_code3': 'USA', 'geonameid': '4161580', 'place_name': 'Largo', 'feature_class': 'P', 'feature_code': 'PPL'}}
{'word': 'baja', 'spans': [{'start': 0, 'end': 4}], 'country_predicted': 'HUN', 'country_conf': 0.87992215, 'geo': {'admin1': 'Bcs-Kiskun', 'lat': '46.18299', 'lon': '18.95307', 'country_code3': 'HUN', 'geonameid': '3055685', 'place_name': 'Baja', 'feature_class': 'P', 'feature_code': 'PPLA2'}}
{'word': 'Arizona', 'spans': [{'start': 0, 'end': 7}], 'country_predicted': 'USA', 'country_conf': 0.9634983, 'geo': {'admin1': 'Arizona', 'lat': '34.5003', 'lon': '-111.50098', 'country_code3': 'USA', 'geonameid': '5551752', 'place_name': 'Arizona', 'feature_class': 'A', 'feature_code': 'ADM1'}}
{'word': 'norte', 'spans': [{'start': 0, 'end': 5}], 'country_predicted': 'ESP', 'country_conf': 0.28365934}
{'word': 'los', 'spans': [{'start': 0, 'end': 3}], 'country_predicted': 'MEX', 'country_conf': 0.7178229, 'geo': {'admin1': 'Jalisco', 'lat': '20.42278', 'lon': '-103.18306', 'country_code3': 'MEX', 'geonameid': '8860783', 'place_name': 'Los Freseros (Los Sabinos)', 'feature_class': 'P', 'feature_code': 'PPL'}}
{'word': 'mature.&rdquo', 'spans': [{'start': 0, 'end': 13}], 'country_predicted': '', 'country_conf': 0}
{'word': 'Colorado', 'spans': [{'start': 0, 'end': 8}], 'country_predicted': 'CRI', 'country_conf': 0.19161284}
{'word': 'Wyoming', 'spans': [{'start': 0, 'end': 7}], 'country_predicted': 'AUS', 'country_conf': 0.8529637, 'geo': {'admin1': 'New South Wales', 'lat': '-33.40387', 'lon': '151.36254', 'country_code3': 'AUS', 'geonameid': '8348757', 'place_name': 'Wyoming', 'feature_class': 'P', 'feature_code': 'PPLX'}}
{'word': 'Montana', 'spans': [{'start': 0, 'end': 7}], 'country_predicted': 'USA', 'country_conf': 0.9634983, 'geo': {'admin1': 'Montana', 'lat': '47.00025', 'lon': '-109.75102', 'country_code3': 'USA', 'geonameid': '5667009', 'place_name': 'Montana', 'feature_class': 'A', 'feature_code': 'ADM1'}}
{'word': 'Nevada', 'spans': [{'start': 0, 'end': 6}], 'country_predicted': 'USA', 'country_conf': 0.9634983, 'geo': {'admin1': 'Nevada', 'lat': '39.25021', 'lon': '-116.75119', 'country_code3': 'USA', 'geonameid': '5509151', 'place_name': 'Nevada', 'feature_class': 'A', 'feature_code': 'ADM1'}}
{'word': 'California', 'spans': [{'start': 0, 'end': 10}], 'country_predicted': 'COL', 'country_conf': 0.19161284}
{'word': 'Canada', 'spans': [{'start': 0, 'end': 6}], 'country_predicted': 'CAN', 'country_conf': 0.9516948, 'geo': {'admin1': 'NA', 'lat': '60.10867', 'lon': '-113.64258', 'country_code3': 'CAN', 'geonameid': '6251999', 'place_name': 'Canada', 'feature_class': 'A', 'feature_code': 'PCLI'}}
{'word': 'Mexico', 'spans': [{'start': 0, 'end': 6}], 'country_predicted': 'MEX', 'country_conf': 0.9516948, 'geo': {'admin1': 'NA', 'lat': '23', 'lon': '-102', 'country_code3': 'MEX', 'geonameid': '3996063', 'place_name': 'Mexico', 'feature_class': 'A', 'feature_code': 'PCLI'}}
{'word': 'Colorado', 'spans': [{'start': 0, 'end': 8}], 'country_predicted': 'CRI', 'country_conf': 0.19161284}
{'word': 'Mexico', 'spans': [{'start': 0, 'end': 6}], 'country_predicted': 'MEX', 'country_conf': 0.9516948, 'geo': {'admin1': 'NA', 'lat': '23', 'lon': '-102', 'country_code3': 'MEX', 'geonameid': '3996063', 'place_name': 'Mexico', 'feature_class': 'A', 'feature_code': 'PCLI'}}
{'word': 'Utah', 'spans': [{'start': 0, 'end': 4}], 'country_predicted': 'USA', 'country_conf': 0.9634983, 'geo': {'admin1': 'Utah', 'lat': '39.25024', 'lon': '-111.75103', 'country_code3': 'USA', 'geonameid': '5549030', 'place_name': 'Utah', 'feature_class': 'A', 'feature_code': 'ADM1'}}
{'word': 'Arizona', 'spans': [{'start': 0, 'end': 7}], 'country_predicted': 'USA', 'country_conf': 0.9634983, 'geo': {'admin1': 'Arizona', 'lat': '34.5003', 'lon': '-111.50098', 'country_code3': 'USA', 'geonameid': '5551752', 'place_name': 'Arizona', 'feature_class': 'A', 'feature_code': 'ADM1'}}
{'word': 'California', 'spans': [{'start': 0, 'end': 10}], 'country_predicted': 'COL', 'country_conf': 0.19161284}
{'word': 'Oregon', 'spans': [{'start': 0, 'end': 6}], 'country_predicted': 'USA', 'country_conf': 0.9634983, 'geo': {'admin1': 'Oregon', 'lat': '44.00013', 'lon': '-120.50139', 'country_code3': 'USA', 'geonameid': '5744337', 'place_name': 'Oregon', 'feature_class': 'A', 'feature_code': 'ADM1'}}
{'word': 'Utah', 'spans': [{'start': 0, 'end': 4}], 'country_predicted': 'USA', 'country_conf': 0.9634983, 'geo': {'admin1': 'Utah', 'lat': '39.25024', 'lon': '-111.75103', 'country_code3': 'USA', 'geonameid': '5549030', 'place_name': 'Utah', 'feature_class': 'A', 'feature_code': 'ADM1'}}
{'word': 'Colorado', 'spans': [{'start': 0, 'end': 8}], 'country_predicted': 'CRI', 'country_conf': 0.19161284}
{'word': 'Arizona', 'spans': [{'start': 0, 'end': 7}], 'country_predicted': 'USA', 'country_conf': 0.9634983, 'geo': {'admin1': 'Arizona', 'lat': '34.5003', 'lon': '-111.50098', 'country_code3': 'USA', 'geonameid': '5551752', 'place_name': 'Arizona', 'feature_class': 'A', 'feature_code': 'ADM1'}}
{'word': 'Colorado', 'spans': [{'start': 0, 'end': 8}], 'country_predicted': 'CRI', 'country_conf': 0.19161284}
{'word': 'Mexico', 'spans': [{'start': 0, 'end': 6}], 'country_predicted': 'MEX', 'country_conf': 0.9516948, 'geo': {'admin1': 'NA', 'lat': '23', 'lon': '-102', 'country_code3': 'MEX', 'geonameid': '3996063', 'place_name': 'Mexico', 'feature_class': 'A', 'feature_code': 'PCLI'}}
{'word': 'California', 'spans': [{'start': 0, 'end': 10}], 'country_predicted': 'COL', 'country_conf': 0.19161284}
{'word': 'Oregon', 'spans': [{'start': 0, 'end': 6}], 'country_predicted': 'USA', 'country_conf': 0.9634983, 'geo': {'admin1': 'Oregon', 'lat': '44.00013', 'lon': '-120.50139', 'country_code3': 'USA', 'geonameid': '5744337', 'place_name': 'Oregon', 'feature_class': 'A', 'feature_code': 'ADM1'}}
{'word': 'bioclimatic', 'spans': [{'start': 0, 'end': 11}], 'country_predicted': 'USA', 'country_conf': 0.9528109, 'geo': {'admin1': 'New York', 'lat': '42.4473', 'lon': '-76.4604', 'country_code3': 'USA', 'geonameid': '7185937', 'place_name': 'Guterman Bioclimatic Laboratory', 'feature_class': 'S', 'feature_code': 'BLDG'}}
{'word': 'Paradzick', 'spans': [{'start': 0, 'end': 9}], 'country_predicted': 'BIH', 'country_conf': 0.9528109, 'geo': {'admin1': 'Republic of Srspka', 'lat': '43.88194', 'lon': '18.75303', 'country_code3': 'BIH', 'geonameid': '3274785', 'place_name': 'Karadia Brdo', 'feature_class': 'T', 'feature_code': 'HLL'}}
{'word': 'Idaho', 'spans': [{'start': 1, 'end': 6}], 'country_predicted': 'USA', 'country_conf': 0.9634983, 'geo': {'admin1': 'Idaho', 'lat': '44.5002', 'lon': '-114.25118', 'country_code3': 'USA', 'geonameid': '5596512', 'place_name': 'Idaho', 'feature_class': 'A', 'feature_code': 'ADM1'}}
{'word': 'Washington', 'spans': [{'start': 0, 'end': 10}], 'country_predicted': 'USA', 'country_conf': 0.69099617, 'geo': {'admin1': 'Washington', 'lat': '47.50012', 'lon': '-120.50147', 'country_code3': 'USA', 'geonameid': '5815135', 'place_name': 'Washington', 'feature_class': 'A', 'feature_code': 'ADM1'}}
{'word': 'Oregon', 'spans': [{'start': 0, 'end': 6}], 'country_predicted': 'USA', 'country_conf': 0.9634983, 'geo': {'admin1': 'Oregon', 'lat': '44.00013', 'lon': '-120.50139', 'country_code3': 'USA', 'geonameid': '5744337', 'place_name': 'Oregon', 'feature_class': 'A', 'feature_code': 'ADM1'}}
{'word': 'California', 'spans': [{'start': 0, 'end': 10}], 'country_predicted': 'COL', 'country_conf': 0.19161284}
{'word': 'Nevada', 'spans': [{'start': 0, 'end': 6}], 'country_predicted': 'USA', 'country_conf': 0.9634983, 'geo': {'admin1': 'Nevada', 'lat': '39.25021', 'lon': '-116.75119', 'country_code3': 'USA', 'geonameid': '5509151', 'place_name': 'Nevada', 'feature_class': 'A', 'feature_code': 'ADM1'}}
{'word': 'Utah', 'spans': [{'start': 0, 'end': 4}], 'country_predicted': 'USA', 'country_conf': 0.9634983, 'geo': {'admin1': 'Utah', 'lat': '39.25024', 'lon': '-111.75103', 'country_code3': 'USA', 'geonameid': '5549030', 'place_name': 'Utah', 'feature_class': 'A', 'feature_code': 'ADM1'}}
{'word': 'Colorado', 'spans': [{'start': 0, 'end': 8}], 'country_predicted': 'CRI', 'country_conf': 0.19161284}
{'word': 'Wyoming', 'spans': [{'start': 0, 'end': 7}], 'country_predicted': 'AUS', 'country_conf': 0.8529637, 'geo': {'admin1': 'New South Wales', 'lat': '-33.40387', 'lon': '151.36254', 'country_code3': 'AUS', 'geonameid': '8348757', 'place_name': 'Wyoming', 'feature_class': 'P', 'feature_code': 'PPLX'}}
{'word': 'Montana', 'spans': [{'start': 0, 'end': 7}], 'country_predicted': 'USA', 'country_conf': 0.9634983, 'geo': {'admin1': 'Montana', 'lat': '47.00025', 'lon': '-109.75102', 'country_code3': 'USA', 'geonameid': '5667009', 'place_name': 'Montana', 'feature_class': 'A', 'feature_code': 'ADM1'}}
{'word': 'Arizona', 'spans': [{'start': 1, 'end': 8}], 'country_predicted': 'USA', 'country_conf': 0.9634983, 'geo': {'admin1': 'Arizona', 'lat': '34.5003', 'lon': '-111.50098', 'country_code3': 'USA', 'geonameid': '5551752', 'place_name': 'Arizona', 'feature_class': 'A', 'feature_code': 'ADM1'}}
{'word': 'Mexico', 'spans': [{'start': 0, 'end': 6}], 'country_predicted': 'MEX', 'country_conf': 0.9516948, 'geo': {'admin1': 'NA', 'lat': '23', 'lon': '-102', 'country_code3': 'MEX', 'geonameid': '3996063', 'place_name': 'Mexico', 'feature_class': 'A', 'feature_code': 'PCLI'}}
{'word': 'Colorado', 'spans': [{'start': 0, 'end': 8}], 'country_predicted': 'CRI', 'country_conf': 0.19161284}
{'word': 'Utah', 'spans': [{'start': 0, 'end': 4}], 'country_predicted': 'USA', 'country_conf': 0.9634983, 'geo': {'admin1': 'Utah', 'lat': '39.25024', 'lon': '-111.75103', 'country_code3': 'USA', 'geonameid': '5549030', 'place_name': 'Utah', 'feature_class': 'A', 'feature_code': 'ADM1'}}
{'word': 'Nevada', 'spans': [{'start': 0, 'end': 6}], 'country_predicted': 'USA', 'country_conf': 0.9634983, 'geo': {'admin1': 'Nevada', 'lat': '39.25021', 'lon': '-116.75119', 'country_code3': 'USA', 'geonameid': '5509151', 'place_name': 'Nevada', 'feature_class': 'A', 'feature_code': 'ADM1'}}
{'word': 'California', 'spans': [{'start': 0, 'end': 10}], 'country_predicted': 'COL', 'country_conf': 0.19161284}
{'word': 'California', 'spans': [{'start': 0, 'end': 10}], 'country_predicted': 'COL', 'country_conf': 0.19161284}
{'word': 'California', 'spans': [{'start': 0, 'end': 10}], 'country_predicted': 'COL', 'country_conf': 0.19161284}
{'word': 'Oregon', 'spans': [{'start': 1, 'end': 7}], 'country_predicted': 'USA', 'country_conf': 0.9634983, 'geo': {'admin1': 'Oregon', 'lat': '44.00013', 'lon': '-120.50139', 'country_code3': 'USA', 'geonameid': '5744337', 'place_name': 'Oregon', 'feature_class': 'A', 'feature_code': 'ADM1'}}
{'word': 'Utah', 'spans': [{'start': 0, 'end': 4}], 'country_predicted': 'USA', 'country_conf': 0.9634983, 'geo': {'admin1': 'Utah', 'lat': '39.25024', 'lon': '-111.75103', 'country_code3': 'USA', 'geonameid': '5549030', 'place_name': 'Utah', 'feature_class': 'A', 'feature_code': 'ADM1'}}
{'word': 'Colorado', 'spans': [{'start': 0, 'end': 8}], 'country_predicted': 'CRI', 'country_conf': 0.19161284}
{'word': 'Nevada', 'spans': [{'start': 0, 'end': 6}], 'country_predicted': 'USA', 'country_conf': 0.9634983, 'geo': {'admin1': 'Nevada', 'lat': '39.25021', 'lon': '-116.75119', 'country_code3': 'USA', 'geonameid': '5509151', 'place_name': 'Nevada', 'feature_class': 'A', 'feature_code': 'ADM1'}}
{'word': 'Arizona', 'spans': [{'start': 0, 'end': 7}], 'country_predicted': 'USA', 'country_conf': 0.9634983, 'geo': {'admin1': 'Arizona', 'lat': '34.5003', 'lon': '-111.50098', 'country_code3': 'USA', 'geonameid': '5551752', 'place_name': 'Arizona', 'feature_class': 'A', 'feature_code': 'ADM1'}}
{'word': 'Mexico', 'spans': [{'start': 0, 'end': 6}], 'country_predicted': 'MEX', 'country_conf': 0.9516948, 'geo': {'admin1': 'NA', 'lat': '23', 'lon': '-102', 'country_code3': 'MEX', 'geonameid': '3996063', 'place_name': 'Mexico', 'feature_class': 'A', 'feature_code': 'PCLI'}}
{'word': 'Arizona', 'spans': [{'start': 1, 'end': 8}], 'country_predicted': 'USA', 'country_conf': 0.9634983, 'geo': {'admin1': 'Arizona', 'lat': '34.5003', 'lon': '-111.50098', 'country_code3': 'USA', 'geonameid': '5551752', 'place_name': 'Arizona', 'feature_class': 'A', 'feature_code': 'ADM1'}}
{'word': 'Mexico', 'spans': [{'start': 0, 'end': 6}], 'country_predicted': 'MEX', 'country_conf': 0.9516948, 'geo': {'admin1': 'NA', 'lat': '23', 'lon': '-102', 'country_code3': 'MEX', 'geonameid': '3996063', 'place_name': 'Mexico', 'feature_class': 'A', 'feature_code': 'PCLI'}}
{'word': 'Utah', 'spans': [{'start': 0, 'end': 4}], 'country_predicted': 'USA', 'country_conf': 0.9634983, 'geo': {'admin1': 'Utah', 'lat': '39.25024', 'lon': '-111.75103', 'country_code3': 'USA', 'geonameid': '5549030', 'place_name': 'Utah', 'feature_class': 'A', 'feature_code': 'ADM1'}}
{'word': 'Oregon', 'spans': [{'start': 1, 'end': 7}], 'country_predicted': 'USA', 'country_conf': 0.9634983, 'geo': {'admin1': 'Oregon', 'lat': '44.00013', 'lon': '-120.50139', 'country_code3': 'USA', 'geonameid': '5744337', 'place_name': 'Oregon', 'feature_class': 'A', 'feature_code': 'ADM1'}}
{'word': 'Colorado', 'spans': [{'start': 0, 'end': 8}], 'country_predicted': 'CRI', 'country_conf': 0.19161284}
{'word': 'Utah', 'spans': [{'start': 0, 'end': 4}], 'country_predicted': 'USA', 'country_conf': 0.9634983, 'geo': {'admin1': 'Utah', 'lat': '39.25024', 'lon': '-111.75103', 'country_code3': 'USA', 'geonameid': '5549030', 'place_name': 'Utah', 'feature_class': 'A', 'feature_code': 'ADM1'}}
{'word': 'Arizona', 'spans': [{'start': 0, 'end': 7}], 'country_predicted': 'USA', 'country_conf': 0.9634983, 'geo': {'admin1': 'Arizona', 'lat': '34.5003', 'lon': '-111.50098', 'country_code3': 'USA', 'geonameid': '5551752', 'place_name': 'Arizona', 'feature_class': 'A', 'feature_code': 'ADM1'}}
{'word': 'Mexico', 'spans': [{'start': 0, 'end': 6}], 'country_predicted': 'MEX', 'country_conf': 0.9516948, 'geo': {'admin1': 'NA', 'lat': '23', 'lon': '-102', 'country_code3': 'MEX', 'geonameid': '3996063', 'place_name': 'Mexico', 'feature_class': 'A', 'feature_code': 'PCLI'}}
{'word': '100&percnt', 'spans': [{'start': 0, 'end': 10}], 'country_predicted': '', 'country_conf': 0}
{'word': 'Arizona', 'spans': [{'start': 0, 'end': 7}], 'country_predicted': 'USA', 'country_conf': 0.9634983, 'geo': {'admin1': 'Arizona', 'lat': '34.5003', 'lon': '-111.50098', 'country_code3': 'USA', 'geonameid': '5551752', 'place_name': 'Arizona', 'feature_class': 'A', 'feature_code': 'ADM1'}}
{'word': 'Arizona', 'spans': [{'start': 0, 'end': 7}], 'country_predicted': 'USA', 'country_conf': 0.9634983, 'geo': {'admin1': 'Arizona', 'lat': '34.5003', 'lon': '-111.50098', 'country_code3': 'USA', 'geonameid': '5551752', 'place_name': 'Arizona', 'feature_class': 'A', 'feature_code': 'ADM1'}}
{'word': 'Wyoming', 'spans': [{'start': 0, 'end': 7}], 'country_predicted': 'AUS', 'country_conf': 0.8529637, 'geo': {'admin1': 'New South Wales', 'lat': '-33.40387', 'lon': '151.36254', 'country_code3': 'AUS', 'geonameid': '8348757', 'place_name': 'Wyoming', 'feature_class': 'P', 'feature_code': 'PPLX'}}
{'word': 'Montana', 'spans': [{'start': 0, 'end': 7}], 'country_predicted': 'USA', 'country_conf': 0.9634983, 'geo': {'admin1': 'Montana', 'lat': '47.00025', 'lon': '-109.75102', 'country_code3': 'USA', 'geonameid': '5667009', 'place_name': 'Montana', 'feature_class': 'A', 'feature_code': 'ADM1'}}
{'word': 'taxon.&rdquo', 'spans': [{'start': 0, 'end': 12}], 'country_predicted': '', 'country_conf': 0}
{'word': 'Arizona', 'spans': [{'start': 0, 'end': 7}], 'country_predicted': 'USA', 'country_conf': 0.9634983, 'geo': {'admin1': 'Arizona', 'lat': '34.5003', 'lon': '-111.50098', 'country_code3': 'USA', 'geonameid': '5551752', 'place_name': 'Arizona', 'feature_class': 'A', 'feature_code': 'ADM1'}}
