{'word': 'Virginia', 'spans': [{'start': 0, 'end': 8}], 'country_predicted': 'HND', 'country_conf': 0.19161284}
{'word': 'Virginia', 'spans': [{'start': 0, 'end': 8}], 'country_predicted': 'HND', 'country_conf': 0.19161284}
{'word': 'macroinvertebrates', 'spans': [{'start': 0, 'end': 18}], 'country_predicted': '', 'country_conf': 0}
{'word': 'Penguins', 'spans': [{'start': 0, 'end': 8}], 'country_predicted': 'USA', 'country_conf': 0.9048774, 'geo': {'admin1': 'Utah', 'lat': '38.61915', 'lon': '-109.6179', 'country_code3': 'USA', 'geonameid': '5548445', 'place_name': 'Three Penguins', 'feature_class': 'T', 'feature_code': 'MT'}}
{'word': 'antarctica', 'spans': [{'start': 0, 'end': 10}], 'country_predicted': 'NA', 'country_conf': 0.28365934}
{'word': 'Missouri', 'spans': [{'start': 0, 'end': 8}], 'country_predicted': 'USA', 'country_conf': 0.9634983, 'geo': {'admin1': 'Missouri', 'lat': '38.25031', 'lon': '-92.50046', 'country_code3': 'USA', 'geonameid': '4398678', 'place_name': 'Missouri', 'feature_class': 'A', 'feature_code': 'ADM1'}}
{'word': 'Colorado', 'spans': [{'start': 0, 'end': 8}], 'country_predicted': 'CRI', 'country_conf': 0.19161284}
{'word': 'Maine', 'spans': [{'start': 0, 'end': 5}], 'country_predicted': 'USA', 'country_conf': 0.9634983, 'geo': {'admin1': 'Maine', 'lat': '45.50032', 'lon': '-69.24977', 'country_code3': 'USA', 'geonameid': '4971068', 'place_name': 'Maine', 'feature_class': 'A', 'feature_code': 'ADM1'}}
{'word': 'USA', 'spans': [{'start': 0, 'end': 3}], 'country_predicted': 'USA', 'country_conf': 0.9516948, 'geo': {'admin1': 'Louisiana', 'lat': '29.2605', 'lon': '-89.35478', 'country_code3': 'USA', 'geonameid': '4319780', 'place_name': 'Chevron USA Incorporated Seaplane Base', 'feature_class': 'S', 'feature_code': 'AIRP'}}
{'word': 'Virginia', 'spans': [{'start': 0, 'end': 8}], 'country_predicted': 'HND', 'country_conf': 0.19161284}
{'word': 'Michigan', 'spans': [{'start': 0, 'end': 8}], 'country_predicted': 'USA', 'country_conf': 0.9634983, 'geo': {'admin1': 'Michigan', 'lat': '44.25029', 'lon': '-85.50033', 'country_code3': 'USA', 'geonameid': '5001836', 'place_name': 'Michigan', 'feature_class': 'A', 'feature_code': 'ADM1'}}
{'word': 'Maine', 'spans': [{'start': 0, 'end': 5}], 'country_predicted': 'USA', 'country_conf': 0.9634983, 'geo': {'admin1': 'Maine', 'lat': '45.50032', 'lon': '-69.24977', 'country_code3': 'USA', 'geonameid': '4971068', 'place_name': 'Maine', 'feature_class': 'A', 'feature_code': 'ADM1'}}
{'word': 'carolina', 'spans': [{'start': 0, 'end': 8}], 'country_predicted': 'BRA', 'country_conf': 0.87992215, 'geo': {'admin1': 'Maranho', 'lat': '-7.50794', 'lon': '-47.14907', 'country_code3': 'BRA', 'geonameid': '6319678', 'place_name': 'Carolina', 'feature_class': 'A', 'feature_code': 'ADM2'}}
{'word': 'Virginia', 'spans': [{'start': 0, 'end': 8}], 'country_predicted': 'HND', 'country_conf': 0.19161284}
{'word': 'Minnesota', 'spans': [{'start': 0, 'end': 9}], 'country_predicted': 'USA', 'country_conf': 0.9516948, 'geo': {'admin1': 'Minnesota', 'lat': '46.25024', 'lon': '-94.25055', 'country_code3': 'USA', 'geonameid': '5037779', 'place_name': 'Minnesota', 'feature_class': 'A', 'feature_code': 'ADM1'}}
{'word': 'Kentish', 'spans': [{'start': 0, 'end': 7}], 'country_predicted': 'AUS', 'country_conf': 0.28365934}
{'word': 'Virginia', 'spans': [{'start': 0, 'end': 8}], 'country_predicted': 'HND', 'country_conf': 0.19161284}
{'word': 'County', 'spans': [{'start': 0, 'end': 6}], 'country_predicted': 'GBR', 'country_conf': 0.28868946}
{'word': 'Iowa', 'spans': [{'start': 0, 'end': 4}], 'country_predicted': 'USA', 'country_conf': 0.9634983, 'geo': {'admin1': 'Iowa', 'lat': '42.00027', 'lon': '-93.50049', 'country_code3': 'USA', 'geonameid': '4862182', 'place_name': 'Iowa', 'feature_class': 'A', 'feature_code': 'ADM1'}}
{'word': 'Iowa', 'spans': [{'start': 0, 'end': 4}], 'country_predicted': 'USA', 'country_conf': 0.9634983, 'geo': {'admin1': 'Iowa', 'lat': '42.00027', 'lon': '-93.50049', 'country_code3': 'USA', 'geonameid': '4862182', 'place_name': 'Iowa', 'feature_class': 'A', 'feature_code': 'ADM1'}}
{'word': 'Virginia', 'spans': [{'start': 0, 'end': 8}], 'country_predicted': 'HND', 'country_conf': 0.19161284}
{'word': 'carolina', 'spans': [{'start': 0, 'end': 8}], 'country_predicted': 'BRA', 'country_conf': 0.87992215, 'geo': {'admin1': 'Maranho', 'lat': '-7.50794', 'lon': '-47.14907', 'country_code3': 'BRA', 'geonameid': '6319678', 'place_name': 'Carolina', 'feature_class': 'A', 'feature_code': 'ADM2'}}
{'word': 'Virginia', 'spans': [{'start': 0, 'end': 8}], 'country_predicted': 'HND', 'country_conf': 0.19161284}
{'word': 'Maine', 'spans': [{'start': 0, 'end': 5}], 'country_predicted': 'USA', 'country_conf': 0.9634983, 'geo': {'admin1': 'Maine', 'lat': '45.50032', 'lon': '-69.24977', 'country_code3': 'USA', 'geonameid': '4971068', 'place_name': 'Maine', 'feature_class': 'A', 'feature_code': 'ADM1'}}
{'word': 'USA', 'spans': [{'start': 0, 'end': 3}], 'country_predicted': 'USA', 'country_conf': 0.9516948, 'geo': {'admin1': 'Louisiana', 'lat': '29.2605', 'lon': '-89.35478', 'country_code3': 'USA', 'geonameid': '4319780', 'place_name': 'Chevron USA Incorporated Seaplane Base', 'feature_class': 'S', 'feature_code': 'AIRP'}}
{'word': 'anidan', 'spans': [{'start': 0, 'end': 6}], 'country_predicted': 'IRN', 'country_conf': 0.9528109, 'geo': {'admin1': 'Khuzestan', 'lat': '30.3392', 'lon': '48.3043', 'country_code3': 'IRN', 'geonameid': '145459', 'place_name': 'Abadan', 'feature_class': 'P', 'feature_code': 'PPL'}}
{'word': 'los', 'spans': [{'start': 0, 'end': 3}], 'country_predicted': 'MEX', 'country_conf': 0.7178229, 'geo': {'admin1': 'Jalisco', 'lat': '20.42278', 'lon': '-103.18306', 'country_code3': 'MEX', 'geonameid': '8860783', 'place_name': 'Los Freseros (Los Sabinos)', 'feature_class': 'P', 'feature_code': 'PPL'}}
{'word': 'los', 'spans': [{'start': 0, 'end': 3}], 'country_predicted': 'MEX', 'country_conf': 0.7178229, 'geo': {'admin1': 'Jalisco', 'lat': '20.42278', 'lon': '-103.18306', 'country_code3': 'MEX', 'geonameid': '8860783', 'place_name': 'Los Freseros (Los Sabinos)', 'feature_class': 'P', 'feature_code': 'PPL'}}
{'word': 'carolina', 'spans': [{'start': 0, 'end': 8}], 'country_predicted': 'BRA', 'country_conf': 0.87992215, 'geo': {'admin1': 'Maranho', 'lat': '-7.50794', 'lon': '-47.14907', 'country_code3': 'BRA', 'geonameid': '6319678', 'place_name': 'Carolina', 'feature_class': 'A', 'feature_code': 'ADM2'}}
{'word': 'los', 'spans': [{'start': 0, 'end': 3}], 'country_predicted': 'MEX', 'country_conf': 0.7178229, 'geo': {'admin1': 'Jalisco', 'lat': '20.42278', 'lon': '-103.18306', 'country_code3': 'MEX', 'geonameid': '8860783', 'place_name': 'Los Freseros (Los Sabinos)', 'feature_class': 'P', 'feature_code': 'PPL'}}
{'word': 'los', 'spans': [{'start': 0, 'end': 3}], 'country_predicted': 'MEX', 'country_conf': 0.7178229, 'geo': {'admin1': 'Jalisco', 'lat': '20.42278', 'lon': '-103.18306', 'country_code3': 'MEX', 'geonameid': '8860783', 'place_name': 'Los Freseros (Los Sabinos)', 'feature_class': 'P', 'feature_code': 'PPL'}}
{'word': 'los', 'spans': [{'start': 0, 'end': 3}], 'country_predicted': 'MEX', 'country_conf': 0.7178229, 'geo': {'admin1': 'Jalisco', 'lat': '20.42278', 'lon': '-103.18306', 'country_code3': 'MEX', 'geonameid': '8860783', 'place_name': 'Los Freseros (Los Sabinos)', 'feature_class': 'P', 'feature_code': 'PPL'}}
{'word': 'carolina', 'spans': [{'start': 0, 'end': 8}], 'country_predicted': 'BRA', 'country_conf': 0.87992215, 'geo': {'admin1': 'Maranho', 'lat': '-7.50794', 'lon': '-47.14907', 'country_code3': 'BRA', 'geonameid': '6319678', 'place_name': 'Carolina', 'feature_class': 'A', 'feature_code': 'ADM2'}}
{'word': 'Maine', 'spans': [{'start': 0, 'end': 5}], 'country_predicted': 'USA', 'country_conf': 0.9634983, 'geo': {'admin1': 'Maine', 'lat': '45.50032', 'lon': '-69.24977', 'country_code3': 'USA', 'geonameid': '4971068', 'place_name': 'Maine', 'feature_class': 'A', 'feature_code': 'ADM1'}}
{'word': 'los', 'spans': [{'start': 0, 'end': 3}], 'country_predicted': 'MEX', 'country_conf': 0.7178229, 'geo': {'admin1': 'Jalisco', 'lat': '20.42278', 'lon': '-103.18306', 'country_code3': 'MEX', 'geonameid': '8860783', 'place_name': 'Los Freseros (Los Sabinos)', 'feature_class': 'P', 'feature_code': 'PPL'}}
{'word': 'los', 'spans': [{'start': 0, 'end': 3}], 'country_predicted': 'MEX', 'country_conf': 0.7178229, 'geo': {'admin1': 'Jalisco', 'lat': '20.42278', 'lon': '-103.18306', 'country_code3': 'MEX', 'geonameid': '8860783', 'place_name': 'Los Freseros (Los Sabinos)', 'feature_class': 'P', 'feature_code': 'PPL'}}
{'word': 'los', 'spans': [{'start': 0, 'end': 3}], 'country_predicted': 'MEX', 'country_conf': 0.7178229, 'geo': {'admin1': 'Jalisco', 'lat': '20.42278', 'lon': '-103.18306', 'country_code3': 'MEX', 'geonameid': '8860783', 'place_name': 'Los Freseros (Los Sabinos)', 'feature_class': 'P', 'feature_code': 'PPL'}}
{'word': 'los', 'spans': [{'start': 0, 'end': 3}], 'country_predicted': 'MEX', 'country_conf': 0.7178229, 'geo': {'admin1': 'Jalisco', 'lat': '20.42278', 'lon': '-103.18306', 'country_code3': 'MEX', 'geonameid': '8860783', 'place_name': 'Los Freseros (Los Sabinos)', 'feature_class': 'P', 'feature_code': 'PPL'}}
{'word': 'inundaciones', 'spans': [{'start': 0, 'end': 12}], 'country_predicted': 'MYT', 'country_conf': 0.24821267}
{'word': 'los', 'spans': [{'start': 0, 'end': 3}], 'country_predicted': 'MEX', 'country_conf': 0.7178229, 'geo': {'admin1': 'Jalisco', 'lat': '20.42278', 'lon': '-103.18306', 'country_code3': 'MEX', 'geonameid': '8860783', 'place_name': 'Los Freseros (Los Sabinos)', 'feature_class': 'P', 'feature_code': 'PPL'}}
{'word': 'baja', 'spans': [{'start': 0, 'end': 4}], 'country_predicted': 'HUN', 'country_conf': 0.87992215, 'geo': {'admin1': 'Bcs-Kiskun', 'lat': '46.18299', 'lon': '18.95307', 'country_code3': 'HUN', 'geonameid': '3055685', 'place_name': 'Baja', 'feature_class': 'P', 'feature_code': 'PPLA2'}}
{'word': 'los', 'spans': [{'start': 0, 'end': 3}], 'country_predicted': 'MEX', 'country_conf': 0.7178229, 'geo': {'admin1': 'Jalisco', 'lat': '20.42278', 'lon': '-103.18306', 'country_code3': 'MEX', 'geonameid': '8860783', 'place_name': 'Los Freseros (Los Sabinos)', 'feature_class': 'P', 'feature_code': 'PPL'}}
{'word': 'carolina', 'spans': [{'start': 0, 'end': 8}], 'country_predicted': 'BRA', 'country_conf': 0.87992215, 'geo': {'admin1': 'Maranho', 'lat': '-7.50794', 'lon': '-47.14907', 'country_code3': 'BRA', 'geonameid': '6319678', 'place_name': 'Carolina', 'feature_class': 'A', 'feature_code': 'ADM2'}}
{'word': 'Kentish', 'spans': [{'start': 0, 'end': 7}], 'country_predicted': 'AUS', 'country_conf': 0.28365934}
{'word': 'Virginia', 'spans': [{'start': 0, 'end': 8}], 'country_predicted': 'HND', 'country_conf': 0.19161284}
{'word': 'carolina', 'spans': [{'start': 0, 'end': 8}], 'country_predicted': 'BRA', 'country_conf': 0.87992215, 'geo': {'admin1': 'Maranho', 'lat': '-7.50794', 'lon': '-47.14907', 'country_code3': 'BRA', 'geonameid': '6319678', 'place_name': 'Carolina', 'feature_class': 'A', 'feature_code': 'ADM2'}}
{'word': 'macroinvertebrates', 'spans': [{'start': 0, 'end': 18}], 'country_predicted': '', 'country_conf': 0}
{'word': 'Maine', 'spans': [{'start': 0, 'end': 5}], 'country_predicted': 'USA', 'country_conf': 0.9634983, 'geo': {'admin1': 'Maine', 'lat': '45.50032', 'lon': '-69.24977', 'country_code3': 'USA', 'geonameid': '4971068', 'place_name': 'Maine', 'feature_class': 'A', 'feature_code': 'ADM1'}}
{'word': 'USA', 'spans': [{'start': 0, 'end': 3}], 'country_predicted': 'USA', 'country_conf': 0.9516948, 'geo': {'admin1': 'Louisiana', 'lat': '29.2605', 'lon': '-89.35478', 'country_code3': 'USA', 'geonameid': '4319780', 'place_name': 'Chevron USA Incorporated Seaplane Base', 'feature_class': 'S', 'feature_code': 'AIRP'}}
{'word': 'Washington', 'spans': [{'start': 0, 'end': 10}], 'country_predicted': 'USA', 'country_conf': 0.69099617, 'geo': {'admin1': 'Washington', 'lat': '47.50012', 'lon': '-120.50147', 'country_code3': 'USA', 'geonameid': '5815135', 'place_name': 'Washington', 'feature_class': 'A', 'feature_code': 'ADM1'}}
{'word': 'County', 'spans': [{'start': 0, 'end': 6}], 'country_predicted': 'GBR', 'country_conf': 0.28868946}
{'word': 'Maine', 'spans': [{'start': 0, 'end': 5}], 'country_predicted': 'USA', 'country_conf': 0.9634983, 'geo': {'admin1': 'Maine', 'lat': '45.50032', 'lon': '-69.24977', 'country_code3': 'USA', 'geonameid': '4971068', 'place_name': 'Maine', 'feature_class': 'A', 'feature_code': 'ADM1'}}
{'word': 'Washington', 'spans': [{'start': 0, 'end': 10}], 'country_predicted': 'USA', 'country_conf': 0.69099617, 'geo': {'admin1': 'Washington', 'lat': '47.50012', 'lon': '-120.50147', 'country_code3': 'USA', 'geonameid': '5815135', 'place_name': 'Washington', 'feature_class': 'A', 'feature_code': 'ADM1'}}
{'word': 'County', 'spans': [{'start': 0, 'end': 6}], 'country_predicted': 'GBR', 'country_conf': 0.28868946}
{'word': 'Virginia', 'spans': [{'start': 0, 'end': 8}], 'country_predicted': 'HND', 'country_conf': 0.19161284}
{'word': 'Virginia', 'spans': [{'start': 0, 'end': 8}], 'country_predicted': 'HND', 'country_conf': 0.19161284}
{'word': 'Serpentes', 'spans': [{'start': 1, 'end': 10}], 'country_predicted': 'BRA', 'country_conf': 0.9528109, 'geo': {'admin1': 'Paran', 'lat': '-24.95583', 'lon': '-53.45528', 'country_code3': 'BRA', 'geonameid': '3466779', 'place_name': 'Cascavel', 'feature_class': 'P', 'feature_code': 'PPL'}}
{'word': 'Virginia', 'spans': [{'start': 0, 'end': 8}], 'country_predicted': 'HND', 'country_conf': 0.19161284}
{'word': 'Maine', 'spans': [{'start': 0, 'end': 5}], 'country_predicted': 'USA', 'country_conf': 0.9634983, 'geo': {'admin1': 'Maine', 'lat': '45.50032', 'lon': '-69.24977', 'country_code3': 'USA', 'geonameid': '4971068', 'place_name': 'Maine', 'feature_class': 'A', 'feature_code': 'ADM1'}}
{'word': 'USA', 'spans': [{'start': 0, 'end': 3}], 'country_predicted': 'USA', 'country_conf': 0.9516948, 'geo': {'admin1': 'Louisiana', 'lat': '29.2605', 'lon': '-89.35478', 'country_code3': 'USA', 'geonameid': '4319780', 'place_name': 'Chevron USA Incorporated Seaplane Base', 'feature_class': 'S', 'feature_code': 'AIRP'}}
{'word': 'Virginia', 'spans': [{'start': 0, 'end': 8}], 'country_predicted': 'HND', 'country_conf': 0.19161284}
{'word': 'Maine', 'spans': [{'start': 0, 'end': 5}], 'country_predicted': 'USA', 'country_conf': 0.9634983, 'geo': {'admin1': 'Maine', 'lat': '45.50032', 'lon': '-69.24977', 'country_code3': 'USA', 'geonameid': '4971068', 'place_name': 'Maine', 'feature_class': 'A', 'feature_code': 'ADM1'}}
{'word': 'Virginia', 'spans': [{'start': 0, 'end': 8}], 'country_predicted': 'HND', 'country_conf': 0.19161284}
{'word': 'Maine', 'spans': [{'start': 0, 'end': 5}], 'country_predicted': 'USA', 'country_conf': 0.9634983, 'geo': {'admin1': 'Maine', 'lat': '45.50032', 'lon': '-69.24977', 'country_code3': 'USA', 'geonameid': '4971068', 'place_name': 'Maine', 'feature_class': 'A', 'feature_code': 'ADM1'}}
{'word': 'Virginia', 'spans': [{'start': 0, 'end': 8}], 'country_predicted': 'HND', 'country_conf': 0.19161284}
{'word': 'Virginia', 'spans': [{'start': 0, 'end': 8}], 'country_predicted': 'HND', 'country_conf': 0.19161284}
{'word': 'Maine', 'spans': [{'start': 0, 'end': 5}], 'country_predicted': 'USA', 'country_conf': 0.9634983, 'geo': {'admin1': 'Maine', 'lat': '45.50032', 'lon': '-69.24977', 'country_code3': 'USA', 'geonameid': '4971068', 'place_name': 'Maine', 'feature_class': 'A', 'feature_code': 'ADM1'}}
{'word': 'USA', 'spans': [{'start': 0, 'end': 3}], 'country_predicted': 'USA', 'country_conf': 0.9516948, 'geo': {'admin1': 'Louisiana', 'lat': '29.2605', 'lon': '-89.35478', 'country_code3': 'USA', 'geonameid': '4319780', 'place_name': 'Chevron USA Incorporated Seaplane Base', 'feature_class': 'S', 'feature_code': 'AIRP'}}
{'word': 'Virginia', 'spans': [{'start': 0, 'end': 8}], 'country_predicted': 'HND', 'country_conf': 0.19161284}
{'word': 'Maine', 'spans': [{'start': 0, 'end': 5}], 'country_predicted': 'USA', 'country_conf': 0.9634983, 'geo': {'admin1': 'Maine', 'lat': '45.50032', 'lon': '-69.24977', 'country_code3': 'USA', 'geonameid': '4971068', 'place_name': 'Maine', 'feature_class': 'A', 'feature_code': 'ADM1'}}
{'word': 'USA', 'spans': [{'start': 0, 'end': 3}], 'country_predicted': 'USA', 'country_conf': 0.9516948, 'geo': {'admin1': 'Louisiana', 'lat': '29.2605', 'lon': '-89.35478', 'country_code3': 'USA', 'geonameid': '4319780', 'place_name': 'Chevron USA Incorporated Seaplane Base', 'feature_class': 'S', 'feature_code': 'AIRP'}}
{'word': 'Maine', 'spans': [{'start': 0, 'end': 5}], 'country_predicted': 'USA', 'country_conf': 0.9634983, 'geo': {'admin1': 'Maine', 'lat': '45.50032', 'lon': '-69.24977', 'country_code3': 'USA', 'geonameid': '4971068', 'place_name': 'Maine', 'feature_class': 'A', 'feature_code': 'ADM1'}}
{'word': 'Maine', 'spans': [{'start': 0, 'end': 5}], 'country_predicted': 'USA', 'country_conf': 0.9634983, 'geo': {'admin1': 'Maine', 'lat': '45.50032', 'lon': '-69.24977', 'country_code3': 'USA', 'geonameid': '4971068', 'place_name': 'Maine', 'feature_class': 'A', 'feature_code': 'ADM1'}}
{'word': 'Maine', 'spans': [{'start': 0, 'end': 5}], 'country_predicted': 'USA', 'country_conf': 0.9634983, 'geo': {'admin1': 'Maine', 'lat': '45.50032', 'lon': '-69.24977', 'country_code3': 'USA', 'geonameid': '4971068', 'place_name': 'Maine', 'feature_class': 'A', 'feature_code': 'ADM1'}}
