{'word': 'Valley', 'spans': [{'start': 0, 'end': 6}], 'country_predicted': 'USA', 'country_conf': 0.957188, 'geo': {'admin1': 'Alabama', 'lat': '32.81874', 'lon': '-85.17939', 'country_code3': 'USA', 'geonameid': '4095186', 'place_name': 'Valley', 'feature_class': 'P', 'feature_code': 'PPL'}}
{'word': 'Utah', 'spans': [{'start': 0, 'end': 4}], 'country_predicted': 'USA', 'country_conf': 0.9634983, 'geo': {'admin1': 'Utah', 'lat': '39.25024', 'lon': '-111.75103', 'country_code3': 'USA', 'geonameid': '5549030', 'place_name': 'Utah', 'feature_class': 'A', 'feature_code': 'ADM1'}}
{'word': 'Alaska', 'spans': [{'start': 0, 'end': 6}], 'country_predicted': 'USA', 'country_conf': 0.9634983, 'geo': {'admin1': 'Alaska', 'lat': '64.00028', 'lon': '-150.00028', 'country_code3': 'USA', 'geonameid': '5879092', 'place_name': 'Alaska', 'feature_class': 'A', 'feature_code': 'ADM1'}}
{'word': 'Alaska', 'spans': [{'start': 0, 'end': 6}], 'country_predicted': 'USA', 'country_conf': 0.9634983, 'geo': {'admin1': 'Alaska', 'lat': '64.00028', 'lon': '-150.00028', 'country_code3': 'USA', 'geonameid': '5879092', 'place_name': 'Alaska', 'feature_class': 'A', 'feature_code': 'ADM1'}}
{'word': 'California', 'spans': [{'start': 0, 'end': 10}], 'country_predicted': 'COL', 'country_conf': 0.19161284}
{'word': 'Saskatchewan', 'spans': [{'start': 0, 'end': 12}], 'country_predicted': 'CAN', 'country_conf': 0.9048774, 'geo': {'admin1': 'Saskatchewan', 'lat': '54.0001', 'lon': '-106.00099', 'country_code3': 'CAN', 'geonameid': '6141242', 'place_name': 'Saskatchewan', 'feature_class': 'A', 'feature_code': 'ADM1'}}
{'word': 'Oregon', 'spans': [{'start': 0, 'end': 6}], 'country_predicted': 'USA', 'country_conf': 0.9634983, 'geo': {'admin1': 'Oregon', 'lat': '44.00013', 'lon': '-120.50139', 'country_code3': 'USA', 'geonameid': '5744337', 'place_name': 'Oregon', 'feature_class': 'A', 'feature_code': 'ADM1'}}
{'word': 'USA', 'spans': [{'start': 0, 'end': 3}], 'country_predicted': 'USA', 'country_conf': 0.9516948, 'geo': {'admin1': 'Louisiana', 'lat': '29.2605', 'lon': '-89.35478', 'country_code3': 'USA', 'geonameid': '4319780', 'place_name': 'Chevron USA Incorporated Seaplane Base', 'feature_class': 'S', 'feature_code': 'AIRP'}}
{'word': 'Kansas', 'spans': [{'start': 0, 'end': 6}], 'country_predicted': 'USA', 'country_conf': 0.9634983, 'geo': {'admin1': 'Kansas', 'lat': '38.50029', 'lon': '-98.50063', 'country_code3': 'USA', 'geonameid': '4273857', 'place_name': 'Kansas', 'feature_class': 'A', 'feature_code': 'ADM1'}}
{'word': 'Canada', 'spans': [{'start': 0, 'end': 6}], 'country_predicted': 'CAN', 'country_conf': 0.9516948, 'geo': {'admin1': 'NA', 'lat': '60.10867', 'lon': '-113.64258', 'country_code3': 'CAN', 'geonameid': '6251999', 'place_name': 'Canada', 'feature_class': 'A', 'feature_code': 'PCLI'}}
{'word': 'Dakota', 'spans': [{'start': 0, 'end': 6}], 'country_predicted': 'USA', 'country_conf': 0.957188, 'geo': {'admin1': 'South Dakota', 'lat': '44.50026', 'lon': '-100.25069', 'country_code3': 'USA', 'geonameid': '5769223', 'place_name': 'South Dakota', 'feature_class': 'A', 'feature_code': 'ADM1'}}
{'word': 'Plains', 'spans': [{'start': 0, 'end': 6}], 'country_predicted': 'USA', 'country_conf': 0.957188, 'geo': {'admin1': 'Pennsylvania', 'lat': '41.27536', 'lon': '-75.8502', 'country_code3': 'USA', 'geonameid': '5206422', 'place_name': 'Plains', 'feature_class': 'P', 'feature_code': 'PPL'}}
{'word': 'Texas', 'spans': [{'start': 0, 'end': 5}], 'country_predicted': 'USA', 'country_conf': 0.9634983, 'geo': {'admin1': 'Texas', 'lat': '31.25044', 'lon': '-99.25061', 'country_code3': 'USA', 'geonameid': '4736286', 'place_name': 'Texas', 'feature_class': 'A', 'feature_code': 'ADM1'}}
{'word': 'Ontario', 'spans': [{'start': 0, 'end': 7}], 'country_predicted': 'CAN', 'country_conf': 0.87992215, 'geo': {'admin1': 'Ontario', 'lat': '49.25014', 'lon': '-84.49983', 'country_code3': 'CAN', 'geonameid': '6093943', 'place_name': 'Ontario', 'feature_class': 'A', 'feature_code': 'ADM1'}}
{'word': 'Canada', 'spans': [{'start': 0, 'end': 6}], 'country_predicted': 'CAN', 'country_conf': 0.9516948, 'geo': {'admin1': 'NA', 'lat': '60.10867', 'lon': '-113.64258', 'country_code3': 'CAN', 'geonameid': '6251999', 'place_name': 'Canada', 'feature_class': 'A', 'feature_code': 'PCLI'}}
{'word': 'Wyoming', 'spans': [{'start': 0, 'end': 7}], 'country_predicted': 'AUS', 'country_conf': 0.8529637, 'geo': {'admin1': 'New South Wales', 'lat': '-33.40387', 'lon': '151.36254', 'country_code3': 'AUS', 'geonameid': '8348757', 'place_name': 'Wyoming', 'feature_class': 'P', 'feature_code': 'PPLX'}}
{'word': 'Texas', 'spans': [{'start': 0, 'end': 5}], 'country_predicted': 'USA', 'country_conf': 0.9634983, 'geo': {'admin1': 'Texas', 'lat': '31.25044', 'lon': '-99.25061', 'country_code3': 'USA', 'geonameid': '4736286', 'place_name': 'Texas', 'feature_class': 'A', 'feature_code': 'ADM1'}}
{'word': 'Mayfield', 'spans': [{'start': 0, 'end': 8}], 'country_predicted': 'GBR', 'country_conf': 0.28365934}
{'word': 'Turkey', 'spans': [{'start': 0, 'end': 6}], 'country_predicted': 'TUR', 'country_conf': 0.9516948, 'geo': {'admin1': 'NA', 'lat': '39', 'lon': '35', 'country_code3': 'TUR', 'geonameid': '298795', 'place_name': 'Republic of Turkey', 'feature_class': 'A', 'feature_code': 'PCLI'}}
{'word': 'County', 'spans': [{'start': 0, 'end': 6}], 'country_predicted': 'GBR', 'country_conf': 0.28868946}
{'word': 'California', 'spans': [{'start': 0, 'end': 10}], 'country_predicted': 'COL', 'country_conf': 0.19161284}
{'word': 'Canada', 'spans': [{'start': 0, 'end': 6}], 'country_predicted': 'CAN', 'country_conf': 0.9516948, 'geo': {'admin1': 'NA', 'lat': '60.10867', 'lon': '-113.64258', 'country_code3': 'CAN', 'geonameid': '6251999', 'place_name': 'Canada', 'feature_class': 'A', 'feature_code': 'PCLI'}}
{'word': 'Montana', 'spans': [{'start': 0, 'end': 7}], 'country_predicted': 'USA', 'country_conf': 0.9634983, 'geo': {'admin1': 'Montana', 'lat': '47.00025', 'lon': '-109.75102', 'country_code3': 'USA', 'geonameid': '5667009', 'place_name': 'Montana', 'feature_class': 'A', 'feature_code': 'ADM1'}}
{'word': 'Turkey', 'spans': [{'start': 0, 'end': 6}], 'country_predicted': 'TUR', 'country_conf': 0.9516948, 'geo': {'admin1': 'NA', 'lat': '39', 'lon': '35', 'country_code3': 'TUR', 'geonameid': '298795', 'place_name': 'Republic of Turkey', 'feature_class': 'A', 'feature_code': 'PCLI'}}
{'word': 'Wisconsin', 'spans': [{'start': 0, 'end': 9}], 'country_predicted': 'USA', 'country_conf': 0.9634983, 'geo': {'admin1': 'Wisconsin', 'lat': '44.50024', 'lon': '-90.00041', 'country_code3': 'USA', 'geonameid': '5279468', 'place_name': 'Wisconsin', 'feature_class': 'A', 'feature_code': 'ADM1'}}
{'word': 'Iowa', 'spans': [{'start': 0, 'end': 4}], 'country_predicted': 'USA', 'country_conf': 0.9634983, 'geo': {'admin1': 'Iowa', 'lat': '42.00027', 'lon': '-93.50049', 'country_code3': 'USA', 'geonameid': '4862182', 'place_name': 'Iowa', 'feature_class': 'A', 'feature_code': 'ADM1'}}
{'word': 'Plains', 'spans': [{'start': 0, 'end': 6}], 'country_predicted': 'USA', 'country_conf': 0.957188, 'geo': {'admin1': 'Pennsylvania', 'lat': '41.27536', 'lon': '-75.8502', 'country_code3': 'USA', 'geonameid': '5206422', 'place_name': 'Plains', 'feature_class': 'P', 'feature_code': 'PPL'}}
{'word': 'Texas', 'spans': [{'start': 0, 'end': 5}], 'country_predicted': 'USA', 'country_conf': 0.9634983, 'geo': {'admin1': 'Texas', 'lat': '31.25044', 'lon': '-99.25061', 'country_code3': 'USA', 'geonameid': '4736286', 'place_name': 'Texas', 'feature_class': 'A', 'feature_code': 'ADM1'}}
{'word': 'Saskatchewan', 'spans': [{'start': 0, 'end': 12}], 'country_predicted': 'CAN', 'country_conf': 0.9048774, 'geo': {'admin1': 'Saskatchewan', 'lat': '54.0001', 'lon': '-106.00099', 'country_code3': 'CAN', 'geonameid': '6141242', 'place_name': 'Saskatchewan', 'feature_class': 'A', 'feature_code': 'ADM1'}}
{'word': 'Alaska', 'spans': [{'start': 0, 'end': 6}], 'country_predicted': 'USA', 'country_conf': 0.9634983, 'geo': {'admin1': 'Alaska', 'lat': '64.00028', 'lon': '-150.00028', 'country_code3': 'USA', 'geonameid': '5879092', 'place_name': 'Alaska', 'feature_class': 'A', 'feature_code': 'ADM1'}}
{'word': 'Turkey', 'spans': [{'start': 0, 'end': 6}], 'country_predicted': 'TUR', 'country_conf': 0.9516948, 'geo': {'admin1': 'NA', 'lat': '39', 'lon': '35', 'country_code3': 'TUR', 'geonameid': '298795', 'place_name': 'Republic of Turkey', 'feature_class': 'A', 'feature_code': 'PCLI'}}
{'word': 'America', 'spans': [{'start': 0, 'end': 7}], 'country_predicted': 'USA', 'country_conf': 0.9516948, 'geo': {'admin1': 'Wyoming', 'lat': '41.54357', 'lon': '-109.85903', 'country_code3': 'USA', 'geonameid': '5830444', 'place_name': 'Little America', 'feature_class': 'P', 'feature_code': 'PPL'}}
{'word': 'los', 'spans': [{'start': 0, 'end': 3}], 'country_predicted': 'MEX', 'country_conf': 0.7178229, 'geo': {'admin1': 'Jalisco', 'lat': '20.42278', 'lon': '-103.18306', 'country_code3': 'MEX', 'geonameid': '8860783', 'place_name': 'Los Freseros (Los Sabinos)', 'feature_class': 'P', 'feature_code': 'PPL'}}
{'word': 'los', 'spans': [{'start': 0, 'end': 3}], 'country_predicted': 'MEX', 'country_conf': 0.7178229, 'geo': {'admin1': 'Jalisco', 'lat': '20.42278', 'lon': '-103.18306', 'country_code3': 'MEX', 'geonameid': '8860783', 'place_name': 'Los Freseros (Los Sabinos)', 'feature_class': 'P', 'feature_code': 'PPL'}}
{'word': 'los', 'spans': [{'start': 0, 'end': 3}], 'country_predicted': 'MEX', 'country_conf': 0.7178229, 'geo': {'admin1': 'Jalisco', 'lat': '20.42278', 'lon': '-103.18306', 'country_code3': 'MEX', 'geonameid': '8860783', 'place_name': 'Los Freseros (Los Sabinos)', 'feature_class': 'P', 'feature_code': 'PPL'}}
{'word': 'los', 'spans': [{'start': 0, 'end': 3}], 'country_predicted': 'MEX', 'country_conf': 0.7178229, 'geo': {'admin1': 'Jalisco', 'lat': '20.42278', 'lon': '-103.18306', 'country_code3': 'MEX', 'geonameid': '8860783', 'place_name': 'Los Freseros (Los Sabinos)', 'feature_class': 'P', 'feature_code': 'PPL'}}
{'word': 'los', 'spans': [{'start': 0, 'end': 3}], 'country_predicted': 'MEX', 'country_conf': 0.7178229, 'geo': {'admin1': 'Jalisco', 'lat': '20.42278', 'lon': '-103.18306', 'country_code3': 'MEX', 'geonameid': '8860783', 'place_name': 'Los Freseros (Los Sabinos)', 'feature_class': 'P', 'feature_code': 'PPL'}}
{'word': 'Norte', 'spans': [{'start': 0, 'end': 5}], 'country_predicted': 'ESP', 'country_conf': 0.28365934}
{'word': 'los', 'spans': [{'start': 0, 'end': 3}], 'country_predicted': 'MEX', 'country_conf': 0.7178229, 'geo': {'admin1': 'Jalisco', 'lat': '20.42278', 'lon': '-103.18306', 'country_code3': 'MEX', 'geonameid': '8860783', 'place_name': 'Los Freseros (Los Sabinos)', 'feature_class': 'P', 'feature_code': 'PPL'}}
{'word': 'los', 'spans': [{'start': 0, 'end': 3}], 'country_predicted': 'MEX', 'country_conf': 0.7178229, 'geo': {'admin1': 'Jalisco', 'lat': '20.42278', 'lon': '-103.18306', 'country_code3': 'MEX', 'geonameid': '8860783', 'place_name': 'Los Freseros (Los Sabinos)', 'feature_class': 'P', 'feature_code': 'PPL'}}
{'word': 'los', 'spans': [{'start': 0, 'end': 3}], 'country_predicted': 'MEX', 'country_conf': 0.7178229, 'geo': {'admin1': 'Jalisco', 'lat': '20.42278', 'lon': '-103.18306', 'country_code3': 'MEX', 'geonameid': '8860783', 'place_name': 'Los Freseros (Los Sabinos)', 'feature_class': 'P', 'feature_code': 'PPL'}}
{'word': 'Mayfield', 'spans': [{'start': 0, 'end': 8}], 'country_predicted': 'GBR', 'country_conf': 0.28365934}
{'word': 'Turkey', 'spans': [{'start': 0, 'end': 6}], 'country_predicted': 'TUR', 'country_conf': 0.9516948, 'geo': {'admin1': 'NA', 'lat': '39', 'lon': '35', 'country_code3': 'TUR', 'geonameid': '298795', 'place_name': 'Republic of Turkey', 'feature_class': 'A', 'feature_code': 'PCLI'}}
{'word': 'turkey', 'spans': [{'start': 0, 'end': 6}], 'country_predicted': 'USA', 'country_conf': 0.28365934}
{'word': 'Nevada', 'spans': [{'start': 0, 'end': 6}], 'country_predicted': 'USA', 'country_conf': 0.9634983, 'geo': {'admin1': 'Nevada', 'lat': '39.25021', 'lon': '-116.75119', 'country_code3': 'USA', 'geonameid': '5509151', 'place_name': 'Nevada', 'feature_class': 'A', 'feature_code': 'ADM1'}}
{'word': 'Reno', 'spans': [{'start': 0, 'end': 4}], 'country_predicted': 'USA', 'country_conf': 0.957188, 'geo': {'admin1': 'Nevada', 'lat': '39.52963', 'lon': '-119.8138', 'country_code3': 'USA', 'geonameid': '5511077', 'place_name': 'Reno', 'feature_class': 'P', 'feature_code': 'PPLA2'}}
{'word': 'Nevada', 'spans': [{'start': 0, 'end': 6}], 'country_predicted': 'USA', 'country_conf': 0.9634983, 'geo': {'admin1': 'Nevada', 'lat': '39.25021', 'lon': '-116.75119', 'country_code3': 'USA', 'geonameid': '5509151', 'place_name': 'Nevada', 'feature_class': 'A', 'feature_code': 'ADM1'}}
{'word': 'Maine', 'spans': [{'start': 0, 'end': 5}], 'country_predicted': 'USA', 'country_conf': 0.9634983, 'geo': {'admin1': 'Maine', 'lat': '45.50032', 'lon': '-69.24977', 'country_code3': 'USA', 'geonameid': '4971068', 'place_name': 'Maine', 'feature_class': 'A', 'feature_code': 'ADM1'}}
{'word': 'Maine', 'spans': [{'start': 0, 'end': 5}], 'country_predicted': 'USA', 'country_conf': 0.9634983, 'geo': {'admin1': 'Maine', 'lat': '45.50032', 'lon': '-69.24977', 'country_code3': 'USA', 'geonameid': '4971068', 'place_name': 'Maine', 'feature_class': 'A', 'feature_code': 'ADM1'}}
