{'word': 'Dakota', 'spans': [{'start': 0, 'end': 6}], 'country_predicted': 'USA', 'country_conf': 0.957188, 'geo': {'admin1': 'South Dakota', 'lat': '44.50026', 'lon': '-100.25069', 'country_code3': 'USA', 'geonameid': '5769223', 'place_name': 'South Dakota', 'feature_class': 'A', 'feature_code': 'ADM1'}}
{'word': 'USA', 'spans': [{'start': 0, 'end': 3}], 'country_predicted': 'USA', 'country_conf': 0.9516948, 'geo': {'admin1': 'Louisiana', 'lat': '29.2605', 'lon': '-89.35478', 'country_code3': 'USA', 'geonameid': '4319780', 'place_name': 'Chevron USA Incorporated Seaplane Base', 'feature_class': 'S', 'feature_code': 'AIRP'}}
{'word': 'Mississippi', 'spans': [{'start': 0, 'end': 11}], 'country_predicted': 'USA', 'country_conf': 0.9634983, 'geo': {'admin1': 'Mississippi', 'lat': '32.75041', 'lon': '-89.75036', 'country_code3': 'USA', 'geonameid': '4436296', 'place_name': 'Mississippi', 'feature_class': 'A', 'feature_code': 'ADM1'}}
{'word': 'Nunavut', 'spans': [{'start': 0, 'end': 7}], 'country_predicted': 'CAN', 'country_conf': 0.9048774, 'geo': {'admin1': 'Nunavut', 'lat': '66.03478', 'lon': '-100.07813', 'country_code3': 'CAN', 'geonameid': '6091732', 'place_name': 'Nunavut', 'feature_class': 'A', 'feature_code': 'ADM1'}}
{'word': 'Canada', 'spans': [{'start': 0, 'end': 6}], 'country_predicted': 'CAN', 'country_conf': 0.9516948, 'geo': {'admin1': 'NA', 'lat': '60.10867', 'lon': '-113.64258', 'country_code3': 'CAN', 'geonameid': '6251999', 'place_name': 'Canada', 'feature_class': 'A', 'feature_code': 'PCLI'}}
{'word': 'Jersey', 'spans': [{'start': 0, 'end': 6}], 'country_predicted': 'JEY', 'country_conf': 0.9048774, 'geo': {'admin1': 'NA', 'lat': '49.2167', 'lon': '-2.13753', 'country_code3': 'JEY', 'geonameid': '3042143', 'place_name': 'Jersey', 'feature_class': 'T', 'feature_code': 'ISL'}}
{'word': 'Alaska', 'spans': [{'start': 0, 'end': 6}], 'country_predicted': 'USA', 'country_conf': 0.9634983, 'geo': {'admin1': 'Alaska', 'lat': '64.00028', 'lon': '-150.00028', 'country_code3': 'USA', 'geonameid': '5879092', 'place_name': 'Alaska', 'feature_class': 'A', 'feature_code': 'ADM1'}}
{'word': 'Massachusetts', 'spans': [{'start': 0, 'end': 13}], 'country_predicted': 'USA', 'country_conf': 0.9516948, 'geo': {'admin1': 'Massachusetts', 'lat': '42.36565', 'lon': '-71.10832', 'country_code3': 'USA', 'geonameid': '6254926', 'place_name': 'Massachusetts', 'feature_class': 'A', 'feature_code': 'ADM1'}}
{'word': 'Saskatchewan', 'spans': [{'start': 0, 'end': 12}], 'country_predicted': 'CAN', 'country_conf': 0.9048774, 'geo': {'admin1': 'Saskatchewan', 'lat': '54.0001', 'lon': '-106.00099', 'country_code3': 'CAN', 'geonameid': '6141242', 'place_name': 'Saskatchewan', 'feature_class': 'A', 'feature_code': 'ADM1'}}
{'word': 'Canada', 'spans': [{'start': 0, 'end': 6}], 'country_predicted': 'CAN', 'country_conf': 0.9516948, 'geo': {'admin1': 'NA', 'lat': '60.10867', 'lon': '-113.64258', 'country_code3': 'CAN', 'geonameid': '6251999', 'place_name': 'Canada', 'feature_class': 'A', 'feature_code': 'PCLI'}}
{'word': 'Plains', 'spans': [{'start': 0, 'end': 6}], 'country_predicted': 'USA', 'country_conf': 0.957188, 'geo': {'admin1': 'Pennsylvania', 'lat': '41.27536', 'lon': '-75.8502', 'country_code3': 'USA', 'geonameid': '5206422', 'place_name': 'Plains', 'feature_class': 'P', 'feature_code': 'PPL'}}
{'word': 'Plains', 'spans': [{'start': 0, 'end': 6}], 'country_predicted': 'USA', 'country_conf': 0.957188, 'geo': {'admin1': 'Pennsylvania', 'lat': '41.27536', 'lon': '-75.8502', 'country_code3': 'USA', 'geonameid': '5206422', 'place_name': 'Plains', 'feature_class': 'P', 'feature_code': 'PPL'}}
{'word': 'Missouri', 'spans': [{'start': 0, 'end': 8}], 'country_predicted': 'USA', 'country_conf': 0.9634983, 'geo': {'admin1': 'Missouri', 'lat': '38.25031', 'lon': '-92.50046', 'country_code3': 'USA', 'geonameid': '4398678', 'place_name': 'Missouri', 'feature_class': 'A', 'feature_code': 'ADM1'}}
{'word': 'California', 'spans': [{'start': 0, 'end': 10}], 'country_predicted': 'COL', 'country_conf': 0.19161284}
{'word': 'Dakota', 'spans': [{'start': 0, 'end': 6}], 'country_predicted': 'USA', 'country_conf': 0.957188, 'geo': {'admin1': 'South Dakota', 'lat': '44.50026', 'lon': '-100.25069', 'country_code3': 'USA', 'geonameid': '5769223', 'place_name': 'South Dakota', 'feature_class': 'A', 'feature_code': 'ADM1'}}
{'word': 'Dakota', 'spans': [{'start': 0, 'end': 6}], 'country_predicted': 'USA', 'country_conf': 0.957188, 'geo': {'admin1': 'South Dakota', 'lat': '44.50026', 'lon': '-100.25069', 'country_code3': 'USA', 'geonameid': '5769223', 'place_name': 'South Dakota', 'feature_class': 'A', 'feature_code': 'ADM1'}}
{'word': 'Manitoba', 'spans': [{'start': 0, 'end': 8}], 'country_predicted': 'CAN', 'country_conf': 0.87992215, 'geo': {'admin1': 'Manitoba', 'lat': '55.00019', 'lon': '-97.00049', 'country_code3': 'CAN', 'geonameid': '6065171', 'place_name': 'Manitoba', 'feature_class': 'A', 'feature_code': 'ADM1'}}
{'word': 'Manitoba', 'spans': [{'start': 0, 'end': 8}], 'country_predicted': 'CAN', 'country_conf': 0.87992215, 'geo': {'admin1': 'Manitoba', 'lat': '55.00019', 'lon': '-97.00049', 'country_code3': 'CAN', 'geonameid': '6065171', 'place_name': 'Manitoba', 'feature_class': 'A', 'feature_code': 'ADM1'}}
{'word': 'Missouri', 'spans': [{'start': 0, 'end': 8}], 'country_predicted': 'USA', 'country_conf': 0.9634983, 'geo': {'admin1': 'Missouri', 'lat': '38.25031', 'lon': '-92.50046', 'country_code3': 'USA', 'geonameid': '4398678', 'place_name': 'Missouri', 'feature_class': 'A', 'feature_code': 'ADM1'}}
{'word': 'Platte', 'spans': [{'start': 0, 'end': 6}], 'country_predicted': 'USA', 'country_conf': 0.7178229, 'geo': {'admin1': 'Missouri', 'lat': '39.3805', 'lon': '-94.77359', 'country_code3': 'USA', 'geonameid': '4403600', 'place_name': 'Platte County', 'feature_class': 'A', 'feature_code': 'ADM2'}}
{'word': 'Missouri', 'spans': [{'start': 0, 'end': 8}], 'country_predicted': 'USA', 'country_conf': 0.9634983, 'geo': {'admin1': 'Missouri', 'lat': '38.25031', 'lon': '-92.50046', 'country_code3': 'USA', 'geonameid': '4398678', 'place_name': 'Missouri', 'feature_class': 'A', 'feature_code': 'ADM1'}}
{'word': 'Missouri', 'spans': [{'start': 0, 'end': 8}], 'country_predicted': 'USA', 'country_conf': 0.9634983, 'geo': {'admin1': 'Missouri', 'lat': '38.25031', 'lon': '-92.50046', 'country_code3': 'USA', 'geonameid': '4398678', 'place_name': 'Missouri', 'feature_class': 'A', 'feature_code': 'ADM1'}}
{'word': 'Dakota', 'spans': [{'start': 0, 'end': 6}], 'country_predicted': 'USA', 'country_conf': 0.957188, 'geo': {'admin1': 'South Dakota', 'lat': '44.50026', 'lon': '-100.25069', 'country_code3': 'USA', 'geonameid': '5769223', 'place_name': 'South Dakota', 'feature_class': 'A', 'feature_code': 'ADM1'}}
{'word': 'Dakota', 'spans': [{'start': 0, 'end': 6}], 'country_predicted': 'USA', 'country_conf': 0.957188, 'geo': {'admin1': 'South Dakota', 'lat': '44.50026', 'lon': '-100.25069', 'country_code3': 'USA', 'geonameid': '5769223', 'place_name': 'South Dakota', 'feature_class': 'A', 'feature_code': 'ADM1'}}
{'word': 'desde', 'spans': [{'start': 0, 'end': 5}], 'country_predicted': 'AZE', 'country_conf': 0.28365934}
{'word': 'tierra', 'spans': [{'start': 0, 'end': 6}], 'country_predicted': 'MEX', 'country_conf': 0.87992215, 'geo': {'admin1': 'Veracruz', 'lat': '18.44771', 'lon': '-96.35912', 'country_code3': 'MEX', 'geonameid': '3801276', 'place_name': 'Tierra Blanca', 'feature_class': 'P', 'feature_code': 'PPLA2'}}
{'word': 'olas', 'spans': [{'start': 0, 'end': 4}], 'country_predicted': 'MEX', 'country_conf': 0.87992215, 'geo': {'admin1': 'Veracruz', 'lat': '18.11861', 'lon': '-94.56611', 'country_code3': 'MEX', 'geonameid': '8859190', 'place_name': 'Residencial las Olas', 'feature_class': 'P', 'feature_code': 'PPL'}}
{'word': 'Dakota', 'spans': [{'start': 0, 'end': 6}], 'country_predicted': 'USA', 'country_conf': 0.957188, 'geo': {'admin1': 'South Dakota', 'lat': '44.50026', 'lon': '-100.25069', 'country_code3': 'USA', 'geonameid': '5769223', 'place_name': 'South Dakota', 'feature_class': 'A', 'feature_code': 'ADM1'}}
{'word': 'Norte', 'spans': [{'start': 0, 'end': 5}], 'country_predicted': 'ESP', 'country_conf': 0.28365934}
{'word': 'los', 'spans': [{'start': 0, 'end': 3}], 'country_predicted': 'MEX', 'country_conf': 0.7178229, 'geo': {'admin1': 'Jalisco', 'lat': '20.42278', 'lon': '-103.18306', 'country_code3': 'MEX', 'geonameid': '8860783', 'place_name': 'Los Freseros (Los Sabinos)', 'feature_class': 'P', 'feature_code': 'PPL'}}
{'word': 'los', 'spans': [{'start': 0, 'end': 3}], 'country_predicted': 'MEX', 'country_conf': 0.7178229, 'geo': {'admin1': 'Jalisco', 'lat': '20.42278', 'lon': '-103.18306', 'country_code3': 'MEX', 'geonameid': '8860783', 'place_name': 'Los Freseros (Los Sabinos)', 'feature_class': 'P', 'feature_code': 'PPL'}}
{'word': 'olas', 'spans': [{'start': 0, 'end': 4}], 'country_predicted': 'MEX', 'country_conf': 0.87992215, 'geo': {'admin1': 'Veracruz', 'lat': '18.11861', 'lon': '-94.56611', 'country_code3': 'MEX', 'geonameid': '8859190', 'place_name': 'Residencial las Olas', 'feature_class': 'P', 'feature_code': 'PPL'}}
{'word': 'los', 'spans': [{'start': 0, 'end': 3}], 'country_predicted': 'MEX', 'country_conf': 0.7178229, 'geo': {'admin1': 'Jalisco', 'lat': '20.42278', 'lon': '-103.18306', 'country_code3': 'MEX', 'geonameid': '8860783', 'place_name': 'Los Freseros (Los Sabinos)', 'feature_class': 'P', 'feature_code': 'PPL'}}
{'word': 'chorlitos', 'spans': [{'start': 0, 'end': 9}], 'country_predicted': 'MEX', 'country_conf': 0.92213035, 'geo': {'admin1': 'Veracruz', 'lat': '19.46083', 'lon': '-96.42111', 'country_code3': 'MEX', 'geonameid': '3527048', 'place_name': 'Hornitos', 'feature_class': 'P', 'feature_code': 'PPL'}}
{'word': 'islas', 'spans': [{'start': 0, 'end': 5}], 'country_predicted': 'ESP', 'country_conf': 0.87992215, 'geo': {'admin1': 'Canary Islands', 'lat': '28', 'lon': '-15.5', 'country_code3': 'ESP', 'geonameid': '2520308', 'place_name': 'Canary Islands', 'feature_class': 'T', 'feature_code': 'ISLS'}}
{'word': 'podr&iacute;a', 'spans': [{'start': 0, 'end': 13}], 'country_predicted': '', 'country_conf': 0}
{'word': 'los', 'spans': [{'start': 0, 'end': 3}], 'country_predicted': 'MEX', 'country_conf': 0.7178229, 'geo': {'admin1': 'Jalisco', 'lat': '20.42278', 'lon': '-103.18306', 'country_code3': 'MEX', 'geonameid': '8860783', 'place_name': 'Los Freseros (Los Sabinos)', 'feature_class': 'P', 'feature_code': 'PPL'}}
{'word': 'los', 'spans': [{'start': 0, 'end': 3}], 'country_predicted': 'MEX', 'country_conf': 0.7178229, 'geo': {'admin1': 'Jalisco', 'lat': '20.42278', 'lon': '-103.18306', 'country_code3': 'MEX', 'geonameid': '8860783', 'place_name': 'Los Freseros (Los Sabinos)', 'feature_class': 'P', 'feature_code': 'PPL'}}
{'word': 'los', 'spans': [{'start': 0, 'end': 3}], 'country_predicted': 'MEX', 'country_conf': 0.7178229, 'geo': {'admin1': 'Jalisco', 'lat': '20.42278', 'lon': '-103.18306', 'country_code3': 'MEX', 'geonameid': '8860783', 'place_name': 'Los Freseros (Los Sabinos)', 'feature_class': 'P', 'feature_code': 'PPL'}}
{'word': 'chorlitos', 'spans': [{'start': 0, 'end': 9}], 'country_predicted': 'MEX', 'country_conf': 0.92213035, 'geo': {'admin1': 'Veracruz', 'lat': '19.46083', 'lon': '-96.42111', 'country_code3': 'MEX', 'geonameid': '3527048', 'place_name': 'Hornitos', 'feature_class': 'P', 'feature_code': 'PPL'}}
{'word': 'los', 'spans': [{'start': 0, 'end': 3}], 'country_predicted': 'MEX', 'country_conf': 0.7178229, 'geo': {'admin1': 'Jalisco', 'lat': '20.42278', 'lon': '-103.18306', 'country_code3': 'MEX', 'geonameid': '8860783', 'place_name': 'Los Freseros (Los Sabinos)', 'feature_class': 'P', 'feature_code': 'PPL'}}
{'word': 'Missouri', 'spans': [{'start': 0, 'end': 8}], 'country_predicted': 'USA', 'country_conf': 0.9634983, 'geo': {'admin1': 'Missouri', 'lat': '38.25031', 'lon': '-92.50046', 'country_code3': 'USA', 'geonameid': '4398678', 'place_name': 'Missouri', 'feature_class': 'A', 'feature_code': 'ADM1'}}
{'word': 'Prindiville', 'spans': [{'start': 0, 'end': 11}], 'country_predicted': 'AUS', 'country_conf': 0.9528109, 'geo': {'admin1': 'Western Australia', 'lat': '-31.75417', 'lon': '115.7383', 'country_code3': 'AUS', 'geonameid': '8177716', 'place_name': 'Prendiville Catholic College', 'feature_class': 'S', 'feature_code': 'SCHC'}}
{'word': 'Prindiville', 'spans': [{'start': 0, 'end': 11}], 'country_predicted': 'AUS', 'country_conf': 0.9528109, 'geo': {'admin1': 'Western Australia', 'lat': '-31.75417', 'lon': '115.7383', 'country_code3': 'AUS', 'geonameid': '8177716', 'place_name': 'Prendiville Catholic College', 'feature_class': 'S', 'feature_code': 'SCHC'}}
{'word': 'Plains', 'spans': [{'start': 0, 'end': 6}], 'country_predicted': 'USA', 'country_conf': 0.957188, 'geo': {'admin1': 'Pennsylvania', 'lat': '41.27536', 'lon': '-75.8502', 'country_code3': 'USA', 'geonameid': '5206422', 'place_name': 'Plains', 'feature_class': 'P', 'feature_code': 'PPL'}}
{'word': 'Missouri', 'spans': [{'start': 0, 'end': 8}], 'country_predicted': 'USA', 'country_conf': 0.9634983, 'geo': {'admin1': 'Missouri', 'lat': '38.25031', 'lon': '-92.50046', 'country_code3': 'USA', 'geonameid': '4398678', 'place_name': 'Missouri', 'feature_class': 'A', 'feature_code': 'ADM1'}}
{'word': 'Plains', 'spans': [{'start': 0, 'end': 6}], 'country_predicted': 'USA', 'country_conf': 0.957188, 'geo': {'admin1': 'Pennsylvania', 'lat': '41.27536', 'lon': '-75.8502', 'country_code3': 'USA', 'geonameid': '5206422', 'place_name': 'Plains', 'feature_class': 'P', 'feature_code': 'PPL'}}
{'word': 'Missouri', 'spans': [{'start': 0, 'end': 8}], 'country_predicted': 'USA', 'country_conf': 0.9634983, 'geo': {'admin1': 'Missouri', 'lat': '38.25031', 'lon': '-92.50046', 'country_code3': 'USA', 'geonameid': '4398678', 'place_name': 'Missouri', 'feature_class': 'A', 'feature_code': 'ADM1'}}
{'word': 'Missouri', 'spans': [{'start': 0, 'end': 8}], 'country_predicted': 'USA', 'country_conf': 0.9634983, 'geo': {'admin1': 'Missouri', 'lat': '38.25031', 'lon': '-92.50046', 'country_code3': 'USA', 'geonameid': '4398678', 'place_name': 'Missouri', 'feature_class': 'A', 'feature_code': 'ADM1'}}
{'word': 'Dakota', 'spans': [{'start': 0, 'end': 6}], 'country_predicted': 'USA', 'country_conf': 0.957188, 'geo': {'admin1': 'South Dakota', 'lat': '44.50026', 'lon': '-100.25069', 'country_code3': 'USA', 'geonameid': '5769223', 'place_name': 'South Dakota', 'feature_class': 'A', 'feature_code': 'ADM1'}}
{'word': 'Riverdale', 'spans': [{'start': 0, 'end': 9}], 'country_predicted': 'USA', 'country_conf': 0.87992215, 'geo': {'admin1': 'Georgia', 'lat': '33.57261', 'lon': '-84.41326', 'country_code3': 'USA', 'geonameid': '4219001', 'place_name': 'Riverdale', 'feature_class': 'P', 'feature_code': 'PPL'}}
{'word': 'Dakota', 'spans': [{'start': 0, 'end': 6}], 'country_predicted': 'USA', 'country_conf': 0.957188, 'geo': {'admin1': 'South Dakota', 'lat': '44.50026', 'lon': '-100.25069', 'country_code3': 'USA', 'geonameid': '5769223', 'place_name': 'South Dakota', 'feature_class': 'A', 'feature_code': 'ADM1'}}
{'word': 'Dakota', 'spans': [{'start': 0, 'end': 6}], 'country_predicted': 'USA', 'country_conf': 0.957188, 'geo': {'admin1': 'South Dakota', 'lat': '44.50026', 'lon': '-100.25069', 'country_code3': 'USA', 'geonameid': '5769223', 'place_name': 'South Dakota', 'feature_class': 'A', 'feature_code': 'ADM1'}}
{'word': 'USA', 'spans': [{'start': 0, 'end': 3}], 'country_predicted': 'USA', 'country_conf': 0.9516948, 'geo': {'admin1': 'Louisiana', 'lat': '29.2605', 'lon': '-89.35478', 'country_code3': 'USA', 'geonameid': '4319780', 'place_name': 'Chevron USA Incorporated Seaplane Base', 'feature_class': 'S', 'feature_code': 'AIRP'}}
{'word': 'Montana', 'spans': [{'start': 0, 'end': 7}], 'country_predicted': 'USA', 'country_conf': 0.9634983, 'geo': {'admin1': 'Montana', 'lat': '47.00025', 'lon': '-109.75102', 'country_code3': 'USA', 'geonameid': '5667009', 'place_name': 'Montana', 'feature_class': 'A', 'feature_code': 'ADM1'}}
{'word': 'landforms', 'spans': [{'start': 0, 'end': 9}], 'country_predicted': 'ATA', 'country_conf': 0.24821267}
{'word': 'Sunnyvale', 'spans': [{'start': 0, 'end': 9}], 'country_predicted': 'USA', 'country_conf': 0.957188, 'geo': {'admin1': 'California', 'lat': '37.36883', 'lon': '-122.03635', 'country_code3': 'USA', 'geonameid': '5400075', 'place_name': 'Sunnyvale', 'feature_class': 'P', 'feature_code': 'PPL'}}
{'word': 'California', 'spans': [{'start': 0, 'end': 10}], 'country_predicted': 'COL', 'country_conf': 0.19161284}
{'word': 'Texas', 'spans': [{'start': 0, 'end': 5}], 'country_predicted': 'USA', 'country_conf': 0.9634983, 'geo': {'admin1': 'Texas', 'lat': '31.25044', 'lon': '-99.25061', 'country_code3': 'USA', 'geonameid': '4736286', 'place_name': 'Texas', 'feature_class': 'A', 'feature_code': 'ADM1'}}
{'word': '&lt;10&percnt', 'spans': [{'start': 0, 'end': 13}], 'country_predicted': 'CHN', 'country_conf': 0.24821267}
{'word': '&ge;75&percnt', 'spans': [{'start': 0, 'end': 13}], 'country_predicted': 'CHN', 'country_conf': 0.24821267}
{'word': 'York', 'spans': [{'start': 0, 'end': 4}], 'country_predicted': 'CAN', 'country_conf': 0.28868946}
{'word': 'USA', 'spans': [{'start': 0, 'end': 3}], 'country_predicted': 'USA', 'country_conf': 0.9516948, 'geo': {'admin1': 'Louisiana', 'lat': '29.2605', 'lon': '-89.35478', 'country_code3': 'USA', 'geonameid': '4319780', 'place_name': 'Chevron USA Incorporated Seaplane Base', 'feature_class': 'S', 'feature_code': 'AIRP'}}
{'word': 'Dakota', 'spans': [{'start': 0, 'end': 6}], 'country_predicted': 'USA', 'country_conf': 0.957188, 'geo': {'admin1': 'South Dakota', 'lat': '44.50026', 'lon': '-100.25069', 'country_code3': 'USA', 'geonameid': '5769223', 'place_name': 'South Dakota', 'feature_class': 'A', 'feature_code': 'ADM1'}}
{'word': 'Missouri', 'spans': [{'start': 0, 'end': 8}], 'country_predicted': 'USA', 'country_conf': 0.9634983, 'geo': {'admin1': 'Missouri', 'lat': '38.25031', 'lon': '-92.50046', 'country_code3': 'USA', 'geonameid': '4398678', 'place_name': 'Missouri', 'feature_class': 'A', 'feature_code': 'ADM1'}}
{'word': 'Bismarck', 'spans': [{'start': 0, 'end': 8}], 'country_predicted': 'USA', 'country_conf': 0.7178229, 'geo': {'admin1': 'North Dakota', 'lat': '46.80833', 'lon': '-100.78374', 'country_code3': 'USA', 'geonameid': '5688025', 'place_name': 'Bismarck', 'feature_class': 'P', 'feature_code': 'PPLA'}}
{'word': 'Dakota', 'spans': [{'start': 0, 'end': 6}], 'country_predicted': 'USA', 'country_conf': 0.957188, 'geo': {'admin1': 'South Dakota', 'lat': '44.50026', 'lon': '-100.25069', 'country_code3': 'USA', 'geonameid': '5769223', 'place_name': 'South Dakota', 'feature_class': 'A', 'feature_code': 'ADM1'}}
{'word': 'Dakota', 'spans': [{'start': 0, 'end': 6}], 'country_predicted': 'USA', 'country_conf': 0.957188, 'geo': {'admin1': 'South Dakota', 'lat': '44.50026', 'lon': '-100.25069', 'country_code3': 'USA', 'geonameid': '5769223', 'place_name': 'South Dakota', 'feature_class': 'A', 'feature_code': 'ADM1'}}
{'word': 'coast', 'spans': [{'start': 0, 'end': 5}], 'country_predicted': 'GMB', 'country_conf': 0.28365934}
{'word': 'lake', 'spans': [{'start': 0, 'end': 4}], 'country_predicted': 'USA', 'country_conf': 0.7178229, 'geo': {'admin1': 'Michigan', 'lat': '43.17956', 'lon': '-83.3123', 'country_code3': 'USA', 'geonameid': '7259538', 'place_name': 'Barnes Lake-Millers Lake', 'feature_class': 'P', 'feature_code': 'PPL'}}
{'word': 'Wooster', 'spans': [{'start': 0, 'end': 7}], 'country_predicted': 'USA', 'country_conf': 0.96374094, 'geo': {'admin1': 'Ohio', 'lat': '40.80517', 'lon': '-81.93646', 'country_code3': 'USA', 'geonameid': '5177358', 'place_name': 'Wooster', 'feature_class': 'P', 'feature_code': 'PPLA2'}}
{'word': 'peninsulas', 'spans': [{'start': 0, 'end': 10}], 'country_predicted': 'USA', 'country_conf': 0.28365934}
{'word': 'peninsulas', 'spans': [{'start': 0, 'end': 10}], 'country_predicted': 'USA', 'country_conf': 0.28365934}
{'word': 'Missouri', 'spans': [{'start': 0, 'end': 8}], 'country_predicted': 'USA', 'country_conf': 0.9634983, 'geo': {'admin1': 'Missouri', 'lat': '38.25031', 'lon': '-92.50046', 'country_code3': 'USA', 'geonameid': '4398678', 'place_name': 'Missouri', 'feature_class': 'A', 'feature_code': 'ADM1'}}
{'word': 'Omaha', 'spans': [{'start': 0, 'end': 5}], 'country_predicted': 'USA', 'country_conf': 0.957188, 'geo': {'admin1': 'Nebraska', 'lat': '41.25626', 'lon': '-95.94043', 'country_code3': 'USA', 'geonameid': '5074472', 'place_name': 'Omaha', 'feature_class': 'P', 'feature_code': 'PPLA2'}}
{'word': 'Missouri', 'spans': [{'start': 0, 'end': 8}], 'country_predicted': 'USA', 'country_conf': 0.9634983, 'geo': {'admin1': 'Missouri', 'lat': '38.25031', 'lon': '-92.50046', 'country_code3': 'USA', 'geonameid': '4398678', 'place_name': 'Missouri', 'feature_class': 'A', 'feature_code': 'ADM1'}}
{'word': 'Dakota', 'spans': [{'start': 0, 'end': 6}], 'country_predicted': 'USA', 'country_conf': 0.957188, 'geo': {'admin1': 'South Dakota', 'lat': '44.50026', 'lon': '-100.25069', 'country_code3': 'USA', 'geonameid': '5769223', 'place_name': 'South Dakota', 'feature_class': 'A', 'feature_code': 'ADM1'}}
{'word': 'USA', 'spans': [{'start': 0, 'end': 3}], 'country_predicted': 'USA', 'country_conf': 0.9516948, 'geo': {'admin1': 'Louisiana', 'lat': '29.2605', 'lon': '-89.35478', 'country_code3': 'USA', 'geonameid': '4319780', 'place_name': 'Chevron USA Incorporated Seaplane Base', 'feature_class': 'S', 'feature_code': 'AIRP'}}
{'word': 'Dakota', 'spans': [{'start': 0, 'end': 6}], 'country_predicted': 'USA', 'country_conf': 0.957188, 'geo': {'admin1': 'South Dakota', 'lat': '44.50026', 'lon': '-100.25069', 'country_code3': 'USA', 'geonameid': '5769223', 'place_name': 'South Dakota', 'feature_class': 'A', 'feature_code': 'ADM1'}}
{'word': 'Dakota', 'spans': [{'start': 0, 'end': 6}], 'country_predicted': 'USA', 'country_conf': 0.957188, 'geo': {'admin1': 'South Dakota', 'lat': '44.50026', 'lon': '-100.25069', 'country_code3': 'USA', 'geonameid': '5769223', 'place_name': 'South Dakota', 'feature_class': 'A', 'feature_code': 'ADM1'}}
{'word': 'USA', 'spans': [{'start': 0, 'end': 3}], 'country_predicted': 'USA', 'country_conf': 0.9516948, 'geo': {'admin1': 'Louisiana', 'lat': '29.2605', 'lon': '-89.35478', 'country_code3': 'USA', 'geonameid': '4319780', 'place_name': 'Chevron USA Incorporated Seaplane Base', 'feature_class': 'S', 'feature_code': 'AIRP'}}
{'word': 'Dakota', 'spans': [{'start': 0, 'end': 6}], 'country_predicted': 'USA', 'country_conf': 0.957188, 'geo': {'admin1': 'South Dakota', 'lat': '44.50026', 'lon': '-100.25069', 'country_code3': 'USA', 'geonameid': '5769223', 'place_name': 'South Dakota', 'feature_class': 'A', 'feature_code': 'ADM1'}}
{'word': 'USA', 'spans': [{'start': 0, 'end': 3}], 'country_predicted': 'USA', 'country_conf': 0.9516948, 'geo': {'admin1': 'Louisiana', 'lat': '29.2605', 'lon': '-89.35478', 'country_code3': 'USA', 'geonameid': '4319780', 'place_name': 'Chevron USA Incorporated Seaplane Base', 'feature_class': 'S', 'feature_code': 'AIRP'}}
{'word': 'Dakota', 'spans': [{'start': 0, 'end': 6}], 'country_predicted': 'USA', 'country_conf': 0.957188, 'geo': {'admin1': 'South Dakota', 'lat': '44.50026', 'lon': '-100.25069', 'country_code3': 'USA', 'geonameid': '5769223', 'place_name': 'South Dakota', 'feature_class': 'A', 'feature_code': 'ADM1'}}
{'word': 'USA', 'spans': [{'start': 0, 'end': 3}], 'country_predicted': 'USA', 'country_conf': 0.9516948, 'geo': {'admin1': 'Louisiana', 'lat': '29.2605', 'lon': '-89.35478', 'country_code3': 'USA', 'geonameid': '4319780', 'place_name': 'Chevron USA Incorporated Seaplane Base', 'feature_class': 'S', 'feature_code': 'AIRP'}}
{'word': 'Dakota', 'spans': [{'start': 0, 'end': 6}], 'country_predicted': 'USA', 'country_conf': 0.957188, 'geo': {'admin1': 'South Dakota', 'lat': '44.50026', 'lon': '-100.25069', 'country_code3': 'USA', 'geonameid': '5769223', 'place_name': 'South Dakota', 'feature_class': 'A', 'feature_code': 'ADM1'}}
{'word': 'USA', 'spans': [{'start': 0, 'end': 3}], 'country_predicted': 'USA', 'country_conf': 0.9516948, 'geo': {'admin1': 'Louisiana', 'lat': '29.2605', 'lon': '-89.35478', 'country_code3': 'USA', 'geonameid': '4319780', 'place_name': 'Chevron USA Incorporated Seaplane Base', 'feature_class': 'S', 'feature_code': 'AIRP'}}
{'word': 'Dakota', 'spans': [{'start': 0, 'end': 6}], 'country_predicted': 'USA', 'country_conf': 0.957188, 'geo': {'admin1': 'South Dakota', 'lat': '44.50026', 'lon': '-100.25069', 'country_code3': 'USA', 'geonameid': '5769223', 'place_name': 'South Dakota', 'feature_class': 'A', 'feature_code': 'ADM1'}}
{'word': 'USA', 'spans': [{'start': 0, 'end': 3}], 'country_predicted': 'USA', 'country_conf': 0.9516948, 'geo': {'admin1': 'Louisiana', 'lat': '29.2605', 'lon': '-89.35478', 'country_code3': 'USA', 'geonameid': '4319780', 'place_name': 'Chevron USA Incorporated Seaplane Base', 'feature_class': 'S', 'feature_code': 'AIRP'}}
