{'word': 'Alaska', 'spans': [{'start': 0, 'end': 6}], 'country_predicted': 'USA', 'country_conf': 0.9634983, 'geo': {'admin1': 'Alaska', 'lat': '64.00028', 'lon': '-150.00028', 'country_code3': 'USA', 'geonameid': '5879092', 'place_name': 'Alaska', 'feature_class': 'A', 'feature_code': 'ADM1'}}
{'word': 'Alaska', 'spans': [{'start': 0, 'end': 6}], 'country_predicted': 'USA', 'country_conf': 0.9634983, 'geo': {'admin1': 'Alaska', 'lat': '64.00028', 'lon': '-150.00028', 'country_code3': 'USA', 'geonameid': '5879092', 'place_name': 'Alaska', 'feature_class': 'A', 'feature_code': 'ADM1'}}
{'word': 'stonechats', 'spans': [{'start': 0, 'end': 10}], 'country_predicted': '', 'country_conf': 0}
{'word': 'Alaska', 'spans': [{'start': 0, 'end': 6}], 'country_predicted': 'USA', 'country_conf': 0.9634983, 'geo': {'admin1': 'Alaska', 'lat': '64.00028', 'lon': '-150.00028', 'country_code3': 'USA', 'geonameid': '5879092', 'place_name': 'Alaska', 'feature_class': 'A', 'feature_code': 'ADM1'}}
{'word': 'los', 'spans': [{'start': 0, 'end': 3}], 'country_predicted': 'MEX', 'country_conf': 0.7178229, 'geo': {'admin1': 'Jalisco', 'lat': '20.42278', 'lon': '-103.18306', 'country_code3': 'MEX', 'geonameid': '8860783', 'place_name': 'Los Freseros (Los Sabinos)', 'feature_class': 'P', 'feature_code': 'PPL'}}
{'word': 'los', 'spans': [{'start': 0, 'end': 3}], 'country_predicted': 'MEX', 'country_conf': 0.7178229, 'geo': {'admin1': 'Jalisco', 'lat': '20.42278', 'lon': '-103.18306', 'country_code3': 'MEX', 'geonameid': '8860783', 'place_name': 'Los Freseros (Los Sabinos)', 'feature_class': 'P', 'feature_code': 'PPL'}}
{'word': 'los', 'spans': [{'start': 0, 'end': 3}], 'country_predicted': 'MEX', 'country_conf': 0.7178229, 'geo': {'admin1': 'Jalisco', 'lat': '20.42278', 'lon': '-103.18306', 'country_code3': 'MEX', 'geonameid': '8860783', 'place_name': 'Los Freseros (Los Sabinos)', 'feature_class': 'P', 'feature_code': 'PPL'}}
{'word': 'los', 'spans': [{'start': 0, 'end': 3}], 'country_predicted': 'MEX', 'country_conf': 0.7178229, 'geo': {'admin1': 'Jalisco', 'lat': '20.42278', 'lon': '-103.18306', 'country_code3': 'MEX', 'geonameid': '8860783', 'place_name': 'Los Freseros (Los Sabinos)', 'feature_class': 'P', 'feature_code': 'PPL'}}
{'word': 'los', 'spans': [{'start': 0, 'end': 3}], 'country_predicted': 'MEX', 'country_conf': 0.7178229, 'geo': {'admin1': 'Jalisco', 'lat': '20.42278', 'lon': '-103.18306', 'country_code3': 'MEX', 'geonameid': '8860783', 'place_name': 'Los Freseros (Los Sabinos)', 'feature_class': 'P', 'feature_code': 'PPL'}}
{'word': 'los', 'spans': [{'start': 0, 'end': 3}], 'country_predicted': 'MEX', 'country_conf': 0.7178229, 'geo': {'admin1': 'Jalisco', 'lat': '20.42278', 'lon': '-103.18306', 'country_code3': 'MEX', 'geonameid': '8860783', 'place_name': 'Los Freseros (Los Sabinos)', 'feature_class': 'P', 'feature_code': 'PPL'}}
{'word': 'podr&iacute;a', 'spans': [{'start': 0, 'end': 13}], 'country_predicted': '', 'country_conf': 0}
{'word': 'los', 'spans': [{'start': 0, 'end': 3}], 'country_predicted': 'MEX', 'country_conf': 0.7178229, 'geo': {'admin1': 'Jalisco', 'lat': '20.42278', 'lon': '-103.18306', 'country_code3': 'MEX', 'geonameid': '8860783', 'place_name': 'Los Freseros (Los Sabinos)', 'feature_class': 'P', 'feature_code': 'PPL'}}
{'word': 'Alaska', 'spans': [{'start': 0, 'end': 6}], 'country_predicted': 'USA', 'country_conf': 0.9634983, 'geo': {'admin1': 'Alaska', 'lat': '64.00028', 'lon': '-150.00028', 'country_code3': 'USA', 'geonameid': '5879092', 'place_name': 'Alaska', 'feature_class': 'A', 'feature_code': 'ADM1'}}
{'word': 'USA', 'spans': [{'start': 0, 'end': 3}], 'country_predicted': 'USA', 'country_conf': 0.9516948, 'geo': {'admin1': 'Louisiana', 'lat': '29.2605', 'lon': '-89.35478', 'country_code3': 'USA', 'geonameid': '4319780', 'place_name': 'Chevron USA Incorporated Seaplane Base', 'feature_class': 'S', 'feature_code': 'AIRP'}}
{'word': '&ldquo;Dunlin&rdquo', 'spans': [{'start': 0, 'end': 19}], 'country_predicted': 'CHN', 'country_conf': 0.24821267}
{'word': 'Alaska', 'spans': [{'start': 0, 'end': 6}], 'country_predicted': 'USA', 'country_conf': 0.9634983, 'geo': {'admin1': 'Alaska', 'lat': '64.00028', 'lon': '-150.00028', 'country_code3': 'USA', 'geonameid': '5879092', 'place_name': 'Alaska', 'feature_class': 'A', 'feature_code': 'ADM1'}}
{'word': 'USA', 'spans': [{'start': 0, 'end': 3}], 'country_predicted': 'USA', 'country_conf': 0.9516948, 'geo': {'admin1': 'Louisiana', 'lat': '29.2605', 'lon': '-89.35478', 'country_code3': 'USA', 'geonameid': '4319780', 'place_name': 'Chevron USA Incorporated Seaplane Base', 'feature_class': 'S', 'feature_code': 'AIRP'}}
{'word': 'Alaska', 'spans': [{'start': 0, 'end': 6}], 'country_predicted': 'USA', 'country_conf': 0.9634983, 'geo': {'admin1': 'Alaska', 'lat': '64.00028', 'lon': '-150.00028', 'country_code3': 'USA', 'geonameid': '5879092', 'place_name': 'Alaska', 'feature_class': 'A', 'feature_code': 'ADM1'}}
{'word': 'USA', 'spans': [{'start': 0, 'end': 3}], 'country_predicted': 'USA', 'country_conf': 0.9516948, 'geo': {'admin1': 'Louisiana', 'lat': '29.2605', 'lon': '-89.35478', 'country_code3': 'USA', 'geonameid': '4319780', 'place_name': 'Chevron USA Incorporated Seaplane Base', 'feature_class': 'S', 'feature_code': 'AIRP'}}
{'word': 'Denver', 'spans': [{'start': 0, 'end': 6}], 'country_predicted': 'USA', 'country_conf': 0.957188, 'geo': {'admin1': 'Colorado', 'lat': '39.73915', 'lon': '-104.9847', 'country_code3': 'USA', 'geonameid': '5419384', 'place_name': 'Denver', 'feature_class': 'P', 'feature_code': 'PPLA'}}
{'word': 'Denver', 'spans': [{'start': 0, 'end': 6}], 'country_predicted': 'USA', 'country_conf': 0.957188, 'geo': {'admin1': 'Colorado', 'lat': '39.73915', 'lon': '-104.9847', 'country_code3': 'USA', 'geonameid': '5419384', 'place_name': 'Denver', 'feature_class': 'P', 'feature_code': 'PPLA'}}
{'word': 'Colorado', 'spans': [{'start': 0, 'end': 8}], 'country_predicted': 'CRI', 'country_conf': 0.19161284}
{'word': 'USA', 'spans': [{'start': 0, 'end': 3}], 'country_predicted': 'USA', 'country_conf': 0.9516948, 'geo': {'admin1': 'Louisiana', 'lat': '29.2605', 'lon': '-89.35478', 'country_code3': 'USA', 'geonameid': '4319780', 'place_name': 'Chevron USA Incorporated Seaplane Base', 'feature_class': 'S', 'feature_code': 'AIRP'}}
{'word': 'Colorado', 'spans': [{'start': 0, 'end': 8}], 'country_predicted': 'CRI', 'country_conf': 0.19161284}
{'word': 'Denver', 'spans': [{'start': 0, 'end': 6}], 'country_predicted': 'USA', 'country_conf': 0.957188, 'geo': {'admin1': 'Colorado', 'lat': '39.73915', 'lon': '-104.9847', 'country_code3': 'USA', 'geonameid': '5419384', 'place_name': 'Denver', 'feature_class': 'P', 'feature_code': 'PPLA'}}
{'word': 'Denver', 'spans': [{'start': 0, 'end': 6}], 'country_predicted': 'USA', 'country_conf': 0.957188, 'geo': {'admin1': 'Colorado', 'lat': '39.73915', 'lon': '-104.9847', 'country_code3': 'USA', 'geonameid': '5419384', 'place_name': 'Denver', 'feature_class': 'P', 'feature_code': 'PPLA'}}
{'word': 'Lakewood', 'spans': [{'start': 0, 'end': 8}], 'country_predicted': 'USA', 'country_conf': 0.957188, 'geo': {'admin1': 'Colorado', 'lat': '39.70471', 'lon': '-105.08137', 'country_code3': 'USA', 'geonameid': '5427946', 'place_name': 'Lakewood', 'feature_class': 'P', 'feature_code': 'PPL'}}
{'word': 'Jersey', 'spans': [{'start': 0, 'end': 6}], 'country_predicted': 'JEY', 'country_conf': 0.9048774, 'geo': {'admin1': 'NA', 'lat': '49.2167', 'lon': '-2.13753', 'country_code3': 'JEY', 'geonameid': '3042143', 'place_name': 'Jersey', 'feature_class': 'T', 'feature_code': 'ISL'}}
{'word': 'Manchester', 'spans': [{'start': 0, 'end': 10}], 'country_predicted': 'GBR', 'country_conf': 0.957188, 'geo': {'admin1': 'England', 'lat': '53.45', 'lon': '-2.23333', 'country_code3': 'GBR', 'geonameid': '2648108', 'place_name': 'Greater Manchester', 'feature_class': 'L', 'feature_code': 'RGN'}}
{'word': 'Kingdom', 'spans': [{'start': 0, 'end': 7}], 'country_predicted': 'CHN', 'country_conf': 0.28868946}
{'word': 'Lima', 'spans': [{'start': 0, 'end': 4}], 'country_predicted': 'AUS', 'country_conf': 0.28365934}
{'word': 'Siberia', 'spans': [{'start': 0, 'end': 7}], 'country_predicted': 'RUS', 'country_conf': 0.87992215, 'geo': {'admin1': 'NA', 'lat': '55.01565', 'lon': '82.96276', 'country_code3': 'RUS', 'geonameid': '11961345', 'place_name': 'Siberia', 'feature_class': 'L', 'feature_code': 'RGN'}}
{'word': 'Iceland', 'spans': [{'start': 0, 'end': 7}], 'country_predicted': 'ISL', 'country_conf': 0.9516948, 'geo': {'admin1': 'NA', 'lat': '65', 'lon': '-18', 'country_code3': 'ISL', 'geonameid': '2629691', 'place_name': 'Republic of Iceland', 'feature_class': 'A', 'feature_code': 'PCLI'}}
{'word': 'Greenland', 'spans': [{'start': 0, 'end': 9}], 'country_predicted': 'GRL', 'country_conf': 0.3105929}
{'word': 'Denver', 'spans': [{'start': 0, 'end': 6}], 'country_predicted': 'USA', 'country_conf': 0.957188, 'geo': {'admin1': 'Colorado', 'lat': '39.73915', 'lon': '-104.9847', 'country_code3': 'USA', 'geonameid': '5419384', 'place_name': 'Denver', 'feature_class': 'P', 'feature_code': 'PPLA'}}
{'word': 'Colorado', 'spans': [{'start': 0, 'end': 8}], 'country_predicted': 'CRI', 'country_conf': 0.19161284}
{'word': 'Denver', 'spans': [{'start': 0, 'end': 6}], 'country_predicted': 'USA', 'country_conf': 0.957188, 'geo': {'admin1': 'Colorado', 'lat': '39.73915', 'lon': '-104.9847', 'country_code3': 'USA', 'geonameid': '5419384', 'place_name': 'Denver', 'feature_class': 'P', 'feature_code': 'PPLA'}}
{'word': 'Alaska', 'spans': [{'start': 0, 'end': 6}], 'country_predicted': 'USA', 'country_conf': 0.9634983, 'geo': {'admin1': 'Alaska', 'lat': '64.00028', 'lon': '-150.00028', 'country_code3': 'USA', 'geonameid': '5879092', 'place_name': 'Alaska', 'feature_class': 'A', 'feature_code': 'ADM1'}}
{'word': 'Colorado', 'spans': [{'start': 0, 'end': 8}], 'country_predicted': 'CRI', 'country_conf': 0.19161284}
{'word': 'Denver', 'spans': [{'start': 0, 'end': 6}], 'country_predicted': 'USA', 'country_conf': 0.957188, 'geo': {'admin1': 'Colorado', 'lat': '39.73915', 'lon': '-104.9847', 'country_code3': 'USA', 'geonameid': '5419384', 'place_name': 'Denver', 'feature_class': 'P', 'feature_code': 'PPLA'}}
