{'word': 'Alberta', 'spans': [{'start': 0, 'end': 7}], 'country_predicted': 'CAN', 'country_conf': 0.87992215, 'geo': {'admin1': 'Alberta', 'lat': '52.28333', 'lon': '-117.469', 'country_code3': 'CAN', 'geonameid': '5883102', 'place_name': 'Alberta', 'feature_class': 'A', 'feature_code': 'ADM1'}}
{'word': 'Canada', 'spans': [{'start': 0, 'end': 6}], 'country_predicted': 'CAN', 'country_conf': 0.9516948, 'geo': {'admin1': 'NA', 'lat': '60.10867', 'lon': '-113.64258', 'country_code3': 'CAN', 'geonameid': '6251999', 'place_name': 'Canada', 'feature_class': 'A', 'feature_code': 'PCLI'}}
{'word': 'Canada', 'spans': [{'start': 0, 'end': 6}], 'country_predicted': 'CAN', 'country_conf': 0.9516948, 'geo': {'admin1': 'NA', 'lat': '60.10867', 'lon': '-113.64258', 'country_code3': 'CAN', 'geonameid': '6251999', 'place_name': 'Canada', 'feature_class': 'A', 'feature_code': 'PCLI'}}
{'word': 'Cleveland', 'spans': [{'start': 0, 'end': 9}], 'country_predicted': 'USA', 'country_conf': 0.6353264, 'geo': {'admin1': 'Ohio', 'lat': '41.4995', 'lon': '-81.69541', 'country_code3': 'USA', 'geonameid': '5150529', 'place_name': 'Cleveland', 'feature_class': 'P', 'feature_code': 'PPLA2'}}
{'word': 'Connecticut', 'spans': [{'start': 0, 'end': 11}], 'country_predicted': 'USA', 'country_conf': 0.9634983, 'geo': {'admin1': 'Connecticut', 'lat': '41.66704', 'lon': '-72.66648', 'country_code3': 'USA', 'geonameid': '4831725', 'place_name': 'Connecticut', 'feature_class': 'A', 'feature_code': 'ADM1'}}
{'word': 'Decatur', 'spans': [{'start': 0, 'end': 7}], 'country_predicted': 'USA', 'country_conf': 0.9048774, 'geo': {'admin1': 'Illinois', 'lat': '39.84031', 'lon': '-88.9548', 'country_code3': 'USA', 'geonameid': '4236895', 'place_name': 'Decatur', 'feature_class': 'P', 'feature_code': 'PPLA2'}}
{'word': 'Illinois', 'spans': [{'start': 0, 'end': 8}], 'country_predicted': 'USA', 'country_conf': 0.9634983, 'geo': {'admin1': 'Illinois', 'lat': '40.00032', 'lon': '-89.25037', 'country_code3': 'USA', 'geonameid': '4896861', 'place_name': 'Illinois', 'feature_class': 'A', 'feature_code': 'ADM1'}}
{'word': 'Washington', 'spans': [{'start': 0, 'end': 10}], 'country_predicted': 'USA', 'country_conf': 0.69099617, 'geo': {'admin1': 'Washington', 'lat': '47.50012', 'lon': '-120.50147', 'country_code3': 'USA', 'geonameid': '5815135', 'place_name': 'Washington', 'feature_class': 'A', 'feature_code': 'ADM1'}}
{'word': 'Canada', 'spans': [{'start': 0, 'end': 6}], 'country_predicted': 'CAN', 'country_conf': 0.9516948, 'geo': {'admin1': 'NA', 'lat': '60.10867', 'lon': '-113.64258', 'country_code3': 'CAN', 'geonameid': '6251999', 'place_name': 'Canada', 'feature_class': 'A', 'feature_code': 'PCLI'}}
{'word': 'America', 'spans': [{'start': 0, 'end': 7}], 'country_predicted': 'USA', 'country_conf': 0.9516948, 'geo': {'admin1': 'Wyoming', 'lat': '41.54357', 'lon': '-109.85903', 'country_code3': 'USA', 'geonameid': '5830444', 'place_name': 'Little America', 'feature_class': 'P', 'feature_code': 'PPL'}}
{'word': 'Canada', 'spans': [{'start': 0, 'end': 6}], 'country_predicted': 'CAN', 'country_conf': 0.9516948, 'geo': {'admin1': 'NA', 'lat': '60.10867', 'lon': '-113.64258', 'country_code3': 'CAN', 'geonameid': '6251999', 'place_name': 'Canada', 'feature_class': 'A', 'feature_code': 'PCLI'}}
{'word': 'Illinois', 'spans': [{'start': 0, 'end': 8}], 'country_predicted': 'USA', 'country_conf': 0.9634983, 'geo': {'admin1': 'Illinois', 'lat': '40.00032', 'lon': '-89.25037', 'country_code3': 'USA', 'geonameid': '4896861', 'place_name': 'Illinois', 'feature_class': 'A', 'feature_code': 'ADM1'}}
{'word': 'Birdsafe.&rdquo', 'spans': [{'start': 0, 'end': 15}], 'country_predicted': '', 'country_conf': 0}
{'word': 'Oklahoma', 'spans': [{'start': 0, 'end': 8}], 'country_predicted': 'USA', 'country_conf': 0.9634983, 'geo': {'admin1': 'Oklahoma', 'lat': '35.49209', 'lon': '-97.50328', 'country_code3': 'USA', 'geonameid': '4544379', 'place_name': 'Oklahoma', 'feature_class': 'A', 'feature_code': 'ADM1'}}
{'word': 'Stillwater', 'spans': [{'start': 0, 'end': 10}], 'country_predicted': 'USA', 'country_conf': 0.957188, 'geo': {'admin1': 'Oklahoma', 'lat': '36.11561', 'lon': '-97.05837', 'country_code3': 'USA', 'geonameid': '4552215', 'place_name': 'Stillwater', 'feature_class': 'P', 'feature_code': 'PPLA2'}}
{'word': 'Oklahoma', 'spans': [{'start': 0, 'end': 8}], 'country_predicted': 'USA', 'country_conf': 0.9634983, 'geo': {'admin1': 'Oklahoma', 'lat': '35.49209', 'lon': '-97.50328', 'country_code3': 'USA', 'geonameid': '4544379', 'place_name': 'Oklahoma', 'feature_class': 'A', 'feature_code': 'ADM1'}}
{'word': 'USA', 'spans': [{'start': 0, 'end': 3}], 'country_predicted': 'USA', 'country_conf': 0.9516948, 'geo': {'admin1': 'Louisiana', 'lat': '29.2605', 'lon': '-89.35478', 'country_code3': 'USA', 'geonameid': '4319780', 'place_name': 'Chevron USA Incorporated Seaplane Base', 'feature_class': 'S', 'feature_code': 'AIRP'}}
{'word': 'Canada', 'spans': [{'start': 0, 'end': 6}], 'country_predicted': 'CAN', 'country_conf': 0.9516948, 'geo': {'admin1': 'NA', 'lat': '60.10867', 'lon': '-113.64258', 'country_code3': 'CAN', 'geonameid': '6251999', 'place_name': 'Canada', 'feature_class': 'A', 'feature_code': 'PCLI'}}
{'word': 'mustelina', 'spans': [{'start': 0, 'end': 9}], 'country_predicted': '', 'country_conf': 0}
{'word': 'Kentucky', 'spans': [{'start': 0, 'end': 8}], 'country_predicted': 'USA', 'country_conf': 0.9634983, 'geo': {'admin1': 'Kentucky', 'lat': '38.20042', 'lon': '-84.87762', 'country_code3': 'USA', 'geonameid': '6254925', 'place_name': 'Kentucky', 'feature_class': 'A', 'feature_code': 'ADM1'}}
{'word': 'America', 'spans': [{'start': 0, 'end': 7}], 'country_predicted': 'USA', 'country_conf': 0.9516948, 'geo': {'admin1': 'Wyoming', 'lat': '41.54357', 'lon': '-109.85903', 'country_code3': 'USA', 'geonameid': '5830444', 'place_name': 'Little America', 'feature_class': 'P', 'feature_code': 'PPL'}}
{'word': 'los', 'spans': [{'start': 0, 'end': 3}], 'country_predicted': 'MEX', 'country_conf': 0.7178229, 'geo': {'admin1': 'Jalisco', 'lat': '20.42278', 'lon': '-103.18306', 'country_code3': 'MEX', 'geonameid': '8860783', 'place_name': 'Los Freseros (Los Sabinos)', 'feature_class': 'P', 'feature_code': 'PPL'}}
{'word': 'los', 'spans': [{'start': 0, 'end': 3}], 'country_predicted': 'MEX', 'country_conf': 0.7178229, 'geo': {'admin1': 'Jalisco', 'lat': '20.42278', 'lon': '-103.18306', 'country_code3': 'MEX', 'geonameid': '8860783', 'place_name': 'Los Freseros (Los Sabinos)', 'feature_class': 'P', 'feature_code': 'PPL'}}
{'word': 'baja', 'spans': [{'start': 0, 'end': 4}], 'country_predicted': 'HUN', 'country_conf': 0.87992215, 'geo': {'admin1': 'Bcs-Kiskun', 'lat': '46.18299', 'lon': '18.95307', 'country_code3': 'HUN', 'geonameid': '3055685', 'place_name': 'Baja', 'feature_class': 'P', 'feature_code': 'PPLA2'}}
{'word': 'los', 'spans': [{'start': 0, 'end': 3}], 'country_predicted': 'MEX', 'country_conf': 0.7178229, 'geo': {'admin1': 'Jalisco', 'lat': '20.42278', 'lon': '-103.18306', 'country_code3': 'MEX', 'geonameid': '8860783', 'place_name': 'Los Freseros (Los Sabinos)', 'feature_class': 'P', 'feature_code': 'PPL'}}
{'word': 'mustelina', 'spans': [{'start': 0, 'end': 9}], 'country_predicted': '', 'country_conf': 0}
{'word': 'los', 'spans': [{'start': 0, 'end': 3}], 'country_predicted': 'MEX', 'country_conf': 0.7178229, 'geo': {'admin1': 'Jalisco', 'lat': '20.42278', 'lon': '-103.18306', 'country_code3': 'MEX', 'geonameid': '8860783', 'place_name': 'Los Freseros (Los Sabinos)', 'feature_class': 'P', 'feature_code': 'PPL'}}
{'word': 'poco', 'spans': [{'start': 0, 'end': 4}], 'country_predicted': 'HTI', 'country_conf': 0.28868946}
{'word': 'presentamos', 'spans': [{'start': 0, 'end': 11}], 'country_predicted': 'NIU', 'country_conf': 0.24821267}
{'word': 'los', 'spans': [{'start': 0, 'end': 3}], 'country_predicted': 'MEX', 'country_conf': 0.7178229, 'geo': {'admin1': 'Jalisco', 'lat': '20.42278', 'lon': '-103.18306', 'country_code3': 'MEX', 'geonameid': '8860783', 'place_name': 'Los Freseros (Los Sabinos)', 'feature_class': 'P', 'feature_code': 'PPL'}}
{'word': 'los', 'spans': [{'start': 0, 'end': 3}], 'country_predicted': 'MEX', 'country_conf': 0.7178229, 'geo': {'admin1': 'Jalisco', 'lat': '20.42278', 'lon': '-103.18306', 'country_code3': 'MEX', 'geonameid': '8860783', 'place_name': 'Los Freseros (Los Sabinos)', 'feature_class': 'P', 'feature_code': 'PPL'}}
{'word': 'los', 'spans': [{'start': 0, 'end': 3}], 'country_predicted': 'MEX', 'country_conf': 0.7178229, 'geo': {'admin1': 'Jalisco', 'lat': '20.42278', 'lon': '-103.18306', 'country_code3': 'MEX', 'geonameid': '8860783', 'place_name': 'Los Freseros (Los Sabinos)', 'feature_class': 'P', 'feature_code': 'PPL'}}
{'word': 'gatos', 'spans': [{'start': 0, 'end': 5}], 'country_predicted': 'MEX', 'country_conf': 0.87992215, 'geo': {'admin1': 'Nuevo Len', 'lat': '25.10496', 'lon': '-99.34863', 'country_code3': 'MEX', 'geonameid': '3791859', 'place_name': 'Gatos Geros', 'feature_class': 'P', 'feature_code': 'PPL'}}
{'word': 'los', 'spans': [{'start': 0, 'end': 3}], 'country_predicted': 'MEX', 'country_conf': 0.7178229, 'geo': {'admin1': 'Jalisco', 'lat': '20.42278', 'lon': '-103.18306', 'country_code3': 'MEX', 'geonameid': '8860783', 'place_name': 'Los Freseros (Los Sabinos)', 'feature_class': 'P', 'feature_code': 'PPL'}}
{'word': 'baja', 'spans': [{'start': 0, 'end': 4}], 'country_predicted': 'HUN', 'country_conf': 0.87992215, 'geo': {'admin1': 'Bcs-Kiskun', 'lat': '46.18299', 'lon': '18.95307', 'country_code3': 'HUN', 'geonameid': '3055685', 'place_name': 'Baja', 'feature_class': 'P', 'feature_code': 'PPLA2'}}
{'word': 'Canada', 'spans': [{'start': 0, 'end': 6}], 'country_predicted': 'CAN', 'country_conf': 0.9516948, 'geo': {'admin1': 'NA', 'lat': '60.10867', 'lon': '-113.64258', 'country_code3': 'CAN', 'geonameid': '6251999', 'place_name': 'Canada', 'feature_class': 'A', 'feature_code': 'PCLI'}}
{'word': 'America', 'spans': [{'start': 0, 'end': 7}], 'country_predicted': 'USA', 'country_conf': 0.9516948, 'geo': {'admin1': 'Wyoming', 'lat': '41.54357', 'lon': '-109.85903', 'country_code3': 'USA', 'geonameid': '5830444', 'place_name': 'Little America', 'feature_class': 'P', 'feature_code': 'PPL'}}
{'word': 'Canada', 'spans': [{'start': 0, 'end': 6}], 'country_predicted': 'CAN', 'country_conf': 0.9516948, 'geo': {'admin1': 'NA', 'lat': '60.10867', 'lon': '-113.64258', 'country_code3': 'CAN', 'geonameid': '6251999', 'place_name': 'Canada', 'feature_class': 'A', 'feature_code': 'PCLI'}}
{'word': '&ldquo;dis-oriented,&rdquo', 'spans': [{'start': 0, 'end': 26}], 'country_predicted': 'USA', 'country_conf': 0.24821267}
{'word': 'St.', 'spans': [{'start': 0, 'end': 3}], 'country_predicted': 'JAM', 'country_conf': 0.28365934}
{'word': '&ldquo;super-avoider&rdquo', 'spans': [{'start': 0, 'end': 26}], 'country_predicted': 'USA', 'country_conf': 0.24821267}
{'word': 'America', 'spans': [{'start': 0, 'end': 7}], 'country_predicted': 'USA', 'country_conf': 0.9516948, 'geo': {'admin1': 'Wyoming', 'lat': '41.54357', 'lon': '-109.85903', 'country_code3': 'USA', 'geonameid': '5830444', 'place_name': 'Little America', 'feature_class': 'P', 'feature_code': 'PPL'}}
{'word': 'Canada', 'spans': [{'start': 0, 'end': 6}], 'country_predicted': 'CAN', 'country_conf': 0.9516948, 'geo': {'admin1': 'NA', 'lat': '60.10867', 'lon': '-113.64258', 'country_code3': 'CAN', 'geonameid': '6251999', 'place_name': 'Canada', 'feature_class': 'A', 'feature_code': 'PCLI'}}
{'word': 'Kentucky', 'spans': [{'start': 0, 'end': 8}], 'country_predicted': 'USA', 'country_conf': 0.9634983, 'geo': {'admin1': 'Kentucky', 'lat': '38.20042', 'lon': '-84.87762', 'country_code3': 'USA', 'geonameid': '6254925', 'place_name': 'Kentucky', 'feature_class': 'A', 'feature_code': 'ADM1'}}
{'word': 'mustelina', 'spans': [{'start': 0, 'end': 9}], 'country_predicted': '', 'country_conf': 0}
{'word': 'Canada', 'spans': [{'start': 0, 'end': 6}], 'country_predicted': 'CAN', 'country_conf': 0.9516948, 'geo': {'admin1': 'NA', 'lat': '60.10867', 'lon': '-113.64258', 'country_code3': 'CAN', 'geonameid': '6251999', 'place_name': 'Canada', 'feature_class': 'A', 'feature_code': 'PCLI'}}
{'word': 'Canada', 'spans': [{'start': 0, 'end': 6}], 'country_predicted': 'CAN', 'country_conf': 0.9516948, 'geo': {'admin1': 'NA', 'lat': '60.10867', 'lon': '-113.64258', 'country_code3': 'CAN', 'geonameid': '6251999', 'place_name': 'Canada', 'feature_class': 'A', 'feature_code': 'PCLI'}}
{'word': 'U.S', 'spans': [{'start': 0, 'end': 3}], 'country_predicted': 'CAN', 'country_conf': 0.28868946}
{'word': 'Canada', 'spans': [{'start': 0, 'end': 6}], 'country_predicted': 'CAN', 'country_conf': 0.9516948, 'geo': {'admin1': 'NA', 'lat': '60.10867', 'lon': '-113.64258', 'country_code3': 'CAN', 'geonameid': '6251999', 'place_name': 'Canada', 'feature_class': 'A', 'feature_code': 'PCLI'}}
{'word': 'Kentucky', 'spans': [{'start': 0, 'end': 8}], 'country_predicted': 'USA', 'country_conf': 0.9634983, 'geo': {'admin1': 'Kentucky', 'lat': '38.20042', 'lon': '-84.87762', 'country_code3': 'USA', 'geonameid': '6254925', 'place_name': 'Kentucky', 'feature_class': 'A', 'feature_code': 'ADM1'}}
{'word': 'Canada', 'spans': [{'start': 0, 'end': 6}], 'country_predicted': 'CAN', 'country_conf': 0.9516948, 'geo': {'admin1': 'NA', 'lat': '60.10867', 'lon': '-113.64258', 'country_code3': 'CAN', 'geonameid': '6251999', 'place_name': 'Canada', 'feature_class': 'A', 'feature_code': 'PCLI'}}
{'word': 'Mississippi', 'spans': [{'start': 0, 'end': 11}], 'country_predicted': 'USA', 'country_conf': 0.9634983, 'geo': {'admin1': 'Mississippi', 'lat': '32.75041', 'lon': '-89.75036', 'country_code3': 'USA', 'geonameid': '4436296', 'place_name': 'Mississippi', 'feature_class': 'A', 'feature_code': 'ADM1'}}
{'word': 'Ovenbirds', 'spans': [{'start': 0, 'end': 9}], 'country_predicted': '', 'country_conf': 0}
{'word': 'Canada', 'spans': [{'start': 0, 'end': 6}], 'country_predicted': 'CAN', 'country_conf': 0.9516948, 'geo': {'admin1': 'NA', 'lat': '60.10867', 'lon': '-113.64258', 'country_code3': 'CAN', 'geonameid': '6251999', 'place_name': 'Canada', 'feature_class': 'A', 'feature_code': 'PCLI'}}
{'word': 'Plains', 'spans': [{'start': 0, 'end': 6}], 'country_predicted': 'USA', 'country_conf': 0.957188, 'geo': {'admin1': 'Pennsylvania', 'lat': '41.27536', 'lon': '-75.8502', 'country_code3': 'USA', 'geonameid': '5206422', 'place_name': 'Plains', 'feature_class': 'P', 'feature_code': 'PPL'}}
{'word': 'Coast', 'spans': [{'start': 0, 'end': 5}], 'country_predicted': 'GMB', 'country_conf': 0.28365934}
{'word': 'Mississippi', 'spans': [{'start': 0, 'end': 11}], 'country_predicted': 'USA', 'country_conf': 0.9634983, 'geo': {'admin1': 'Mississippi', 'lat': '32.75041', 'lon': '-89.75036', 'country_code3': 'USA', 'geonameid': '4436296', 'place_name': 'Mississippi', 'feature_class': 'A', 'feature_code': 'ADM1'}}
{'word': 'America', 'spans': [{'start': 0, 'end': 7}], 'country_predicted': 'USA', 'country_conf': 0.9516948, 'geo': {'admin1': 'Wyoming', 'lat': '41.54357', 'lon': '-109.85903', 'country_code3': 'USA', 'geonameid': '5830444', 'place_name': 'Little America', 'feature_class': 'P', 'feature_code': 'PPL'}}
{'word': 'Carolina', 'spans': [{'start': 0, 'end': 8}], 'country_predicted': 'BRA', 'country_conf': 0.87992215, 'geo': {'admin1': 'Maranho', 'lat': '-7.50794', 'lon': '-47.14907', 'country_code3': 'BRA', 'geonameid': '6319678', 'place_name': 'Carolina', 'feature_class': 'A', 'feature_code': 'ADM2'}}
{'word': 'Columbus', 'spans': [{'start': 0, 'end': 8}], 'country_predicted': 'USA', 'country_conf': 0.957188, 'geo': {'admin1': 'Ohio', 'lat': '39.96118', 'lon': '-82.99879', 'country_code3': 'USA', 'geonameid': '4509177', 'place_name': 'Columbus', 'feature_class': 'P', 'feature_code': 'PPLA'}}
{'word': 'Ohio', 'spans': [{'start': 0, 'end': 4}], 'country_predicted': 'USA', 'country_conf': 0.9634983, 'geo': {'admin1': 'Ohio', 'lat': '40.25034', 'lon': '-83.00018', 'country_code3': 'USA', 'geonameid': '5165418', 'place_name': 'Ohio', 'feature_class': 'A', 'feature_code': 'ADM1'}}
{'word': 'Portland', 'spans': [{'start': 0, 'end': 8}], 'country_predicted': 'USA', 'country_conf': 0.957188, 'geo': {'admin1': 'Oregon', 'lat': '45.52345', 'lon': '-122.67621', 'country_code3': 'USA', 'geonameid': '5746545', 'place_name': 'Portland', 'feature_class': 'P', 'feature_code': 'PPLA2'}}
{'word': 'Portland', 'spans': [{'start': 0, 'end': 8}], 'country_predicted': 'USA', 'country_conf': 0.957188, 'geo': {'admin1': 'Oregon', 'lat': '45.52345', 'lon': '-122.67621', 'country_code3': 'USA', 'geonameid': '5746545', 'place_name': 'Portland', 'feature_class': 'P', 'feature_code': 'PPLA2'}}
{'word': 'Wisconsin', 'spans': [{'start': 1, 'end': 10}], 'country_predicted': 'USA', 'country_conf': 0.9634983, 'geo': {'admin1': 'Wisconsin', 'lat': '44.50024', 'lon': '-90.00041', 'country_code3': 'USA', 'geonameid': '5279468', 'place_name': 'Wisconsin', 'feature_class': 'A', 'feature_code': 'ADM1'}}
{'word': 'Wisconsin', 'spans': [{'start': 0, 'end': 9}], 'country_predicted': 'USA', 'country_conf': 0.9634983, 'geo': {'admin1': 'Wisconsin', 'lat': '44.50024', 'lon': '-90.00041', 'country_code3': 'USA', 'geonameid': '5279468', 'place_name': 'Wisconsin', 'feature_class': 'A', 'feature_code': 'ADM1'}}
{'word': 'Minnesota', 'spans': [{'start': 0, 'end': 9}], 'country_predicted': 'USA', 'country_conf': 0.9516948, 'geo': {'admin1': 'Minnesota', 'lat': '46.25024', 'lon': '-94.25055', 'country_code3': 'USA', 'geonameid': '5037779', 'place_name': 'Minnesota', 'feature_class': 'A', 'feature_code': 'ADM1'}}
{'word': 'Minnesota', 'spans': [{'start': 0, 'end': 9}], 'country_predicted': 'USA', 'country_conf': 0.9516948, 'geo': {'admin1': 'Minnesota', 'lat': '46.25024', 'lon': '-94.25055', 'country_code3': 'USA', 'geonameid': '5037779', 'place_name': 'Minnesota', 'feature_class': 'A', 'feature_code': 'ADM1'}}
{'word': 'Minnesota', 'spans': [{'start': 0, 'end': 9}], 'country_predicted': 'USA', 'country_conf': 0.9516948, 'geo': {'admin1': 'Minnesota', 'lat': '46.25024', 'lon': '-94.25055', 'country_code3': 'USA', 'geonameid': '5037779', 'place_name': 'Minnesota', 'feature_class': 'A', 'feature_code': 'ADM1'}}
{'word': 'California', 'spans': [{'start': 1, 'end': 11}], 'country_predicted': 'COL', 'country_conf': 0.19161284}
{'word': 'Toronto', 'spans': [{'start': 1, 'end': 8}], 'country_predicted': 'CAN', 'country_conf': 0.957188, 'geo': {'admin1': 'Ontario', 'lat': '43.70011', 'lon': '-79.4163', 'country_code3': 'CAN', 'geonameid': '6167865', 'place_name': 'Toronto', 'feature_class': 'P', 'feature_code': 'PPLA'}}
{'word': 'Baltimore', 'spans': [{'start': 0, 'end': 9}], 'country_predicted': 'USA', 'country_conf': 0.957188, 'geo': {'admin1': 'Maryland', 'lat': '39.29038', 'lon': '-76.61219', 'country_code3': 'USA', 'geonameid': '4347778', 'place_name': 'Baltimore', 'feature_class': 'P', 'feature_code': 'PPLA2'}}
{'word': 'Baltimore', 'spans': [{'start': 0, 'end': 9}], 'country_predicted': 'USA', 'country_conf': 0.957188, 'geo': {'admin1': 'Maryland', 'lat': '39.29038', 'lon': '-76.61219', 'country_code3': 'USA', 'geonameid': '4347778', 'place_name': 'Baltimore', 'feature_class': 'P', 'feature_code': 'PPLA2'}}
{'word': 'Chicago', 'spans': [{'start': 1, 'end': 8}], 'country_predicted': 'USA', 'country_conf': 0.9634983, 'geo': {'admin1': 'Illinois', 'lat': '41.85003', 'lon': '-87.65005', 'country_code3': 'USA', 'geonameid': '4887398', 'place_name': 'Chicago', 'feature_class': 'P', 'feature_code': 'PPLA2'}}
{'word': 'Chicago', 'spans': [{'start': 0, 'end': 7}], 'country_predicted': 'USA', 'country_conf': 0.9634983, 'geo': {'admin1': 'Illinois', 'lat': '41.85003', 'lon': '-87.65005', 'country_code3': 'USA', 'geonameid': '4887398', 'place_name': 'Chicago', 'feature_class': 'P', 'feature_code': 'PPLA2'}}
{'word': 'Pennsylvania', 'spans': [{'start': 0, 'end': 12}], 'country_predicted': 'USA', 'country_conf': 0.9634983, 'geo': {'admin1': 'Pennsylvania', 'lat': '40.8', 'lon': '-77.7', 'country_code3': 'USA', 'geonameid': '6254927', 'place_name': 'Pennsylvania', 'feature_class': 'A', 'feature_code': 'ADM1'}}
{'word': 'Hager', 'spans': [{'start': 0, 'end': 5}], 'country_predicted': 'USA', 'country_conf': 0.28365934}
{'word': 'Cleveland', 'spans': [{'start': 0, 'end': 9}], 'country_predicted': 'USA', 'country_conf': 0.6353264, 'geo': {'admin1': 'Ohio', 'lat': '41.4995', 'lon': '-81.69541', 'country_code3': 'USA', 'geonameid': '5150529', 'place_name': 'Cleveland', 'feature_class': 'P', 'feature_code': 'PPLA2'}}
{'word': 'Cleveland', 'spans': [{'start': 0, 'end': 9}], 'country_predicted': 'USA', 'country_conf': 0.6353264, 'geo': {'admin1': 'Ohio', 'lat': '41.4995', 'lon': '-81.69541', 'country_code3': 'USA', 'geonameid': '5150529', 'place_name': 'Cleveland', 'feature_class': 'P', 'feature_code': 'PPLA2'}}
{'word': 'Ohio', 'spans': [{'start': 0, 'end': 4}], 'country_predicted': 'USA', 'country_conf': 0.9634983, 'geo': {'admin1': 'Ohio', 'lat': '40.25034', 'lon': '-83.00018', 'country_code3': 'USA', 'geonameid': '5165418', 'place_name': 'Ohio', 'feature_class': 'A', 'feature_code': 'ADM1'}}
{'word': 'U.S', 'spans': [{'start': 0, 'end': 3}], 'country_predicted': 'CAN', 'country_conf': 0.28868946}
