{'word': 'Puerto', 'spans': [{'start': 0, 'end': 6}], 'country_predicted': 'GTM', 'country_conf': 0.87992215, 'geo': {'admin1': 'Izabal', 'lat': '15.72778', 'lon': '-88.59444', 'country_code3': 'GTM', 'geonameid': '3591062', 'place_name': 'Puerto Barrios', 'feature_class': 'P', 'feature_code': 'PPLA'}}
{'word': 'Rico', 'spans': [{'start': 0, 'end': 4}], 'country_predicted': 'COL', 'country_conf': 0.87992215, 'geo': {'admin1': 'Caquet', 'lat': '1.90999', 'lon': '-75.15931', 'country_code3': 'COL', 'geonameid': '3671348', 'place_name': 'Puerto Rico', 'feature_class': 'P', 'feature_code': 'PPLA2'}}
{'word': 'Puerto', 'spans': [{'start': 0, 'end': 6}], 'country_predicted': 'GTM', 'country_conf': 0.87992215, 'geo': {'admin1': 'Izabal', 'lat': '15.72778', 'lon': '-88.59444', 'country_code3': 'GTM', 'geonameid': '3591062', 'place_name': 'Puerto Barrios', 'feature_class': 'P', 'feature_code': 'PPLA'}}
{'word': 'Florida', 'spans': [{'start': 0, 'end': 7}], 'country_predicted': 'CUB', 'country_conf': 0.19161284}
{'word': 'Costa', 'spans': [{'start': 0, 'end': 5}], 'country_predicted': 'ITA', 'country_conf': 0.9048774, 'geo': {'admin1': 'Piedmont', 'lat': '44.61758', 'lon': '8.63968', 'country_code3': 'ITA', 'geonameid': '8953792', 'place_name': 'Costa', 'feature_class': 'P', 'feature_code': 'PPL'}}
{'word': 'Rica', 'spans': [{'start': 0, 'end': 4}], 'country_predicted': 'COL', 'country_conf': 0.28365934}
{'word': 'Mexico', 'spans': [{'start': 0, 'end': 6}], 'country_predicted': 'MEX', 'country_conf': 0.9516948, 'geo': {'admin1': 'NA', 'lat': '23', 'lon': '-102', 'country_code3': 'MEX', 'geonameid': '3996063', 'place_name': 'Mexico', 'feature_class': 'A', 'feature_code': 'PCLI'}}
{'word': 'Bahamas', 'spans': [{'start': 0, 'end': 7}], 'country_predicted': 'BHS', 'country_conf': 0.9516948, 'geo': {'admin1': 'NA', 'lat': '25.04082', 'lon': '-77.37122', 'country_code3': 'BHS', 'geonameid': '3572887', 'place_name': 'Commonwealth of The Bahamas', 'feature_class': 'A', 'feature_code': 'PCLI'}}
{'word': 'America', 'spans': [{'start': 0, 'end': 7}], 'country_predicted': 'USA', 'country_conf': 0.9516948, 'geo': {'admin1': 'Wyoming', 'lat': '41.54357', 'lon': '-109.85903', 'country_code3': 'USA', 'geonameid': '5830444', 'place_name': 'Little America', 'feature_class': 'P', 'feature_code': 'PPL'}}
{'word': 'Bay-breasted', 'spans': [{'start': 0, 'end': 12}], 'country_predicted': 'VIR', 'country_conf': 0.24821267}
{'word': 'Panama', 'spans': [{'start': 0, 'end': 6}], 'country_predicted': 'PAN', 'country_conf': 0.9516948, 'geo': {'admin1': 'NA', 'lat': '9', 'lon': '-80', 'country_code3': 'PAN', 'geonameid': '3703430', 'place_name': 'Republic of Panama', 'feature_class': 'A', 'feature_code': 'PCLI'}}
{'word': 'Yucatan', 'spans': [{'start': 0, 'end': 7}], 'country_predicted': 'MEX', 'country_conf': 0.87992215, 'geo': {'admin1': 'Yucatn', 'lat': '20.75', 'lon': '-88.83333', 'country_code3': 'MEX', 'geonameid': '3514211', 'place_name': 'Estado de Yucatn', 'feature_class': 'A', 'feature_code': 'ADM1'}}
{'word': 'Brazil', 'spans': [{'start': 0, 'end': 6}], 'country_predicted': 'BRA', 'country_conf': 0.9516948, 'geo': {'admin1': 'NA', 'lat': '-10', 'lon': '-55', 'country_code3': 'BRA', 'geonameid': '3469034', 'place_name': 'Federative Republic of Brazil', 'feature_class': 'A', 'feature_code': 'PCLI'}}
{'word': 'Venezuela', 'spans': [{'start': 0, 'end': 9}], 'country_predicted': 'VEN', 'country_conf': 0.9516948, 'geo': {'admin1': 'NA', 'lat': '8', 'lon': '-66', 'country_code3': 'VEN', 'geonameid': '3625428', 'place_name': 'Bolivarian Republic of Venezuela', 'feature_class': 'A', 'feature_code': 'PCLI'}}
{'word': 'Bahamas', 'spans': [{'start': 0, 'end': 7}], 'country_predicted': 'BHS', 'country_conf': 0.9516948, 'geo': {'admin1': 'NA', 'lat': '25.04082', 'lon': '-77.37122', 'country_code3': 'BHS', 'geonameid': '3572887', 'place_name': 'Commonwealth of The Bahamas', 'feature_class': 'A', 'feature_code': 'PCLI'}}
{'word': 'Jamaica', 'spans': [{'start': 0, 'end': 7}], 'country_predicted': 'JAM', 'country_conf': 0.9516948, 'geo': {'admin1': 'NA', 'lat': '18.17717', 'lon': '-77.37122', 'country_code3': 'JAM', 'geonameid': '3489941', 'place_name': 'Jamaica', 'feature_class': 'T', 'feature_code': 'ISL'}}
{'word': 'Jamaica', 'spans': [{'start': 0, 'end': 7}], 'country_predicted': 'JAM', 'country_conf': 0.9516948, 'geo': {'admin1': 'NA', 'lat': '18.17717', 'lon': '-77.37122', 'country_code3': 'JAM', 'geonameid': '3489941', 'place_name': 'Jamaica', 'feature_class': 'T', 'feature_code': 'ISL'}}
{'word': 'Carolina', 'spans': [{'start': 0, 'end': 8}], 'country_predicted': 'BRA', 'country_conf': 0.87992215, 'geo': {'admin1': 'Maranho', 'lat': '-7.50794', 'lon': '-47.14907', 'country_code3': 'BRA', 'geonameid': '6319678', 'place_name': 'Carolina', 'feature_class': 'A', 'feature_code': 'ADM2'}}
{'word': 'Bahamas', 'spans': [{'start': 0, 'end': 7}], 'country_predicted': 'BHS', 'country_conf': 0.9516948, 'geo': {'admin1': 'NA', 'lat': '25.04082', 'lon': '-77.37122', 'country_code3': 'BHS', 'geonameid': '3572887', 'place_name': 'Commonwealth of The Bahamas', 'feature_class': 'A', 'feature_code': 'PCLI'}}
{'word': 'Venezuela', 'spans': [{'start': 0, 'end': 9}], 'country_predicted': 'VEN', 'country_conf': 0.9516948, 'geo': {'admin1': 'NA', 'lat': '8', 'lon': '-66', 'country_code3': 'VEN', 'geonameid': '3625428', 'place_name': 'Bolivarian Republic of Venezuela', 'feature_class': 'A', 'feature_code': 'PCLI'}}
{'word': 'Costa', 'spans': [{'start': 0, 'end': 5}], 'country_predicted': 'ITA', 'country_conf': 0.9048774, 'geo': {'admin1': 'Piedmont', 'lat': '44.61758', 'lon': '8.63968', 'country_code3': 'ITA', 'geonameid': '8953792', 'place_name': 'Costa', 'feature_class': 'P', 'feature_code': 'PPL'}}
{'word': 'Colorado', 'spans': [{'start': 0, 'end': 8}], 'country_predicted': 'CRI', 'country_conf': 0.19161284}
{'word': 'Panama', 'spans': [{'start': 0, 'end': 6}], 'country_predicted': 'PAN', 'country_conf': 0.9516948, 'geo': {'admin1': 'NA', 'lat': '9', 'lon': '-80', 'country_code3': 'PAN', 'geonameid': '3703430', 'place_name': 'Republic of Panama', 'feature_class': 'A', 'feature_code': 'PCLI'}}
{'word': 'Ghana', 'spans': [{'start': 0, 'end': 5}], 'country_predicted': 'GHA', 'country_conf': 0.9516948, 'geo': {'admin1': 'NA', 'lat': '8.1', 'lon': '-1.2', 'country_code3': 'GHA', 'geonameid': '2300660', 'place_name': 'Republic of Ghana', 'feature_class': 'A', 'feature_code': 'PCLI'}}
{'word': 'Costa', 'spans': [{'start': 0, 'end': 5}], 'country_predicted': 'ITA', 'country_conf': 0.9048774, 'geo': {'admin1': 'Piedmont', 'lat': '44.61758', 'lon': '8.63968', 'country_code3': 'ITA', 'geonameid': '8953792', 'place_name': 'Costa', 'feature_class': 'P', 'feature_code': 'PPL'}}
{'word': 'Mexico', 'spans': [{'start': 0, 'end': 6}], 'country_predicted': 'MEX', 'country_conf': 0.9516948, 'geo': {'admin1': 'NA', 'lat': '23', 'lon': '-102', 'country_code3': 'MEX', 'geonameid': '3996063', 'place_name': 'Mexico', 'feature_class': 'A', 'feature_code': 'PCLI'}}
{'word': 'Bahamas', 'spans': [{'start': 0, 'end': 7}], 'country_predicted': 'BHS', 'country_conf': 0.9516948, 'geo': {'admin1': 'NA', 'lat': '25.04082', 'lon': '-77.37122', 'country_code3': 'BHS', 'geonameid': '3572887', 'place_name': 'Commonwealth of The Bahamas', 'feature_class': 'A', 'feature_code': 'PCLI'}}
{'word': 'Jamaica', 'spans': [{'start': 0, 'end': 7}], 'country_predicted': 'JAM', 'country_conf': 0.9516948, 'geo': {'admin1': 'NA', 'lat': '18.17717', 'lon': '-77.37122', 'country_code3': 'JAM', 'geonameid': '3489941', 'place_name': 'Jamaica', 'feature_class': 'T', 'feature_code': 'ISL'}}
{'word': 'Panama', 'spans': [{'start': 0, 'end': 6}], 'country_predicted': 'PAN', 'country_conf': 0.9516948, 'geo': {'admin1': 'NA', 'lat': '9', 'lon': '-80', 'country_code3': 'PAN', 'geonameid': '3703430', 'place_name': 'Republic of Panama', 'feature_class': 'A', 'feature_code': 'PCLI'}}
{'word': 'Costa', 'spans': [{'start': 0, 'end': 5}], 'country_predicted': 'ITA', 'country_conf': 0.9048774, 'geo': {'admin1': 'Piedmont', 'lat': '44.61758', 'lon': '8.63968', 'country_code3': 'ITA', 'geonameid': '8953792', 'place_name': 'Costa', 'feature_class': 'P', 'feature_code': 'PPL'}}
{'word': 'Rica', 'spans': [{'start': 0, 'end': 4}], 'country_predicted': 'COL', 'country_conf': 0.28365934}
{'word': 'Jamaica', 'spans': [{'start': 0, 'end': 7}], 'country_predicted': 'JAM', 'country_conf': 0.9516948, 'geo': {'admin1': 'NA', 'lat': '18.17717', 'lon': '-77.37122', 'country_code3': 'JAM', 'geonameid': '3489941', 'place_name': 'Jamaica', 'feature_class': 'T', 'feature_code': 'ISL'}}
{'word': 'Florida', 'spans': [{'start': 0, 'end': 7}], 'country_predicted': 'CUB', 'country_conf': 0.19161284}
{'word': 'Ontario', 'spans': [{'start': 0, 'end': 7}], 'country_predicted': 'CAN', 'country_conf': 0.87992215, 'geo': {'admin1': 'Ontario', 'lat': '49.25014', 'lon': '-84.49983', 'country_code3': 'CAN', 'geonameid': '6093943', 'place_name': 'Ontario', 'feature_class': 'A', 'feature_code': 'ADM1'}}
{'word': 'Canada', 'spans': [{'start': 0, 'end': 6}], 'country_predicted': 'CAN', 'country_conf': 0.9516948, 'geo': {'admin1': 'NA', 'lat': '60.10867', 'lon': '-113.64258', 'country_code3': 'CAN', 'geonameid': '6251999', 'place_name': 'Canada', 'feature_class': 'A', 'feature_code': 'PCLI'}}
{'word': 'Yucatan', 'spans': [{'start': 0, 'end': 7}], 'country_predicted': 'MEX', 'country_conf': 0.87992215, 'geo': {'admin1': 'Yucatn', 'lat': '20.75', 'lon': '-88.83333', 'country_code3': 'MEX', 'geonameid': '3514211', 'place_name': 'Estado de Yucatn', 'feature_class': 'A', 'feature_code': 'ADM1'}}
{'word': 'Puerto', 'spans': [{'start': 0, 'end': 6}], 'country_predicted': 'GTM', 'country_conf': 0.87992215, 'geo': {'admin1': 'Izabal', 'lat': '15.72778', 'lon': '-88.59444', 'country_code3': 'GTM', 'geonameid': '3591062', 'place_name': 'Puerto Barrios', 'feature_class': 'P', 'feature_code': 'PPLA'}}
{'word': 'Ovenbirds', 'spans': [{'start': 0, 'end': 9}], 'country_predicted': '', 'country_conf': 0}
{'word': 'Jamaica', 'spans': [{'start': 0, 'end': 7}], 'country_predicted': 'JAM', 'country_conf': 0.9516948, 'geo': {'admin1': 'NA', 'lat': '18.17717', 'lon': '-77.37122', 'country_code3': 'JAM', 'geonameid': '3489941', 'place_name': 'Jamaica', 'feature_class': 'T', 'feature_code': 'ISL'}}
{'word': 'Wisconsin', 'spans': [{'start': 0, 'end': 9}], 'country_predicted': 'USA', 'country_conf': 0.9634983, 'geo': {'admin1': 'Wisconsin', 'lat': '44.50024', 'lon': '-90.00041', 'country_code3': 'USA', 'geonameid': '5279468', 'place_name': 'Wisconsin', 'feature_class': 'A', 'feature_code': 'ADM1'}}
{'word': 'Botswana', 'spans': [{'start': 0, 'end': 8}], 'country_predicted': 'BWA', 'country_conf': 0.9516948, 'geo': {'admin1': 'NA', 'lat': '-22', 'lon': '24', 'country_code3': 'BWA', 'geonameid': '933860', 'place_name': 'Republic of Botswana', 'feature_class': 'A', 'feature_code': 'PCLI'}}
{'word': 'Costa', 'spans': [{'start': 0, 'end': 5}], 'country_predicted': 'ITA', 'country_conf': 0.9048774, 'geo': {'admin1': 'Piedmont', 'lat': '44.61758', 'lon': '8.63968', 'country_code3': 'ITA', 'geonameid': '8953792', 'place_name': 'Costa', 'feature_class': 'P', 'feature_code': 'PPL'}}
{'word': 'Rica', 'spans': [{'start': 0, 'end': 4}], 'country_predicted': 'COL', 'country_conf': 0.28365934}
{'word': 'Puerto', 'spans': [{'start': 0, 'end': 6}], 'country_predicted': 'GTM', 'country_conf': 0.87992215, 'geo': {'admin1': 'Izabal', 'lat': '15.72778', 'lon': '-88.59444', 'country_code3': 'GTM', 'geonameid': '3591062', 'place_name': 'Puerto Barrios', 'feature_class': 'P', 'feature_code': 'PPLA'}}
{'word': 'Puerto', 'spans': [{'start': 0, 'end': 6}], 'country_predicted': 'GTM', 'country_conf': 0.87992215, 'geo': {'admin1': 'Izabal', 'lat': '15.72778', 'lon': '-88.59444', 'country_code3': 'GTM', 'geonameid': '3591062', 'place_name': 'Puerto Barrios', 'feature_class': 'P', 'feature_code': 'PPLA'}}
{'word': 'Bahamas', 'spans': [{'start': 0, 'end': 7}], 'country_predicted': 'BHS', 'country_conf': 0.9516948, 'geo': {'admin1': 'NA', 'lat': '25.04082', 'lon': '-77.37122', 'country_code3': 'BHS', 'geonameid': '3572887', 'place_name': 'Commonwealth of The Bahamas', 'feature_class': 'A', 'feature_code': 'PCLI'}}
{'word': 'Eleuthera', 'spans': [{'start': 0, 'end': 9}], 'country_predicted': 'BHS', 'country_conf': 0.28868946}
{'word': 'Bahamas', 'spans': [{'start': 0, 'end': 7}], 'country_predicted': 'BHS', 'country_conf': 0.9516948, 'geo': {'admin1': 'NA', 'lat': '25.04082', 'lon': '-77.37122', 'country_code3': 'BHS', 'geonameid': '3572887', 'place_name': 'Commonwealth of The Bahamas', 'feature_class': 'A', 'feature_code': 'PCLI'}}
{'word': 'Ovenbirds', 'spans': [{'start': 0, 'end': 9}], 'country_predicted': '', 'country_conf': 0}
{'word': 'Ovenbirds', 'spans': [{'start': 0, 'end': 9}], 'country_predicted': '', 'country_conf': 0}
{'word': 'Ovenbirds', 'spans': [{'start': 0, 'end': 9}], 'country_predicted': '', 'country_conf': 0}
{'word': 'Eleuthera', 'spans': [{'start': 0, 'end': 9}], 'country_predicted': 'BHS', 'country_conf': 0.28868946}
{'word': 'Bahamas', 'spans': [{'start': 0, 'end': 7}], 'country_predicted': 'BHS', 'country_conf': 0.9516948, 'geo': {'admin1': 'NA', 'lat': '25.04082', 'lon': '-77.37122', 'country_code3': 'BHS', 'geonameid': '3572887', 'place_name': 'Commonwealth of The Bahamas', 'feature_class': 'A', 'feature_code': 'PCLI'}}
{'word': 'Bahamas', 'spans': [{'start': 0, 'end': 7}], 'country_predicted': 'BHS', 'country_conf': 0.9516948, 'geo': {'admin1': 'NA', 'lat': '25.04082', 'lon': '-77.37122', 'country_code3': 'BHS', 'geonameid': '3572887', 'place_name': 'Commonwealth of The Bahamas', 'feature_class': 'A', 'feature_code': 'PCLI'}}
{'word': 'Bahamas', 'spans': [{'start': 0, 'end': 7}], 'country_predicted': 'BHS', 'country_conf': 0.9516948, 'geo': {'admin1': 'NA', 'lat': '25.04082', 'lon': '-77.37122', 'country_code3': 'BHS', 'geonameid': '3572887', 'place_name': 'Commonwealth of The Bahamas', 'feature_class': 'A', 'feature_code': 'PCLI'}}
{'word': 'America', 'spans': [{'start': 0, 'end': 7}], 'country_predicted': 'USA', 'country_conf': 0.9516948, 'geo': {'admin1': 'Wyoming', 'lat': '41.54357', 'lon': '-109.85903', 'country_code3': 'USA', 'geonameid': '5830444', 'place_name': 'Little America', 'feature_class': 'P', 'feature_code': 'PPL'}}
{'word': 'Bahamas', 'spans': [{'start': 0, 'end': 7}], 'country_predicted': 'BHS', 'country_conf': 0.9516948, 'geo': {'admin1': 'NA', 'lat': '25.04082', 'lon': '-77.37122', 'country_code3': 'BHS', 'geonameid': '3572887', 'place_name': 'Commonwealth of The Bahamas', 'feature_class': 'A', 'feature_code': 'PCLI'}}
{'word': 'sexo', 'spans': [{'start': 0, 'end': 4}], 'country_predicted': 'COG', 'country_conf': 0.9048774, 'geo': {'admin1': 'Kouilou', 'lat': '-4.13472', 'lon': '11.9275', 'country_code3': 'COG', 'geonameid': '2255292', 'place_name': 'Sexo', 'feature_class': 'P', 'feature_code': 'PPL'}}
{'word': 'los', 'spans': [{'start': 0, 'end': 3}], 'country_predicted': 'MEX', 'country_conf': 0.7178229, 'geo': {'admin1': 'Jalisco', 'lat': '20.42278', 'lon': '-103.18306', 'country_code3': 'MEX', 'geonameid': '8860783', 'place_name': 'Los Freseros (Los Sabinos)', 'feature_class': 'P', 'feature_code': 'PPL'}}
{'word': 'Eleuthera', 'spans': [{'start': 0, 'end': 9}], 'country_predicted': 'BHS', 'country_conf': 0.28868946}
{'word': 'Bahamas', 'spans': [{'start': 0, 'end': 7}], 'country_predicted': 'BHS', 'country_conf': 0.9516948, 'geo': {'admin1': 'NA', 'lat': '25.04082', 'lon': '-77.37122', 'country_code3': 'BHS', 'geonameid': '3572887', 'place_name': 'Commonwealth of The Bahamas', 'feature_class': 'A', 'feature_code': 'PCLI'}}
{'word': 'sexo', 'spans': [{'start': 0, 'end': 4}], 'country_predicted': 'COG', 'country_conf': 0.9048774, 'geo': {'admin1': 'Kouilou', 'lat': '-4.13472', 'lon': '11.9275', 'country_code3': 'COG', 'geonameid': '2255292', 'place_name': 'Sexo', 'feature_class': 'P', 'feature_code': 'PPL'}}
{'word': 'los', 'spans': [{'start': 0, 'end': 3}], 'country_predicted': 'MEX', 'country_conf': 0.7178229, 'geo': {'admin1': 'Jalisco', 'lat': '20.42278', 'lon': '-103.18306', 'country_code3': 'MEX', 'geonameid': '8860783', 'place_name': 'Los Freseros (Los Sabinos)', 'feature_class': 'P', 'feature_code': 'PPL'}}
{'word': 'poco', 'spans': [{'start': 0, 'end': 4}], 'country_predicted': 'HTI', 'country_conf': 0.28868946}
{'word': 'baja', 'spans': [{'start': 0, 'end': 4}], 'country_predicted': 'HUN', 'country_conf': 0.87992215, 'geo': {'admin1': 'Bcs-Kiskun', 'lat': '46.18299', 'lon': '18.95307', 'country_code3': 'HUN', 'geonameid': '3055685', 'place_name': 'Baja', 'feature_class': 'P', 'feature_code': 'PPLA2'}}
{'word': 'sexo', 'spans': [{'start': 0, 'end': 4}], 'country_predicted': 'COG', 'country_conf': 0.9048774, 'geo': {'admin1': 'Kouilou', 'lat': '-4.13472', 'lon': '11.9275', 'country_code3': 'COG', 'geonameid': '2255292', 'place_name': 'Sexo', 'feature_class': 'P', 'feature_code': 'PPL'}}
{'word': 'h&aacute;bitat', 'spans': [{'start': 0, 'end': 14}], 'country_predicted': '', 'country_conf': 0}
{'word': 'los', 'spans': [{'start': 0, 'end': 3}], 'country_predicted': 'MEX', 'country_conf': 0.7178229, 'geo': {'admin1': 'Jalisco', 'lat': '20.42278', 'lon': '-103.18306', 'country_code3': 'MEX', 'geonameid': '8860783', 'place_name': 'Los Freseros (Los Sabinos)', 'feature_class': 'P', 'feature_code': 'PPL'}}
{'word': 'sexo', 'spans': [{'start': 0, 'end': 4}], 'country_predicted': 'COG', 'country_conf': 0.9048774, 'geo': {'admin1': 'Kouilou', 'lat': '-4.13472', 'lon': '11.9275', 'country_code3': 'COG', 'geonameid': '2255292', 'place_name': 'Sexo', 'feature_class': 'P', 'feature_code': 'PPL'}}
{'word': 'desde', 'spans': [{'start': 0, 'end': 5}], 'country_predicted': 'AZE', 'country_conf': 0.28365934}
{'word': 'los', 'spans': [{'start': 0, 'end': 3}], 'country_predicted': 'MEX', 'country_conf': 0.7178229, 'geo': {'admin1': 'Jalisco', 'lat': '20.42278', 'lon': '-103.18306', 'country_code3': 'MEX', 'geonameid': '8860783', 'place_name': 'Los Freseros (Los Sabinos)', 'feature_class': 'P', 'feature_code': 'PPL'}}
{'word': 'los', 'spans': [{'start': 0, 'end': 3}], 'country_predicted': 'MEX', 'country_conf': 0.7178229, 'geo': {'admin1': 'Jalisco', 'lat': '20.42278', 'lon': '-103.18306', 'country_code3': 'MEX', 'geonameid': '8860783', 'place_name': 'Los Freseros (Los Sabinos)', 'feature_class': 'P', 'feature_code': 'PPL'}}
{'word': 'los', 'spans': [{'start': 0, 'end': 3}], 'country_predicted': 'MEX', 'country_conf': 0.7178229, 'geo': {'admin1': 'Jalisco', 'lat': '20.42278', 'lon': '-103.18306', 'country_code3': 'MEX', 'geonameid': '8860783', 'place_name': 'Los Freseros (Los Sabinos)', 'feature_class': 'P', 'feature_code': 'PPL'}}
{'word': 'los', 'spans': [{'start': 0, 'end': 3}], 'country_predicted': 'MEX', 'country_conf': 0.7178229, 'geo': {'admin1': 'Jalisco', 'lat': '20.42278', 'lon': '-103.18306', 'country_code3': 'MEX', 'geonameid': '8860783', 'place_name': 'Los Freseros (Los Sabinos)', 'feature_class': 'P', 'feature_code': 'PPL'}}
{'word': 'los', 'spans': [{'start': 0, 'end': 3}], 'country_predicted': 'MEX', 'country_conf': 0.7178229, 'geo': {'admin1': 'Jalisco', 'lat': '20.42278', 'lon': '-103.18306', 'country_code3': 'MEX', 'geonameid': '8860783', 'place_name': 'Los Freseros (Los Sabinos)', 'feature_class': 'P', 'feature_code': 'PPL'}}
{'word': 'Bahamas', 'spans': [{'start': 0, 'end': 7}], 'country_predicted': 'BHS', 'country_conf': 0.9516948, 'geo': {'admin1': 'NA', 'lat': '25.04082', 'lon': '-77.37122', 'country_code3': 'BHS', 'geonameid': '3572887', 'place_name': 'Commonwealth of The Bahamas', 'feature_class': 'A', 'feature_code': 'PCLI'}}
{'word': 'los', 'spans': [{'start': 0, 'end': 3}], 'country_predicted': 'MEX', 'country_conf': 0.7178229, 'geo': {'admin1': 'Jalisco', 'lat': '20.42278', 'lon': '-103.18306', 'country_code3': 'MEX', 'geonameid': '8860783', 'place_name': 'Los Freseros (Los Sabinos)', 'feature_class': 'P', 'feature_code': 'PPL'}}
{'word': 'Bahamas', 'spans': [{'start': 0, 'end': 7}], 'country_predicted': 'BHS', 'country_conf': 0.9516948, 'geo': {'admin1': 'NA', 'lat': '25.04082', 'lon': '-77.37122', 'country_code3': 'BHS', 'geonameid': '3572887', 'place_name': 'Commonwealth of The Bahamas', 'feature_class': 'A', 'feature_code': 'PCLI'}}
{'word': 'Bahamas', 'spans': [{'start': 0, 'end': 7}], 'country_predicted': 'BHS', 'country_conf': 0.9516948, 'geo': {'admin1': 'NA', 'lat': '25.04082', 'lon': '-77.37122', 'country_code3': 'BHS', 'geonameid': '3572887', 'place_name': 'Commonwealth of The Bahamas', 'feature_class': 'A', 'feature_code': 'PCLI'}}
{'word': 'los', 'spans': [{'start': 0, 'end': 3}], 'country_predicted': 'MEX', 'country_conf': 0.7178229, 'geo': {'admin1': 'Jalisco', 'lat': '20.42278', 'lon': '-103.18306', 'country_code3': 'MEX', 'geonameid': '8860783', 'place_name': 'Los Freseros (Los Sabinos)', 'feature_class': 'P', 'feature_code': 'PPL'}}
{'word': 'los', 'spans': [{'start': 0, 'end': 3}], 'country_predicted': 'MEX', 'country_conf': 0.7178229, 'geo': {'admin1': 'Jalisco', 'lat': '20.42278', 'lon': '-103.18306', 'country_code3': 'MEX', 'geonameid': '8860783', 'place_name': 'Los Freseros (Los Sabinos)', 'feature_class': 'P', 'feature_code': 'PPL'}}
{'word': 'Hutto', 'spans': [{'start': 0, 'end': 5}], 'country_predicted': 'USA', 'country_conf': 0.9048774, 'geo': {'admin1': 'Texas', 'lat': '30.5427', 'lon': '-97.54667', 'country_code3': 'USA', 'geonameid': '4699626', 'place_name': 'Hutto', 'feature_class': 'P', 'feature_code': 'PPL'}}
{'word': 'Hutto', 'spans': [{'start': 0, 'end': 5}], 'country_predicted': 'USA', 'country_conf': 0.9048774, 'geo': {'admin1': 'Texas', 'lat': '30.5427', 'lon': '-97.54667', 'country_code3': 'USA', 'geonameid': '4699626', 'place_name': 'Hutto', 'feature_class': 'P', 'feature_code': 'PPL'}}
{'word': 'Hutto', 'spans': [{'start': 0, 'end': 5}], 'country_predicted': 'USA', 'country_conf': 0.9048774, 'geo': {'admin1': 'Texas', 'lat': '30.5427', 'lon': '-97.54667', 'country_code3': 'USA', 'geonameid': '4699626', 'place_name': 'Hutto', 'feature_class': 'P', 'feature_code': 'PPL'}}
{'word': 'Mayfield', 'spans': [{'start': 0, 'end': 8}], 'country_predicted': 'GBR', 'country_conf': 0.28365934}
{'word': 'Bahamas', 'spans': [{'start': 0, 'end': 7}], 'country_predicted': 'BHS', 'country_conf': 0.9516948, 'geo': {'admin1': 'NA', 'lat': '25.04082', 'lon': '-77.37122', 'country_code3': 'BHS', 'geonameid': '3572887', 'place_name': 'Commonwealth of The Bahamas', 'feature_class': 'A', 'feature_code': 'PCLI'}}
{'word': 'Michigan', 'spans': [{'start': 0, 'end': 8}], 'country_predicted': 'USA', 'country_conf': 0.9634983, 'geo': {'admin1': 'Michigan', 'lat': '44.25029', 'lon': '-85.50033', 'country_code3': 'USA', 'geonameid': '5001836', 'place_name': 'Michigan', 'feature_class': 'A', 'feature_code': 'ADM1'}}
{'word': 'Mayfield', 'spans': [{'start': 0, 'end': 8}], 'country_predicted': 'GBR', 'country_conf': 0.28365934}
{'word': 'Wisconsin', 'spans': [{'start': 0, 'end': 9}], 'country_predicted': 'USA', 'country_conf': 0.9634983, 'geo': {'admin1': 'Wisconsin', 'lat': '44.50024', 'lon': '-90.00041', 'country_code3': 'USA', 'geonameid': '5279468', 'place_name': 'Wisconsin', 'feature_class': 'A', 'feature_code': 'ADM1'}}
{'word': 'Ontario', 'spans': [{'start': 0, 'end': 7}], 'country_predicted': 'CAN', 'country_conf': 0.87992215, 'geo': {'admin1': 'Ontario', 'lat': '49.25014', 'lon': '-84.49983', 'country_code3': 'CAN', 'geonameid': '6093943', 'place_name': 'Ontario', 'feature_class': 'A', 'feature_code': 'ADM1'}}
{'word': 'Bahamas', 'spans': [{'start': 0, 'end': 7}], 'country_predicted': 'BHS', 'country_conf': 0.9516948, 'geo': {'admin1': 'NA', 'lat': '25.04082', 'lon': '-77.37122', 'country_code3': 'BHS', 'geonameid': '3572887', 'place_name': 'Commonwealth of The Bahamas', 'feature_class': 'A', 'feature_code': 'PCLI'}}
{'word': 'Michigan', 'spans': [{'start': 0, 'end': 8}], 'country_predicted': 'USA', 'country_conf': 0.9634983, 'geo': {'admin1': 'Michigan', 'lat': '44.25029', 'lon': '-85.50033', 'country_code3': 'USA', 'geonameid': '5001836', 'place_name': 'Michigan', 'feature_class': 'A', 'feature_code': 'ADM1'}}
{'word': 'Bahamas', 'spans': [{'start': 0, 'end': 7}], 'country_predicted': 'BHS', 'country_conf': 0.9516948, 'geo': {'admin1': 'NA', 'lat': '25.04082', 'lon': '-77.37122', 'country_code3': 'BHS', 'geonameid': '3572887', 'place_name': 'Commonwealth of The Bahamas', 'feature_class': 'A', 'feature_code': 'PCLI'}}
{'word': 'Michigan', 'spans': [{'start': 0, 'end': 8}], 'country_predicted': 'USA', 'country_conf': 0.9634983, 'geo': {'admin1': 'Michigan', 'lat': '44.25029', 'lon': '-85.50033', 'country_code3': 'USA', 'geonameid': '5001836', 'place_name': 'Michigan', 'feature_class': 'A', 'feature_code': 'ADM1'}}
{'word': 'Bahamas', 'spans': [{'start': 0, 'end': 7}], 'country_predicted': 'BHS', 'country_conf': 0.9516948, 'geo': {'admin1': 'NA', 'lat': '25.04082', 'lon': '-77.37122', 'country_code3': 'BHS', 'geonameid': '3572887', 'place_name': 'Commonwealth of The Bahamas', 'feature_class': 'A', 'feature_code': 'PCLI'}}
{'word': 'Bahamas', 'spans': [{'start': 0, 'end': 7}], 'country_predicted': 'BHS', 'country_conf': 0.9516948, 'geo': {'admin1': 'NA', 'lat': '25.04082', 'lon': '-77.37122', 'country_code3': 'BHS', 'geonameid': '3572887', 'place_name': 'Commonwealth of The Bahamas', 'feature_class': 'A', 'feature_code': 'PCLI'}}
{'word': 'Bahamas', 'spans': [{'start': 0, 'end': 7}], 'country_predicted': 'BHS', 'country_conf': 0.9516948, 'geo': {'admin1': 'NA', 'lat': '25.04082', 'lon': '-77.37122', 'country_code3': 'BHS', 'geonameid': '3572887', 'place_name': 'Commonwealth of The Bahamas', 'feature_class': 'A', 'feature_code': 'PCLI'}}
{'word': 'Bahamas', 'spans': [{'start': 0, 'end': 7}], 'country_predicted': 'BHS', 'country_conf': 0.9516948, 'geo': {'admin1': 'NA', 'lat': '25.04082', 'lon': '-77.37122', 'country_code3': 'BHS', 'geonameid': '3572887', 'place_name': 'Commonwealth of The Bahamas', 'feature_class': 'A', 'feature_code': 'PCLI'}}
{'word': 'Eleuthera', 'spans': [{'start': 0, 'end': 9}], 'country_predicted': 'BHS', 'country_conf': 0.28868946}
{'word': 'Bahamas', 'spans': [{'start': 0, 'end': 7}], 'country_predicted': 'BHS', 'country_conf': 0.9516948, 'geo': {'admin1': 'NA', 'lat': '25.04082', 'lon': '-77.37122', 'country_code3': 'BHS', 'geonameid': '3572887', 'place_name': 'Commonwealth of The Bahamas', 'feature_class': 'A', 'feature_code': 'PCLI'}}
{'word': 'Eleuthera', 'spans': [{'start': 0, 'end': 9}], 'country_predicted': 'BHS', 'country_conf': 0.28868946}
{'word': 'Bahamas', 'spans': [{'start': 0, 'end': 7}], 'country_predicted': 'BHS', 'country_conf': 0.9516948, 'geo': {'admin1': 'NA', 'lat': '25.04082', 'lon': '-77.37122', 'country_code3': 'BHS', 'geonameid': '3572887', 'place_name': 'Commonwealth of The Bahamas', 'feature_class': 'A', 'feature_code': 'PCLI'}}
{'word': 'Eleuthera', 'spans': [{'start': 0, 'end': 9}], 'country_predicted': 'BHS', 'country_conf': 0.28868946}
{'word': 'Eleuthera', 'spans': [{'start': 0, 'end': 9}], 'country_predicted': 'BHS', 'country_conf': 0.28868946}
{'word': 'Eleuthera', 'spans': [{'start': 0, 'end': 9}], 'country_predicted': 'BHS', 'country_conf': 0.28868946}
{'word': 'Massachusetts', 'spans': [{'start': 0, 'end': 13}], 'country_predicted': 'USA', 'country_conf': 0.9516948, 'geo': {'admin1': 'Massachusetts', 'lat': '42.36565', 'lon': '-71.10832', 'country_code3': 'USA', 'geonameid': '6254926', 'place_name': 'Massachusetts', 'feature_class': 'A', 'feature_code': 'ADM1'}}
{'word': 'Nassau', 'spans': [{'start': 0, 'end': 6}], 'country_predicted': 'BHS', 'country_conf': 0.957188, 'geo': {'admin1': 'New Providence', 'lat': '25.05823', 'lon': '-77.34306', 'country_code3': 'BHS', 'geonameid': '3571824', 'place_name': 'Nassau', 'feature_class': 'P', 'feature_code': 'PPLC'}}
{'word': 'Eleuthera', 'spans': [{'start': 0, 'end': 9}], 'country_predicted': 'BHS', 'country_conf': 0.28868946}
{'word': 'Eleuthera', 'spans': [{'start': 0, 'end': 9}], 'country_predicted': 'BHS', 'country_conf': 0.28868946}
{'word': 'Michigan', 'spans': [{'start': 0, 'end': 8}], 'country_predicted': 'USA', 'country_conf': 0.9634983, 'geo': {'admin1': 'Michigan', 'lat': '44.25029', 'lon': '-85.50033', 'country_code3': 'USA', 'geonameid': '5001836', 'place_name': 'Michigan', 'feature_class': 'A', 'feature_code': 'ADM1'}}
{'word': 'Eleuthera', 'spans': [{'start': 0, 'end': 9}], 'country_predicted': 'BHS', 'country_conf': 0.28868946}
{'word': 'Redlands', 'spans': [{'start': 0, 'end': 8}], 'country_predicted': 'USA', 'country_conf': 0.957188, 'geo': {'admin1': 'California', 'lat': '34.05557', 'lon': '-117.18254', 'country_code3': 'USA', 'geonameid': '5386754', 'place_name': 'Redlands', 'feature_class': 'P', 'feature_code': 'PPL'}}
{'word': 'California', 'spans': [{'start': 0, 'end': 10}], 'country_predicted': 'COL', 'country_conf': 0.19161284}
{'word': 'Carolina', 'spans': [{'start': 0, 'end': 8}], 'country_predicted': 'BRA', 'country_conf': 0.87992215, 'geo': {'admin1': 'Maranho', 'lat': '-7.50794', 'lon': '-47.14907', 'country_code3': 'BRA', 'geonameid': '6319678', 'place_name': 'Carolina', 'feature_class': 'A', 'feature_code': 'ADM2'}}
{'word': 'Chicago', 'spans': [{'start': 0, 'end': 7}], 'country_predicted': 'USA', 'country_conf': 0.9634983, 'geo': {'admin1': 'Illinois', 'lat': '41.85003', 'lon': '-87.65005', 'country_code3': 'USA', 'geonameid': '4887398', 'place_name': 'Chicago', 'feature_class': 'P', 'feature_code': 'PPLA2'}}
{'word': 'Illinois', 'spans': [{'start': 0, 'end': 8}], 'country_predicted': 'USA', 'country_conf': 0.9634983, 'geo': {'admin1': 'Illinois', 'lat': '40.00032', 'lon': '-89.25037', 'country_code3': 'USA', 'geonameid': '4896861', 'place_name': 'Illinois', 'feature_class': 'A', 'feature_code': 'ADM1'}}
{'word': 'Richmond', 'spans': [{'start': 0, 'end': 8}], 'country_predicted': 'CAN', 'country_conf': 0.87992215, 'geo': {'admin1': 'Ontario', 'lat': '43.87111', 'lon': '-79.43725', 'country_code3': 'CAN', 'geonameid': '6122091', 'place_name': 'Richmond Hill', 'feature_class': 'P', 'feature_code': 'PPL'}}
{'word': 'California', 'spans': [{'start': 0, 'end': 10}], 'country_predicted': 'COL', 'country_conf': 0.19161284}
{'word': 'Nassau', 'spans': [{'start': 0, 'end': 6}], 'country_predicted': 'BHS', 'country_conf': 0.957188, 'geo': {'admin1': 'New Providence', 'lat': '25.05823', 'lon': '-77.34306', 'country_code3': 'BHS', 'geonameid': '3571824', 'place_name': 'Nassau', 'feature_class': 'P', 'feature_code': 'PPLC'}}
{'word': 'mo', 'spans': [{'start': 1, 'end': 3}], 'country_predicted': 'SWE', 'country_conf': 0.28365934}
{'word': '&ldquo;1&rdquo', 'spans': [{'start': 0, 'end': 14}], 'country_predicted': 'CHN', 'country_conf': 0.24821267}
{'word': '100&percnt', 'spans': [{'start': 0, 'end': 10}], 'country_predicted': '', 'country_conf': 0}
{'word': '100&percnt', 'spans': [{'start': 0, 'end': 10}], 'country_predicted': '', 'country_conf': 0}
{'word': 'Woodbury', 'spans': [{'start': 0, 'end': 8}], 'country_predicted': 'USA', 'country_conf': 0.957188, 'geo': {'admin1': 'Minnesota', 'lat': '44.92386', 'lon': '-92.95938', 'country_code3': 'USA', 'geonameid': '5053358', 'place_name': 'Woodbury', 'feature_class': 'P', 'feature_code': 'PPL'}}
{'word': 'Windsor', 'spans': [{'start': 0, 'end': 7}], 'country_predicted': 'CAN', 'country_conf': 0.87992215, 'geo': {'admin1': 'Ontario', 'lat': '42.30008', 'lon': '-83.01654', 'country_code3': 'CAN', 'geonameid': '6182962', 'place_name': 'Windsor', 'feature_class': 'P', 'feature_code': 'PPL'}}
{'word': 'Eleuthera', 'spans': [{'start': 0, 'end': 9}], 'country_predicted': 'BHS', 'country_conf': 0.28868946}
{'word': 'Jamaica', 'spans': [{'start': 0, 'end': 7}], 'country_predicted': 'JAM', 'country_conf': 0.9516948, 'geo': {'admin1': 'NA', 'lat': '18.17717', 'lon': '-77.37122', 'country_code3': 'JAM', 'geonameid': '3489941', 'place_name': 'Jamaica', 'feature_class': 'T', 'feature_code': 'ISL'}}
{'word': 'Ovenbirds', 'spans': [{'start': 0, 'end': 9}], 'country_predicted': '', 'country_conf': 0}
{'word': 'Jamaica', 'spans': [{'start': 0, 'end': 7}], 'country_predicted': 'JAM', 'country_conf': 0.9516948, 'geo': {'admin1': 'NA', 'lat': '18.17717', 'lon': '-77.37122', 'country_code3': 'JAM', 'geonameid': '3489941', 'place_name': 'Jamaica', 'feature_class': 'T', 'feature_code': 'ISL'}}
{'word': 'Eleuthera', 'spans': [{'start': 0, 'end': 9}], 'country_predicted': 'BHS', 'country_conf': 0.28868946}
{'word': 'Jamaica', 'spans': [{'start': 0, 'end': 7}], 'country_predicted': 'JAM', 'country_conf': 0.9516948, 'geo': {'admin1': 'NA', 'lat': '18.17717', 'lon': '-77.37122', 'country_code3': 'JAM', 'geonameid': '3489941', 'place_name': 'Jamaica', 'feature_class': 'T', 'feature_code': 'ISL'}}
{'word': 'Eleuthera', 'spans': [{'start': 0, 'end': 9}], 'country_predicted': 'BHS', 'country_conf': 0.28868946}
{'word': 'Parrish', 'spans': [{'start': 0, 'end': 7}], 'country_predicted': 'USA', 'country_conf': 0.96374094, 'geo': {'admin1': 'Alabama', 'lat': '33.73066', 'lon': '-87.28445', 'country_code3': 'USA', 'geonameid': '4082250', 'place_name': 'Parrish', 'feature_class': 'P', 'feature_code': 'PPL'}}
{'word': 'Jamaica', 'spans': [{'start': 0, 'end': 7}], 'country_predicted': 'JAM', 'country_conf': 0.9516948, 'geo': {'admin1': 'NA', 'lat': '18.17717', 'lon': '-77.37122', 'country_code3': 'JAM', 'geonameid': '3489941', 'place_name': 'Jamaica', 'feature_class': 'T', 'feature_code': 'ISL'}}
{'word': 'Puerto', 'spans': [{'start': 0, 'end': 6}], 'country_predicted': 'GTM', 'country_conf': 0.87992215, 'geo': {'admin1': 'Izabal', 'lat': '15.72778', 'lon': '-88.59444', 'country_code3': 'GTM', 'geonameid': '3591062', 'place_name': 'Puerto Barrios', 'feature_class': 'P', 'feature_code': 'PPLA'}}
{'word': 'Puerto', 'spans': [{'start': 0, 'end': 6}], 'country_predicted': 'GTM', 'country_conf': 0.87992215, 'geo': {'admin1': 'Izabal', 'lat': '15.72778', 'lon': '-88.59444', 'country_code3': 'GTM', 'geonameid': '3591062', 'place_name': 'Puerto Barrios', 'feature_class': 'P', 'feature_code': 'PPLA'}}
{'word': '&ge;50&percnt', 'spans': [{'start': 0, 'end': 13}], 'country_predicted': 'CHN', 'country_conf': 0.24821267}
{'word': 'Michigan', 'spans': [{'start': 0, 'end': 8}], 'country_predicted': 'USA', 'country_conf': 0.9634983, 'geo': {'admin1': 'Michigan', 'lat': '44.25029', 'lon': '-85.50033', 'country_code3': 'USA', 'geonameid': '5001836', 'place_name': 'Michigan', 'feature_class': 'A', 'feature_code': 'ADM1'}}
{'word': 'Eleuthera', 'spans': [{'start': 0, 'end': 9}], 'country_predicted': 'BHS', 'country_conf': 0.28868946}
{'word': 'Eleuthera', 'spans': [{'start': 0, 'end': 9}], 'country_predicted': 'BHS', 'country_conf': 0.28868946}
{'word': 'Michigan', 'spans': [{'start': 0, 'end': 8}], 'country_predicted': 'USA', 'country_conf': 0.9634983, 'geo': {'admin1': 'Michigan', 'lat': '44.25029', 'lon': '-85.50033', 'country_code3': 'USA', 'geonameid': '5001836', 'place_name': 'Michigan', 'feature_class': 'A', 'feature_code': 'ADM1'}}
{'word': 'Eleuthera', 'spans': [{'start': 0, 'end': 9}], 'country_predicted': 'BHS', 'country_conf': 0.28868946}
{'word': 'Parrish', 'spans': [{'start': 0, 'end': 7}], 'country_predicted': 'USA', 'country_conf': 0.96374094, 'geo': {'admin1': 'Alabama', 'lat': '33.73066', 'lon': '-87.28445', 'country_code3': 'USA', 'geonameid': '4082250', 'place_name': 'Parrish', 'feature_class': 'P', 'feature_code': 'PPL'}}
{'word': 'Parrish', 'spans': [{'start': 0, 'end': 7}], 'country_predicted': 'USA', 'country_conf': 0.96374094, 'geo': {'admin1': 'Alabama', 'lat': '33.73066', 'lon': '-87.28445', 'country_code3': 'USA', 'geonameid': '4082250', 'place_name': 'Parrish', 'feature_class': 'P', 'feature_code': 'PPL'}}
{'word': 'Eleuthera', 'spans': [{'start': 0, 'end': 9}], 'country_predicted': 'BHS', 'country_conf': 0.28868946}
{'word': 'Eleuthera', 'spans': [{'start': 0, 'end': 9}], 'country_predicted': 'BHS', 'country_conf': 0.28868946}
{'word': 'Michigan', 'spans': [{'start': 0, 'end': 8}], 'country_predicted': 'USA', 'country_conf': 0.9634983, 'geo': {'admin1': 'Michigan', 'lat': '44.25029', 'lon': '-85.50033', 'country_code3': 'USA', 'geonameid': '5001836', 'place_name': 'Michigan', 'feature_class': 'A', 'feature_code': 'ADM1'}}
{'word': 'Mayfield', 'spans': [{'start': 0, 'end': 8}], 'country_predicted': 'GBR', 'country_conf': 0.28365934}
{'word': 'comm.', 'spans': [{'start': 0, 'end': 5}], 'country_predicted': 'ITA', 'country_conf': 0.87992215, 'geo': {'admin1': 'Lombardy', 'lat': '45.80998', 'lon': '9.08744', 'country_code3': 'ITA', 'geonameid': '6542055', 'place_name': 'Como', 'feature_class': 'A', 'feature_code': 'ADM3'}}
{'word': 'Michigan', 'spans': [{'start': 0, 'end': 8}], 'country_predicted': 'USA', 'country_conf': 0.9634983, 'geo': {'admin1': 'Michigan', 'lat': '44.25029', 'lon': '-85.50033', 'country_code3': 'USA', 'geonameid': '5001836', 'place_name': 'Michigan', 'feature_class': 'A', 'feature_code': 'ADM1'}}
{'word': 'Houston', 'spans': [{'start': 0, 'end': 7}], 'country_predicted': 'USA', 'country_conf': 0.957188, 'geo': {'admin1': 'Texas', 'lat': '29.76328', 'lon': '-95.36327', 'country_code3': 'USA', 'geonameid': '4699066', 'place_name': 'Houston', 'feature_class': 'P', 'feature_code': 'PPLA2'}}
{'word': 'Lima', 'spans': [{'start': 0, 'end': 4}], 'country_predicted': 'AUS', 'country_conf': 0.28365934}
{'word': 'Eleuthera', 'spans': [{'start': 0, 'end': 9}], 'country_predicted': 'BHS', 'country_conf': 0.28868946}
{'word': 'Bahamas', 'spans': [{'start': 0, 'end': 7}], 'country_predicted': 'BHS', 'country_conf': 0.9516948, 'geo': {'admin1': 'NA', 'lat': '25.04082', 'lon': '-77.37122', 'country_code3': 'BHS', 'geonameid': '3572887', 'place_name': 'Commonwealth of The Bahamas', 'feature_class': 'A', 'feature_code': 'PCLI'}}
{'word': 'Bahamas', 'spans': [{'start': 0, 'end': 7}], 'country_predicted': 'BHS', 'country_conf': 0.9516948, 'geo': {'admin1': 'NA', 'lat': '25.04082', 'lon': '-77.37122', 'country_code3': 'BHS', 'geonameid': '3572887', 'place_name': 'Commonwealth of The Bahamas', 'feature_class': 'A', 'feature_code': 'PCLI'}}
{'word': 'Bahamas', 'spans': [{'start': 0, 'end': 7}], 'country_predicted': 'BHS', 'country_conf': 0.9516948, 'geo': {'admin1': 'NA', 'lat': '25.04082', 'lon': '-77.37122', 'country_code3': 'BHS', 'geonameid': '3572887', 'place_name': 'Commonwealth of The Bahamas', 'feature_class': 'A', 'feature_code': 'PCLI'}}
{'word': 'Bahamas', 'spans': [{'start': 0, 'end': 7}], 'country_predicted': 'BHS', 'country_conf': 0.9516948, 'geo': {'admin1': 'NA', 'lat': '25.04082', 'lon': '-77.37122', 'country_code3': 'BHS', 'geonameid': '3572887', 'place_name': 'Commonwealth of The Bahamas', 'feature_class': 'A', 'feature_code': 'PCLI'}}
{'word': 'Mazerolle', 'spans': [{'start': 0, 'end': 9}], 'country_predicted': 'CAN', 'country_conf': 0.9528109, 'geo': {'admin1': 'New Brunswick', 'lat': '45.877', 'lon': '-66.84457', 'country_code3': 'CAN', 'geonameid': '6068471', 'place_name': 'Mazerolle Settlement', 'feature_class': 'P', 'feature_code': 'PPL'}}
{'word': 'Bahamas', 'spans': [{'start': 0, 'end': 7}], 'country_predicted': 'BHS', 'country_conf': 0.9516948, 'geo': {'admin1': 'NA', 'lat': '25.04082', 'lon': '-77.37122', 'country_code3': 'BHS', 'geonameid': '3572887', 'place_name': 'Commonwealth of The Bahamas', 'feature_class': 'A', 'feature_code': 'PCLI'}}
{'word': 'Costa', 'spans': [{'start': 0, 'end': 5}], 'country_predicted': 'ITA', 'country_conf': 0.9048774, 'geo': {'admin1': 'Piedmont', 'lat': '44.61758', 'lon': '8.63968', 'country_code3': 'ITA', 'geonameid': '8953792', 'place_name': 'Costa', 'feature_class': 'P', 'feature_code': 'PPL'}}
{'word': 'Rica', 'spans': [{'start': 0, 'end': 4}], 'country_predicted': 'COL', 'country_conf': 0.28365934}
{'word': 'Eleuthera', 'spans': [{'start': 0, 'end': 9}], 'country_predicted': 'BHS', 'country_conf': 0.28868946}
{'word': 'Bahamas', 'spans': [{'start': 0, 'end': 7}], 'country_predicted': 'BHS', 'country_conf': 0.9516948, 'geo': {'admin1': 'NA', 'lat': '25.04082', 'lon': '-77.37122', 'country_code3': 'BHS', 'geonameid': '3572887', 'place_name': 'Commonwealth of The Bahamas', 'feature_class': 'A', 'feature_code': 'PCLI'}}
{'word': 'Bahamas', 'spans': [{'start': 0, 'end': 7}], 'country_predicted': 'BHS', 'country_conf': 0.9516948, 'geo': {'admin1': 'NA', 'lat': '25.04082', 'lon': '-77.37122', 'country_code3': 'BHS', 'geonameid': '3572887', 'place_name': 'Commonwealth of The Bahamas', 'feature_class': 'A', 'feature_code': 'PCLI'}}
{'word': 'Eleuthera', 'spans': [{'start': 0, 'end': 9}], 'country_predicted': 'BHS', 'country_conf': 0.28868946}
{'word': 'Symonette', 'spans': [{'start': 0, 'end': 9}], 'country_predicted': 'BHS', 'country_conf': 0.9528109, 'geo': {'admin1': 'West Grand Bahama', 'lat': '26.65382', 'lon': '-78.64095', 'country_code3': 'BHS', 'geonameid': '3571335', 'place_name': 'Symonette Cay', 'feature_class': 'T', 'feature_code': 'RK'}}
{'word': 'Nassau', 'spans': [{'start': 0, 'end': 6}], 'country_predicted': 'BHS', 'country_conf': 0.957188, 'geo': {'admin1': 'New Providence', 'lat': '25.05823', 'lon': '-77.34306', 'country_code3': 'BHS', 'geonameid': '3571824', 'place_name': 'Nassau', 'feature_class': 'P', 'feature_code': 'PPLC'}}
{'word': 'Minnesota', 'spans': [{'start': 0, 'end': 9}], 'country_predicted': 'USA', 'country_conf': 0.9516948, 'geo': {'admin1': 'Minnesota', 'lat': '46.25024', 'lon': '-94.25055', 'country_code3': 'USA', 'geonameid': '5037779', 'place_name': 'Minnesota', 'feature_class': 'A', 'feature_code': 'ADM1'}}
{'word': 'Holland', 'spans': [{'start': 0, 'end': 7}], 'country_predicted': 'USA', 'country_conf': 0.87992215, 'geo': {'admin1': 'Michigan', 'lat': '42.78752', 'lon': '-86.10893', 'country_code3': 'USA', 'geonameid': '4996248', 'place_name': 'Holland', 'feature_class': 'P', 'feature_code': 'PPL'}}
{'word': 'Lodge', 'spans': [{'start': 0, 'end': 5}], 'country_predicted': 'JAM', 'country_conf': 0.28365934}
{'word': 'Puerto', 'spans': [{'start': 0, 'end': 6}], 'country_predicted': 'GTM', 'country_conf': 0.87992215, 'geo': {'admin1': 'Izabal', 'lat': '15.72778', 'lon': '-88.59444', 'country_code3': 'GTM', 'geonameid': '3591062', 'place_name': 'Puerto Barrios', 'feature_class': 'P', 'feature_code': 'PPLA'}}
{'word': 'Bahamas', 'spans': [{'start': 0, 'end': 7}], 'country_predicted': 'BHS', 'country_conf': 0.9516948, 'geo': {'admin1': 'NA', 'lat': '25.04082', 'lon': '-77.37122', 'country_code3': 'BHS', 'geonameid': '3572887', 'place_name': 'Commonwealth of The Bahamas', 'feature_class': 'A', 'feature_code': 'PCLI'}}
{'word': 'Bahamas', 'spans': [{'start': 0, 'end': 7}], 'country_predicted': 'BHS', 'country_conf': 0.9516948, 'geo': {'admin1': 'NA', 'lat': '25.04082', 'lon': '-77.37122', 'country_code3': 'BHS', 'geonameid': '3572887', 'place_name': 'Commonwealth of The Bahamas', 'feature_class': 'A', 'feature_code': 'PCLI'}}
{'word': 'Puerto', 'spans': [{'start': 0, 'end': 6}], 'country_predicted': 'GTM', 'country_conf': 0.87992215, 'geo': {'admin1': 'Izabal', 'lat': '15.72778', 'lon': '-88.59444', 'country_code3': 'GTM', 'geonameid': '3591062', 'place_name': 'Puerto Barrios', 'feature_class': 'P', 'feature_code': 'PPLA'}}
{'word': 'Rico', 'spans': [{'start': 0, 'end': 4}], 'country_predicted': 'COL', 'country_conf': 0.87992215, 'geo': {'admin1': 'Caquet', 'lat': '1.90999', 'lon': '-75.15931', 'country_code3': 'COL', 'geonameid': '3671348', 'place_name': 'Puerto Rico', 'feature_class': 'P', 'feature_code': 'PPLA2'}}
{'word': 'Ontario', 'spans': [{'start': 0, 'end': 7}], 'country_predicted': 'CAN', 'country_conf': 0.87992215, 'geo': {'admin1': 'Ontario', 'lat': '49.25014', 'lon': '-84.49983', 'country_code3': 'CAN', 'geonameid': '6093943', 'place_name': 'Ontario', 'feature_class': 'A', 'feature_code': 'ADM1'}}
{'word': 'synsacrum', 'spans': [{'start': 0, 'end': 9}], 'country_predicted': '', 'country_conf': 0}
{'word': 'Eleuthera', 'spans': [{'start': 0, 'end': 9}], 'country_predicted': 'BHS', 'country_conf': 0.28868946}
{'word': 'Bahamas', 'spans': [{'start': 0, 'end': 7}], 'country_predicted': 'BHS', 'country_conf': 0.9516948, 'geo': {'admin1': 'NA', 'lat': '25.04082', 'lon': '-77.37122', 'country_code3': 'BHS', 'geonameid': '3572887', 'place_name': 'Commonwealth of The Bahamas', 'feature_class': 'A', 'feature_code': 'PCLI'}}
{'word': 'Eleuthera', 'spans': [{'start': 0, 'end': 9}], 'country_predicted': 'BHS', 'country_conf': 0.28868946}
{'word': 'Bahamas', 'spans': [{'start': 0, 'end': 7}], 'country_predicted': 'BHS', 'country_conf': 0.9516948, 'geo': {'admin1': 'NA', 'lat': '25.04082', 'lon': '-77.37122', 'country_code3': 'BHS', 'geonameid': '3572887', 'place_name': 'Commonwealth of The Bahamas', 'feature_class': 'A', 'feature_code': 'PCLI'}}
{'word': 'Eleuthera', 'spans': [{'start': 0, 'end': 9}], 'country_predicted': 'BHS', 'country_conf': 0.28868946}
{'word': 'Bahamas', 'spans': [{'start': 0, 'end': 7}], 'country_predicted': 'BHS', 'country_conf': 0.9516948, 'geo': {'admin1': 'NA', 'lat': '25.04082', 'lon': '-77.37122', 'country_code3': 'BHS', 'geonameid': '3572887', 'place_name': 'Commonwealth of The Bahamas', 'feature_class': 'A', 'feature_code': 'PCLI'}}
{'word': 'Eleuthera', 'spans': [{'start': 0, 'end': 9}], 'country_predicted': 'BHS', 'country_conf': 0.28868946}
{'word': 'Bahamas', 'spans': [{'start': 0, 'end': 7}], 'country_predicted': 'BHS', 'country_conf': 0.9516948, 'geo': {'admin1': 'NA', 'lat': '25.04082', 'lon': '-77.37122', 'country_code3': 'BHS', 'geonameid': '3572887', 'place_name': 'Commonwealth of The Bahamas', 'feature_class': 'A', 'feature_code': 'PCLI'}}
{'word': 'Eleuthera', 'spans': [{'start': 0, 'end': 9}], 'country_predicted': 'BHS', 'country_conf': 0.28868946}
{'word': 'Bahamas', 'spans': [{'start': 0, 'end': 7}], 'country_predicted': 'BHS', 'country_conf': 0.9516948, 'geo': {'admin1': 'NA', 'lat': '25.04082', 'lon': '-77.37122', 'country_code3': 'BHS', 'geonameid': '3572887', 'place_name': 'Commonwealth of The Bahamas', 'feature_class': 'A', 'feature_code': 'PCLI'}}
{'word': 'Eleuthera', 'spans': [{'start': 0, 'end': 9}], 'country_predicted': 'BHS', 'country_conf': 0.28868946}
{'word': 'Bahamas', 'spans': [{'start': 0, 'end': 7}], 'country_predicted': 'BHS', 'country_conf': 0.9516948, 'geo': {'admin1': 'NA', 'lat': '25.04082', 'lon': '-77.37122', 'country_code3': 'BHS', 'geonameid': '3572887', 'place_name': 'Commonwealth of The Bahamas', 'feature_class': 'A', 'feature_code': 'PCLI'}}
{'word': 'Nassau', 'spans': [{'start': 0, 'end': 6}], 'country_predicted': 'BHS', 'country_conf': 0.957188, 'geo': {'admin1': 'New Providence', 'lat': '25.05823', 'lon': '-77.34306', 'country_code3': 'BHS', 'geonameid': '3571824', 'place_name': 'Nassau', 'feature_class': 'P', 'feature_code': 'PPLC'}}
{'word': 'Eleuthera', 'spans': [{'start': 0, 'end': 9}], 'country_predicted': 'BHS', 'country_conf': 0.28868946}
{'word': 'Eleuthera', 'spans': [{'start': 0, 'end': 9}], 'country_predicted': 'BHS', 'country_conf': 0.28868946}
{'word': 'Bahamas', 'spans': [{'start': 0, 'end': 7}], 'country_predicted': 'BHS', 'country_conf': 0.9516948, 'geo': {'admin1': 'NA', 'lat': '25.04082', 'lon': '-77.37122', 'country_code3': 'BHS', 'geonameid': '3572887', 'place_name': 'Commonwealth of The Bahamas', 'feature_class': 'A', 'feature_code': 'PCLI'}}
{'word': 'Eleuthera', 'spans': [{'start': 0, 'end': 9}], 'country_predicted': 'BHS', 'country_conf': 0.28868946}
{'word': 'Bahamas', 'spans': [{'start': 0, 'end': 7}], 'country_predicted': 'BHS', 'country_conf': 0.9516948, 'geo': {'admin1': 'NA', 'lat': '25.04082', 'lon': '-77.37122', 'country_code3': 'BHS', 'geonameid': '3572887', 'place_name': 'Commonwealth of The Bahamas', 'feature_class': 'A', 'feature_code': 'PCLI'}}
{'word': 'Eleuthera', 'spans': [{'start': 0, 'end': 9}], 'country_predicted': 'BHS', 'country_conf': 0.28868946}
{'word': 'Bahamas', 'spans': [{'start': 0, 'end': 7}], 'country_predicted': 'BHS', 'country_conf': 0.9516948, 'geo': {'admin1': 'NA', 'lat': '25.04082', 'lon': '-77.37122', 'country_code3': 'BHS', 'geonameid': '3572887', 'place_name': 'Commonwealth of The Bahamas', 'feature_class': 'A', 'feature_code': 'PCLI'}}
{'word': 'Eleuthera', 'spans': [{'start': 0, 'end': 9}], 'country_predicted': 'BHS', 'country_conf': 0.28868946}
{'word': 'Bahamas', 'spans': [{'start': 0, 'end': 7}], 'country_predicted': 'BHS', 'country_conf': 0.9516948, 'geo': {'admin1': 'NA', 'lat': '25.04082', 'lon': '-77.37122', 'country_code3': 'BHS', 'geonameid': '3572887', 'place_name': 'Commonwealth of The Bahamas', 'feature_class': 'A', 'feature_code': 'PCLI'}}
{'word': 'Eleuthera', 'spans': [{'start': 0, 'end': 9}], 'country_predicted': 'BHS', 'country_conf': 0.28868946}
{'word': 'Bahamas', 'spans': [{'start': 0, 'end': 7}], 'country_predicted': 'BHS', 'country_conf': 0.9516948, 'geo': {'admin1': 'NA', 'lat': '25.04082', 'lon': '-77.37122', 'country_code3': 'BHS', 'geonameid': '3572887', 'place_name': 'Commonwealth of The Bahamas', 'feature_class': 'A', 'feature_code': 'PCLI'}}
{'word': 'Eleuthera', 'spans': [{'start': 0, 'end': 9}], 'country_predicted': 'BHS', 'country_conf': 0.28868946}
{'word': 'Bahamas', 'spans': [{'start': 0, 'end': 7}], 'country_predicted': 'BHS', 'country_conf': 0.9516948, 'geo': {'admin1': 'NA', 'lat': '25.04082', 'lon': '-77.37122', 'country_code3': 'BHS', 'geonameid': '3572887', 'place_name': 'Commonwealth of The Bahamas', 'feature_class': 'A', 'feature_code': 'PCLI'}}
{'word': 'Eleuthera', 'spans': [{'start': 0, 'end': 9}], 'country_predicted': 'BHS', 'country_conf': 0.28868946}
{'word': 'Bahamas', 'spans': [{'start': 0, 'end': 7}], 'country_predicted': 'BHS', 'country_conf': 0.9516948, 'geo': {'admin1': 'NA', 'lat': '25.04082', 'lon': '-77.37122', 'country_code3': 'BHS', 'geonameid': '3572887', 'place_name': 'Commonwealth of The Bahamas', 'feature_class': 'A', 'feature_code': 'PCLI'}}
{'word': 'Eleuthera', 'spans': [{'start': 0, 'end': 9}], 'country_predicted': 'BHS', 'country_conf': 0.28868946}
{'word': 'Bahamas', 'spans': [{'start': 0, 'end': 7}], 'country_predicted': 'BHS', 'country_conf': 0.9516948, 'geo': {'admin1': 'NA', 'lat': '25.04082', 'lon': '-77.37122', 'country_code3': 'BHS', 'geonameid': '3572887', 'place_name': 'Commonwealth of The Bahamas', 'feature_class': 'A', 'feature_code': 'PCLI'}}
{'word': 'Eleuthera', 'spans': [{'start': 0, 'end': 9}], 'country_predicted': 'BHS', 'country_conf': 0.28868946}
{'word': 'Bahamas', 'spans': [{'start': 0, 'end': 7}], 'country_predicted': 'BHS', 'country_conf': 0.9516948, 'geo': {'admin1': 'NA', 'lat': '25.04082', 'lon': '-77.37122', 'country_code3': 'BHS', 'geonameid': '3572887', 'place_name': 'Commonwealth of The Bahamas', 'feature_class': 'A', 'feature_code': 'PCLI'}}
{'word': 'plots&rdquo', 'spans': [{'start': 0, 'end': 11}], 'country_predicted': '', 'country_conf': 0}
{'word': 'age&rdquo', 'spans': [{'start': 0, 'end': 9}], 'country_predicted': '', 'country_conf': 0}
{'word': 'Eleuthera', 'spans': [{'start': 0, 'end': 9}], 'country_predicted': 'BHS', 'country_conf': 0.28868946}
{'word': 'Bahamas', 'spans': [{'start': 0, 'end': 7}], 'country_predicted': 'BHS', 'country_conf': 0.9516948, 'geo': {'admin1': 'NA', 'lat': '25.04082', 'lon': '-77.37122', 'country_code3': 'BHS', 'geonameid': '3572887', 'place_name': 'Commonwealth of The Bahamas', 'feature_class': 'A', 'feature_code': 'PCLI'}}
{'word': 'Eleuthera', 'spans': [{'start': 0, 'end': 9}], 'country_predicted': 'BHS', 'country_conf': 0.28868946}
{'word': 'Bahamas', 'spans': [{'start': 0, 'end': 7}], 'country_predicted': 'BHS', 'country_conf': 0.9516948, 'geo': {'admin1': 'NA', 'lat': '25.04082', 'lon': '-77.37122', 'country_code3': 'BHS', 'geonameid': '3572887', 'place_name': 'Commonwealth of The Bahamas', 'feature_class': 'A', 'feature_code': 'PCLI'}}
{'word': 'Eleuthera', 'spans': [{'start': 0, 'end': 9}], 'country_predicted': 'BHS', 'country_conf': 0.28868946}
{'word': 'Bahamas', 'spans': [{'start': 0, 'end': 7}], 'country_predicted': 'BHS', 'country_conf': 0.9516948, 'geo': {'admin1': 'NA', 'lat': '25.04082', 'lon': '-77.37122', 'country_code3': 'BHS', 'geonameid': '3572887', 'place_name': 'Commonwealth of The Bahamas', 'feature_class': 'A', 'feature_code': 'PCLI'}}
{'word': 'Eleuthera', 'spans': [{'start': 0, 'end': 9}], 'country_predicted': 'BHS', 'country_conf': 0.28868946}
{'word': 'Bahamas', 'spans': [{'start': 0, 'end': 7}], 'country_predicted': 'BHS', 'country_conf': 0.9516948, 'geo': {'admin1': 'NA', 'lat': '25.04082', 'lon': '-77.37122', 'country_code3': 'BHS', 'geonameid': '3572887', 'place_name': 'Commonwealth of The Bahamas', 'feature_class': 'A', 'feature_code': 'PCLI'}}
{'word': 'Eleuthera', 'spans': [{'start': 0, 'end': 9}], 'country_predicted': 'BHS', 'country_conf': 0.28868946}
{'word': 'Bahamas', 'spans': [{'start': 0, 'end': 7}], 'country_predicted': 'BHS', 'country_conf': 0.9516948, 'geo': {'admin1': 'NA', 'lat': '25.04082', 'lon': '-77.37122', 'country_code3': 'BHS', 'geonameid': '3572887', 'place_name': 'Commonwealth of The Bahamas', 'feature_class': 'A', 'feature_code': 'PCLI'}}
{'word': 'Eleuthera', 'spans': [{'start': 0, 'end': 9}], 'country_predicted': 'BHS', 'country_conf': 0.28868946}
{'word': 'Bahamas', 'spans': [{'start': 0, 'end': 7}], 'country_predicted': 'BHS', 'country_conf': 0.9516948, 'geo': {'admin1': 'NA', 'lat': '25.04082', 'lon': '-77.37122', 'country_code3': 'BHS', 'geonameid': '3572887', 'place_name': 'Commonwealth of The Bahamas', 'feature_class': 'A', 'feature_code': 'PCLI'}}
{'word': 'Eleuthera', 'spans': [{'start': 0, 'end': 9}], 'country_predicted': 'BHS', 'country_conf': 0.28868946}
{'word': 'Bahamas', 'spans': [{'start': 0, 'end': 7}], 'country_predicted': 'BHS', 'country_conf': 0.9516948, 'geo': {'admin1': 'NA', 'lat': '25.04082', 'lon': '-77.37122', 'country_code3': 'BHS', 'geonameid': '3572887', 'place_name': 'Commonwealth of The Bahamas', 'feature_class': 'A', 'feature_code': 'PCLI'}}
{'word': 'Eleuthera', 'spans': [{'start': 0, 'end': 9}], 'country_predicted': 'BHS', 'country_conf': 0.28868946}
{'word': 'Bahamas', 'spans': [{'start': 0, 'end': 7}], 'country_predicted': 'BHS', 'country_conf': 0.9516948, 'geo': {'admin1': 'NA', 'lat': '25.04082', 'lon': '-77.37122', 'country_code3': 'BHS', 'geonameid': '3572887', 'place_name': 'Commonwealth of The Bahamas', 'feature_class': 'A', 'feature_code': 'PCLI'}}
{'word': 'Eleuthera', 'spans': [{'start': 0, 'end': 9}], 'country_predicted': 'BHS', 'country_conf': 0.28868946}
{'word': 'Bahamas', 'spans': [{'start': 0, 'end': 7}], 'country_predicted': 'BHS', 'country_conf': 0.9516948, 'geo': {'admin1': 'NA', 'lat': '25.04082', 'lon': '-77.37122', 'country_code3': 'BHS', 'geonameid': '3572887', 'place_name': 'Commonwealth of The Bahamas', 'feature_class': 'A', 'feature_code': 'PCLI'}}
{'word': 'Eleuthera', 'spans': [{'start': 0, 'end': 9}], 'country_predicted': 'BHS', 'country_conf': 0.28868946}
{'word': 'Bahamas', 'spans': [{'start': 0, 'end': 7}], 'country_predicted': 'BHS', 'country_conf': 0.9516948, 'geo': {'admin1': 'NA', 'lat': '25.04082', 'lon': '-77.37122', 'country_code3': 'BHS', 'geonameid': '3572887', 'place_name': 'Commonwealth of The Bahamas', 'feature_class': 'A', 'feature_code': 'PCLI'}}
{'word': 'Eleuthera', 'spans': [{'start': 0, 'end': 9}], 'country_predicted': 'BHS', 'country_conf': 0.28868946}
{'word': 'Bahamas', 'spans': [{'start': 0, 'end': 7}], 'country_predicted': 'BHS', 'country_conf': 0.9516948, 'geo': {'admin1': 'NA', 'lat': '25.04082', 'lon': '-77.37122', 'country_code3': 'BHS', 'geonameid': '3572887', 'place_name': 'Commonwealth of The Bahamas', 'feature_class': 'A', 'feature_code': 'PCLI'}}
