{'word': 'Passeri', 'spans': [{'start': 0, 'end': 7}], 'country_predicted': 'ITA', 'country_conf': 0.9528109, 'geo': {'admin1': 'Abruzzo', 'lat': '42.24324', 'lon': '13.9333', 'country_code3': 'ITA', 'geonameid': '3165453', 'place_name': "Torre de' Passeri", 'feature_class': 'P', 'feature_code': 'PPLA3'}}
{'word': 'Panama', 'spans': [{'start': 0, 'end': 6}], 'country_predicted': 'PAN', 'country_conf': 0.9516948, 'geo': {'admin1': 'NA', 'lat': '9', 'lon': '-80', 'country_code3': 'PAN', 'geonameid': '3703430', 'place_name': 'Republic of Panama', 'feature_class': 'A', 'feature_code': 'PCLI'}}
{'word': 'America', 'spans': [{'start': 0, 'end': 7}], 'country_predicted': 'USA', 'country_conf': 0.9516948, 'geo': {'admin1': 'Wyoming', 'lat': '41.54357', 'lon': '-109.85903', 'country_code3': 'USA', 'geonameid': '5830444', 'place_name': 'Little America', 'feature_class': 'P', 'feature_code': 'PPL'}}
{'word': 'Andes', 'spans': [{'start': 0, 'end': 5}], 'country_predicted': 'COL', 'country_conf': 0.87992215, 'geo': {'admin1': 'Antioquia', 'lat': '5.66974', 'lon': '-75.89905', 'country_code3': 'COL', 'geonameid': '3689900', 'place_name': 'Andes', 'feature_class': 'A', 'feature_code': 'ADM2'}}
{'word': 'avifaunas', 'spans': [{'start': 0, 'end': 9}], 'country_predicted': 'NLD', 'country_conf': 0.9528109, 'geo': {'admin1': 'South Holland', 'lat': '52.13952', 'lon': '4.64903', 'country_code3': 'NLD', 'geonameid': '9794256', 'place_name': 'Vogelpark Avifauna', 'feature_class': 'S', 'feature_code': 'ZOO'}}
{'word': 'America', 'spans': [{'start': 0, 'end': 7}], 'country_predicted': 'USA', 'country_conf': 0.9516948, 'geo': {'admin1': 'Wyoming', 'lat': '41.54357', 'lon': '-109.85903', 'country_code3': 'USA', 'geonameid': '5830444', 'place_name': 'Little America', 'feature_class': 'P', 'feature_code': 'PPL'}}
{'word': 'America', 'spans': [{'start': 0, 'end': 7}], 'country_predicted': 'USA', 'country_conf': 0.9516948, 'geo': {'admin1': 'Wyoming', 'lat': '41.54357', 'lon': '-109.85903', 'country_code3': 'USA', 'geonameid': '5830444', 'place_name': 'Little America', 'feature_class': 'P', 'feature_code': 'PPL'}}
{'word': 'America', 'spans': [{'start': 0, 'end': 7}], 'country_predicted': 'USA', 'country_conf': 0.9516948, 'geo': {'admin1': 'Wyoming', 'lat': '41.54357', 'lon': '-109.85903', 'country_code3': 'USA', 'geonameid': '5830444', 'place_name': 'Little America', 'feature_class': 'P', 'feature_code': 'PPL'}}
{'word': 'Panama', 'spans': [{'start': 0, 'end': 6}], 'country_predicted': 'PAN', 'country_conf': 0.9516948, 'geo': {'admin1': 'NA', 'lat': '9', 'lon': '-80', 'country_code3': 'PAN', 'geonameid': '3703430', 'place_name': 'Republic of Panama', 'feature_class': 'A', 'feature_code': 'PCLI'}}
{'word': 'los', 'spans': [{'start': 0, 'end': 3}], 'country_predicted': 'MEX', 'country_conf': 0.7178229, 'geo': {'admin1': 'Jalisco', 'lat': '20.42278', 'lon': '-103.18306', 'country_code3': 'MEX', 'geonameid': '8860783', 'place_name': 'Los Freseros (Los Sabinos)', 'feature_class': 'P', 'feature_code': 'PPL'}}
{'word': 'los', 'spans': [{'start': 0, 'end': 3}], 'country_predicted': 'MEX', 'country_conf': 0.7178229, 'geo': {'admin1': 'Jalisco', 'lat': '20.42278', 'lon': '-103.18306', 'country_code3': 'MEX', 'geonameid': '8860783', 'place_name': 'Los Freseros (Los Sabinos)', 'feature_class': 'P', 'feature_code': 'PPL'}}
{'word': 'los', 'spans': [{'start': 0, 'end': 3}], 'country_predicted': 'MEX', 'country_conf': 0.7178229, 'geo': {'admin1': 'Jalisco', 'lat': '20.42278', 'lon': '-103.18306', 'country_code3': 'MEX', 'geonameid': '8860783', 'place_name': 'Los Freseros (Los Sabinos)', 'feature_class': 'P', 'feature_code': 'PPL'}}
{'word': 'los', 'spans': [{'start': 0, 'end': 3}], 'country_predicted': 'MEX', 'country_conf': 0.7178229, 'geo': {'admin1': 'Jalisco', 'lat': '20.42278', 'lon': '-103.18306', 'country_code3': 'MEX', 'geonameid': '8860783', 'place_name': 'Los Freseros (Los Sabinos)', 'feature_class': 'P', 'feature_code': 'PPL'}}
{'word': 'generaba', 'spans': [{'start': 0, 'end': 8}], 'country_predicted': 'ITA', 'country_conf': 0.5714737}
{'word': 'los', 'spans': [{'start': 0, 'end': 3}], 'country_predicted': 'MEX', 'country_conf': 0.7178229, 'geo': {'admin1': 'Jalisco', 'lat': '20.42278', 'lon': '-103.18306', 'country_code3': 'MEX', 'geonameid': '8860783', 'place_name': 'Los Freseros (Los Sabinos)', 'feature_class': 'P', 'feature_code': 'PPL'}}
{'word': 'Norte', 'spans': [{'start': 0, 'end': 5}], 'country_predicted': 'ESP', 'country_conf': 0.28365934}
{'word': 'Desde', 'spans': [{'start': 0, 'end': 5}], 'country_predicted': 'AZE', 'country_conf': 0.28365934}
{'word': 'los', 'spans': [{'start': 0, 'end': 3}], 'country_predicted': 'MEX', 'country_conf': 0.7178229, 'geo': {'admin1': 'Jalisco', 'lat': '20.42278', 'lon': '-103.18306', 'country_code3': 'MEX', 'geonameid': '8860783', 'place_name': 'Los Freseros (Los Sabinos)', 'feature_class': 'P', 'feature_code': 'PPL'}}
{'word': 'presentamos', 'spans': [{'start': 0, 'end': 11}], 'country_predicted': 'NIU', 'country_conf': 0.24821267}
{'word': 'los', 'spans': [{'start': 0, 'end': 3}], 'country_predicted': 'MEX', 'country_conf': 0.7178229, 'geo': {'admin1': 'Jalisco', 'lat': '20.42278', 'lon': '-103.18306', 'country_code3': 'MEX', 'geonameid': '8860783', 'place_name': 'Los Freseros (Los Sabinos)', 'feature_class': 'P', 'feature_code': 'PPL'}}
{'word': 'organismos', 'spans': [{'start': 0, 'end': 10}], 'country_predicted': '', 'country_conf': 0}
{'word': 'Norte', 'spans': [{'start': 0, 'end': 5}], 'country_predicted': 'ESP', 'country_conf': 0.28365934}
{'word': 'norte', 'spans': [{'start': 0, 'end': 5}], 'country_predicted': 'ESP', 'country_conf': 0.28365934}
{'word': 'los', 'spans': [{'start': 0, 'end': 3}], 'country_predicted': 'MEX', 'country_conf': 0.7178229, 'geo': {'admin1': 'Jalisco', 'lat': '20.42278', 'lon': '-103.18306', 'country_code3': 'MEX', 'geonameid': '8860783', 'place_name': 'Los Freseros (Los Sabinos)', 'feature_class': 'P', 'feature_code': 'PPL'}}
{'word': 'Mayr', 'spans': [{'start': 0, 'end': 4}], 'country_predicted': 'ARM', 'country_conf': 0.28868946}
{'word': 'America', 'spans': [{'start': 0, 'end': 7}], 'country_predicted': 'USA', 'country_conf': 0.9516948, 'geo': {'admin1': 'Wyoming', 'lat': '41.54357', 'lon': '-109.85903', 'country_code3': 'USA', 'geonameid': '5830444', 'place_name': 'Little America', 'feature_class': 'P', 'feature_code': 'PPL'}}
{'word': 'America', 'spans': [{'start': 0, 'end': 7}], 'country_predicted': 'USA', 'country_conf': 0.9516948, 'geo': {'admin1': 'Wyoming', 'lat': '41.54357', 'lon': '-109.85903', 'country_code3': 'USA', 'geonameid': '5830444', 'place_name': 'Little America', 'feature_class': 'P', 'feature_code': 'PPL'}}
{'word': 'Panama', 'spans': [{'start': 0, 'end': 6}], 'country_predicted': 'PAN', 'country_conf': 0.9516948, 'geo': {'admin1': 'NA', 'lat': '9', 'lon': '-80', 'country_code3': 'PAN', 'geonameid': '3703430', 'place_name': 'Republic of Panama', 'feature_class': 'A', 'feature_code': 'PCLI'}}
{'word': 'America', 'spans': [{'start': 0, 'end': 7}], 'country_predicted': 'USA', 'country_conf': 0.9516948, 'geo': {'admin1': 'Wyoming', 'lat': '41.54357', 'lon': '-109.85903', 'country_code3': 'USA', 'geonameid': '5830444', 'place_name': 'Little America', 'feature_class': 'P', 'feature_code': 'PPL'}}
{'word': 'America', 'spans': [{'start': 0, 'end': 7}], 'country_predicted': 'USA', 'country_conf': 0.9516948, 'geo': {'admin1': 'Wyoming', 'lat': '41.54357', 'lon': '-109.85903', 'country_code3': 'USA', 'geonameid': '5830444', 'place_name': 'Little America', 'feature_class': 'P', 'feature_code': 'PPL'}}
{'word': 'Mayr', 'spans': [{'start': 0, 'end': 4}], 'country_predicted': 'ARM', 'country_conf': 0.28868946}
{'word': 'Bininda-Emonds', 'spans': [{'start': 0, 'end': 14}], 'country_predicted': 'GBR', 'country_conf': 0.24821267}
{'word': 'Bininda-Emonds', 'spans': [{'start': 0, 'end': 14}], 'country_predicted': 'GBR', 'country_conf': 0.24821267}
{'word': 'oscines&mdash;comprises', 'spans': [{'start': 0, 'end': 23}], 'country_predicted': '', 'country_conf': 0}
{'word': 'Andes', 'spans': [{'start': 0, 'end': 5}], 'country_predicted': 'COL', 'country_conf': 0.87992215, 'geo': {'admin1': 'Antioquia', 'lat': '5.66974', 'lon': '-75.89905', 'country_code3': 'COL', 'geonameid': '3689900', 'place_name': 'Andes', 'feature_class': 'A', 'feature_code': 'ADM2'}}
{'word': 'America', 'spans': [{'start': 0, 'end': 7}], 'country_predicted': 'USA', 'country_conf': 0.9516948, 'geo': {'admin1': 'Wyoming', 'lat': '41.54357', 'lon': '-109.85903', 'country_code3': 'USA', 'geonameid': '5830444', 'place_name': 'Little America', 'feature_class': 'P', 'feature_code': 'PPL'}}
{'word': 'Antilles', 'spans': [{'start': 0, 'end': 8}], 'country_predicted': 'NA', 'country_conf': 0.28365934}
{'word': 'America', 'spans': [{'start': 0, 'end': 7}], 'country_predicted': 'USA', 'country_conf': 0.9516948, 'geo': {'admin1': 'Wyoming', 'lat': '41.54357', 'lon': '-109.85903', 'country_code3': 'USA', 'geonameid': '5830444', 'place_name': 'Little America', 'feature_class': 'P', 'feature_code': 'PPL'}}
{'word': 'Eurasia', 'spans': [{'start': 0, 'end': 7}], 'country_predicted': 'RUS', 'country_conf': 0.28868946}
{'word': 'America', 'spans': [{'start': 0, 'end': 7}], 'country_predicted': 'USA', 'country_conf': 0.9516948, 'geo': {'admin1': 'Wyoming', 'lat': '41.54357', 'lon': '-109.85903', 'country_code3': 'USA', 'geonameid': '5830444', 'place_name': 'Little America', 'feature_class': 'P', 'feature_code': 'PPL'}}
{'word': 'America', 'spans': [{'start': 0, 'end': 7}], 'country_predicted': 'USA', 'country_conf': 0.9516948, 'geo': {'admin1': 'Wyoming', 'lat': '41.54357', 'lon': '-109.85903', 'country_code3': 'USA', 'geonameid': '5830444', 'place_name': 'Little America', 'feature_class': 'P', 'feature_code': 'PPL'}}
{'word': 'Panama', 'spans': [{'start': 0, 'end': 6}], 'country_predicted': 'PAN', 'country_conf': 0.9516948, 'geo': {'admin1': 'NA', 'lat': '9', 'lon': '-80', 'country_code3': 'PAN', 'geonameid': '3703430', 'place_name': 'Republic of Panama', 'feature_class': 'A', 'feature_code': 'PCLI'}}
{'word': 'Trinidad', 'spans': [{'start': 0, 'end': 8}], 'country_predicted': 'CUB', 'country_conf': 0.87992215, 'geo': {'admin1': 'Sancti Spritus', 'lat': '21.80224', 'lon': '-79.98467', 'country_code3': 'CUB', 'geonameid': '3534915', 'place_name': 'Trinidad', 'feature_class': 'P', 'feature_code': 'PPLA2'}}
{'word': 'Tobago', 'spans': [{'start': 0, 'end': 6}], 'country_predicted': 'TTO', 'country_conf': 0.957188, 'geo': {'admin1': 'NA', 'lat': '11', 'lon': '-61', 'country_code3': 'TTO', 'geonameid': '3573591', 'place_name': 'Republic of Trinidad and Tobago', 'feature_class': 'A', 'feature_code': 'PCLI'}}
{'word': 'Panama', 'spans': [{'start': 0, 'end': 6}], 'country_predicted': 'PAN', 'country_conf': 0.9516948, 'geo': {'admin1': 'NA', 'lat': '9', 'lon': '-80', 'country_code3': 'PAN', 'geonameid': '3703430', 'place_name': 'Republic of Panama', 'feature_class': 'A', 'feature_code': 'PCLI'}}
{'word': 'Antilles', 'spans': [{'start': 0, 'end': 8}], 'country_predicted': 'NA', 'country_conf': 0.28365934}
{'word': 'America', 'spans': [{'start': 0, 'end': 7}], 'country_predicted': 'USA', 'country_conf': 0.9516948, 'geo': {'admin1': 'Wyoming', 'lat': '41.54357', 'lon': '-109.85903', 'country_code3': 'USA', 'geonameid': '5830444', 'place_name': 'Little America', 'feature_class': 'P', 'feature_code': 'PPL'}}
{'word': '&ge;73&percnt', 'spans': [{'start': 0, 'end': 13}], 'country_predicted': 'CHN', 'country_conf': 0.24821267}
{'word': 'America', 'spans': [{'start': 0, 'end': 7}], 'country_predicted': 'USA', 'country_conf': 0.9516948, 'geo': {'admin1': 'Wyoming', 'lat': '41.54357', 'lon': '-109.85903', 'country_code3': 'USA', 'geonameid': '5830444', 'place_name': 'Little America', 'feature_class': 'P', 'feature_code': 'PPL'}}
{'word': 'America', 'spans': [{'start': 0, 'end': 7}], 'country_predicted': 'USA', 'country_conf': 0.9516948, 'geo': {'admin1': 'Wyoming', 'lat': '41.54357', 'lon': '-109.85903', 'country_code3': 'USA', 'geonameid': '5830444', 'place_name': 'Little America', 'feature_class': 'P', 'feature_code': 'PPL'}}
{'word': 'America', 'spans': [{'start': 0, 'end': 7}], 'country_predicted': 'USA', 'country_conf': 0.9516948, 'geo': {'admin1': 'Wyoming', 'lat': '41.54357', 'lon': '-109.85903', 'country_code3': 'USA', 'geonameid': '5830444', 'place_name': 'Little America', 'feature_class': 'P', 'feature_code': 'PPL'}}
{'word': 'America', 'spans': [{'start': 0, 'end': 7}], 'country_predicted': 'USA', 'country_conf': 0.9516948, 'geo': {'admin1': 'Wyoming', 'lat': '41.54357', 'lon': '-109.85903', 'country_code3': 'USA', 'geonameid': '5830444', 'place_name': 'Little America', 'feature_class': 'P', 'feature_code': 'PPL'}}
{'word': 'America', 'spans': [{'start': 0, 'end': 7}], 'country_predicted': 'USA', 'country_conf': 0.9516948, 'geo': {'admin1': 'Wyoming', 'lat': '41.54357', 'lon': '-109.85903', 'country_code3': 'USA', 'geonameid': '5830444', 'place_name': 'Little America', 'feature_class': 'P', 'feature_code': 'PPL'}}
{'word': 'America', 'spans': [{'start': 0, 'end': 7}], 'country_predicted': 'USA', 'country_conf': 0.9516948, 'geo': {'admin1': 'Wyoming', 'lat': '41.54357', 'lon': '-109.85903', 'country_code3': 'USA', 'geonameid': '5830444', 'place_name': 'Little America', 'feature_class': 'P', 'feature_code': 'PPL'}}
{'word': 'America', 'spans': [{'start': 0, 'end': 7}], 'country_predicted': 'USA', 'country_conf': 0.9516948, 'geo': {'admin1': 'Wyoming', 'lat': '41.54357', 'lon': '-109.85903', 'country_code3': 'USA', 'geonameid': '5830444', 'place_name': 'Little America', 'feature_class': 'P', 'feature_code': 'PPL'}}
{'word': 'America', 'spans': [{'start': 0, 'end': 7}], 'country_predicted': 'USA', 'country_conf': 0.9516948, 'geo': {'admin1': 'Wyoming', 'lat': '41.54357', 'lon': '-109.85903', 'country_code3': 'USA', 'geonameid': '5830444', 'place_name': 'Little America', 'feature_class': 'P', 'feature_code': 'PPL'}}
{'word': 'America', 'spans': [{'start': 0, 'end': 7}], 'country_predicted': 'USA', 'country_conf': 0.9516948, 'geo': {'admin1': 'Wyoming', 'lat': '41.54357', 'lon': '-109.85903', 'country_code3': 'USA', 'geonameid': '5830444', 'place_name': 'Little America', 'feature_class': 'P', 'feature_code': 'PPL'}}
{'word': 'Bininda-Emonds', 'spans': [{'start': 0, 'end': 14}], 'country_predicted': 'GBR', 'country_conf': 0.24821267}
{'word': 'al.', 'spans': [{'start': 0, 'end': 3}], 'country_predicted': 'IRQ', 'country_conf': 0.28365934}
{'word': 'Australia', 'spans': [{'start': 0, 'end': 9}], 'country_predicted': 'AUS', 'country_conf': 0.9516948, 'geo': {'admin1': 'NA', 'lat': '-25', 'lon': '135', 'country_code3': 'AUS', 'geonameid': '2077456', 'place_name': 'Commonwealth of Australia', 'feature_class': 'A', 'feature_code': 'PCLI'}}
{'word': 'Tasmania', 'spans': [{'start': 0, 'end': 8}], 'country_predicted': 'AUS', 'country_conf': 0.957188, 'geo': {'admin1': 'Tasmania', 'lat': '-42', 'lon': '147', 'country_code3': 'AUS', 'geonameid': '2147291', 'place_name': 'State of Tasmania', 'feature_class': 'A', 'feature_code': 'ADM1'}}
{'word': 'Guinea', 'spans': [{'start': 0, 'end': 6}], 'country_predicted': 'GIN', 'country_conf': 0.68758196, 'geo': {'admin1': 'NA', 'lat': '10.83333', 'lon': '-10.66667', 'country_code3': 'GIN', 'geonameid': '2420477', 'place_name': 'Republic of Guinea', 'feature_class': 'A', 'feature_code': 'PCLI'}}
{'word': 'Eurasia', 'spans': [{'start': 0, 'end': 7}], 'country_predicted': 'RUS', 'country_conf': 0.28868946}
{'word': 'America', 'spans': [{'start': 0, 'end': 7}], 'country_predicted': 'USA', 'country_conf': 0.9516948, 'geo': {'admin1': 'Wyoming', 'lat': '41.54357', 'lon': '-109.85903', 'country_code3': 'USA', 'geonameid': '5830444', 'place_name': 'Little America', 'feature_class': 'P', 'feature_code': 'PPL'}}
{'word': 'America', 'spans': [{'start': 0, 'end': 7}], 'country_predicted': 'USA', 'country_conf': 0.9516948, 'geo': {'admin1': 'Wyoming', 'lat': '41.54357', 'lon': '-109.85903', 'country_code3': 'USA', 'geonameid': '5830444', 'place_name': 'Little America', 'feature_class': 'P', 'feature_code': 'PPL'}}
{'word': 'America', 'spans': [{'start': 0, 'end': 7}], 'country_predicted': 'USA', 'country_conf': 0.9516948, 'geo': {'admin1': 'Wyoming', 'lat': '41.54357', 'lon': '-109.85903', 'country_code3': 'USA', 'geonameid': '5830444', 'place_name': 'Little America', 'feature_class': 'P', 'feature_code': 'PPL'}}
{'word': 'America', 'spans': [{'start': 0, 'end': 7}], 'country_predicted': 'USA', 'country_conf': 0.9516948, 'geo': {'admin1': 'Wyoming', 'lat': '41.54357', 'lon': '-109.85903', 'country_code3': 'USA', 'geonameid': '5830444', 'place_name': 'Little America', 'feature_class': 'P', 'feature_code': 'PPL'}}
{'word': 'America', 'spans': [{'start': 0, 'end': 7}], 'country_predicted': 'USA', 'country_conf': 0.9516948, 'geo': {'admin1': 'Wyoming', 'lat': '41.54357', 'lon': '-109.85903', 'country_code3': 'USA', 'geonameid': '5830444', 'place_name': 'Little America', 'feature_class': 'P', 'feature_code': 'PPL'}}
{'word': 'Panama', 'spans': [{'start': 0, 'end': 6}], 'country_predicted': 'PAN', 'country_conf': 0.9516948, 'geo': {'admin1': 'NA', 'lat': '9', 'lon': '-80', 'country_code3': 'PAN', 'geonameid': '3703430', 'place_name': 'Republic of Panama', 'feature_class': 'A', 'feature_code': 'PCLI'}}
{'word': 'America', 'spans': [{'start': 0, 'end': 7}], 'country_predicted': 'USA', 'country_conf': 0.9516948, 'geo': {'admin1': 'Wyoming', 'lat': '41.54357', 'lon': '-109.85903', 'country_code3': 'USA', 'geonameid': '5830444', 'place_name': 'Little America', 'feature_class': 'P', 'feature_code': 'PPL'}}
{'word': 'America', 'spans': [{'start': 0, 'end': 7}], 'country_predicted': 'USA', 'country_conf': 0.9516948, 'geo': {'admin1': 'Wyoming', 'lat': '41.54357', 'lon': '-109.85903', 'country_code3': 'USA', 'geonameid': '5830444', 'place_name': 'Little America', 'feature_class': 'P', 'feature_code': 'PPL'}}
{'word': 'Panama', 'spans': [{'start': 0, 'end': 6}], 'country_predicted': 'PAN', 'country_conf': 0.9516948, 'geo': {'admin1': 'NA', 'lat': '9', 'lon': '-80', 'country_code3': 'PAN', 'geonameid': '3703430', 'place_name': 'Republic of Panama', 'feature_class': 'A', 'feature_code': 'PCLI'}}
{'word': 'America', 'spans': [{'start': 0, 'end': 7}], 'country_predicted': 'USA', 'country_conf': 0.9516948, 'geo': {'admin1': 'Wyoming', 'lat': '41.54357', 'lon': '-109.85903', 'country_code3': 'USA', 'geonameid': '5830444', 'place_name': 'Little America', 'feature_class': 'P', 'feature_code': 'PPL'}}
{'word': 'America', 'spans': [{'start': 0, 'end': 7}], 'country_predicted': 'USA', 'country_conf': 0.9516948, 'geo': {'admin1': 'Wyoming', 'lat': '41.54357', 'lon': '-109.85903', 'country_code3': 'USA', 'geonameid': '5830444', 'place_name': 'Little America', 'feature_class': 'P', 'feature_code': 'PPL'}}
{'word': 'Antilles', 'spans': [{'start': 0, 'end': 8}], 'country_predicted': 'NA', 'country_conf': 0.28365934}
{'word': 'America', 'spans': [{'start': 0, 'end': 7}], 'country_predicted': 'USA', 'country_conf': 0.9516948, 'geo': {'admin1': 'Wyoming', 'lat': '41.54357', 'lon': '-109.85903', 'country_code3': 'USA', 'geonameid': '5830444', 'place_name': 'Little America', 'feature_class': 'P', 'feature_code': 'PPL'}}
{'word': 'Mayr', 'spans': [{'start': 0, 'end': 4}], 'country_predicted': 'ARM', 'country_conf': 0.28868946}
{'word': 'Philadelphia', 'spans': [{'start': 0, 'end': 12}], 'country_predicted': 'USA', 'country_conf': 0.957188, 'geo': {'admin1': 'Pennsylvania', 'lat': '39.95233', 'lon': '-75.16379', 'country_code3': 'USA', 'geonameid': '4560349', 'place_name': 'Philadelphia', 'feature_class': 'P', 'feature_code': 'PPLA2'}}
{'word': 'Minnesota', 'spans': [{'start': 0, 'end': 9}], 'country_predicted': 'USA', 'country_conf': 0.9516948, 'geo': {'admin1': 'Minnesota', 'lat': '46.25024', 'lon': '-94.25055', 'country_code3': 'USA', 'geonameid': '5037779', 'place_name': 'Minnesota', 'feature_class': 'A', 'feature_code': 'ADM1'}}
{'word': 'Valle', 'spans': [{'start': 0, 'end': 5}], 'country_predicted': 'ITA', 'country_conf': 0.9048774, 'geo': {'admin1': 'Campania', 'lat': '40.66415', 'lon': '15.2958', 'country_code3': 'ITA', 'geonameid': '8952764', 'place_name': 'Valle', 'feature_class': 'P', 'feature_code': 'PPL'}}
{'word': 'Colombia', 'spans': [{'start': 0, 'end': 8}], 'country_predicted': 'COL', 'country_conf': 0.9516948, 'geo': {'admin1': 'Atlntico', 'lat': '11.00854', 'lon': '-74.90887', 'country_code3': 'COL', 'geonameid': '3671506', 'place_name': 'Puerto Colombia', 'feature_class': 'A', 'feature_code': 'ADM2'}}
{'word': 'Humboldt', 'spans': [{'start': 0, 'end': 8}], 'country_predicted': 'USA', 'country_conf': 0.957188, 'geo': {'admin1': 'Nevada', 'lat': '41.40684', 'lon': '-118.11197', 'country_code3': 'USA', 'geonameid': '5704974', 'place_name': 'Humboldt County', 'feature_class': 'A', 'feature_code': 'ADM2'}}
{'word': 'Colombia', 'spans': [{'start': 0, 'end': 8}], 'country_predicted': 'COL', 'country_conf': 0.9516948, 'geo': {'admin1': 'Atlntico', 'lat': '11.00854', 'lon': '-74.90887', 'country_code3': 'COL', 'geonameid': '3671506', 'place_name': 'Puerto Colombia', 'feature_class': 'A', 'feature_code': 'ADM2'}}
{'word': 'Kansas', 'spans': [{'start': 0, 'end': 6}], 'country_predicted': 'USA', 'country_conf': 0.9634983, 'geo': {'admin1': 'Kansas', 'lat': '38.50029', 'lon': '-98.50063', 'country_code3': 'USA', 'geonameid': '4273857', 'place_name': 'Kansas', 'feature_class': 'A', 'feature_code': 'ADM1'}}
{'word': 'Angeles', 'spans': [{'start': 0, 'end': 7}], 'country_predicted': 'CRI', 'country_conf': 0.87992215, 'geo': {'admin1': 'Heredia', 'lat': '10.06003', 'lon': '-84.08743', 'country_code3': 'CRI', 'geonameid': '11239497', 'place_name': 'ngeles', 'feature_class': 'A', 'feature_code': 'ADM3'}}
{'word': 'Louisiana', 'spans': [{'start': 0, 'end': 9}], 'country_predicted': 'USA', 'country_conf': 0.9634983, 'geo': {'admin1': 'Louisiana', 'lat': '31.00047', 'lon': '-92.0004', 'country_code3': 'USA', 'geonameid': '4331987', 'place_name': 'Louisiana', 'feature_class': 'A', 'feature_code': 'ADM1'}}
{'word': 'Museo', 'spans': [{'start': 0, 'end': 5}], 'country_predicted': 'KOR', 'country_conf': 0.28868946}
{'word': 'Nevada', 'spans': [{'start': 0, 'end': 6}], 'country_predicted': 'USA', 'country_conf': 0.9634983, 'geo': {'admin1': 'Nevada', 'lat': '39.25021', 'lon': '-116.75119', 'country_code3': 'USA', 'geonameid': '5509151', 'place_name': 'Nevada', 'feature_class': 'A', 'feature_code': 'ADM1'}}
{'word': 'Vegas', 'spans': [{'start': 0, 'end': 5}], 'country_predicted': 'HND', 'country_conf': 0.28365934}
{'word': 'Barrick', 'spans': [{'start': 0, 'end': 7}], 'country_predicted': 'USA', 'country_conf': 0.9048774, 'geo': {'admin1': 'Iowa', 'lat': '42.64748', 'lon': '-92.46324', 'country_code3': 'USA', 'geonameid': '4857473', 'place_name': 'Fort Barrick alias Fort John Historical Marker', 'feature_class': 'L', 'feature_code': 'PRK'}}
{'word': 'California', 'spans': [{'start': 0, 'end': 10}], 'country_predicted': 'COL', 'country_conf': 0.19161284}
{'word': 'Diego', 'spans': [{'start': 0, 'end': 5}], 'country_predicted': 'CRI', 'country_conf': 0.28365934}
{'word': 'Michigan', 'spans': [{'start': 0, 'end': 8}], 'country_predicted': 'USA', 'country_conf': 0.9634983, 'geo': {'admin1': 'Michigan', 'lat': '44.25029', 'lon': '-85.50033', 'country_code3': 'USA', 'geonameid': '5001836', 'place_name': 'Michigan', 'feature_class': 'A', 'feature_code': 'ADM1'}}
{'word': 'Washington', 'spans': [{'start': 0, 'end': 10}], 'country_predicted': 'USA', 'country_conf': 0.69099617, 'geo': {'admin1': 'Washington', 'lat': '47.50012', 'lon': '-120.50147', 'country_code3': 'USA', 'geonameid': '5815135', 'place_name': 'Washington', 'feature_class': 'A', 'feature_code': 'ADM1'}}
{'word': 'Copenhagen', 'spans': [{'start': 0, 'end': 10}], 'country_predicted': 'DNK', 'country_conf': 0.96374094, 'geo': {'admin1': 'Capital Region', 'lat': '55.67594', 'lon': '12.56553', 'country_code3': 'DNK', 'geonameid': '2618425', 'place_name': 'Copenhagen', 'feature_class': 'P', 'feature_code': 'PPLC'}}
{'word': 'Minnesota', 'spans': [{'start': 0, 'end': 9}], 'country_predicted': 'USA', 'country_conf': 0.9516948, 'geo': {'admin1': 'Minnesota', 'lat': '46.25024', 'lon': '-94.25055', 'country_code3': 'USA', 'geonameid': '5037779', 'place_name': 'Minnesota', 'feature_class': 'A', 'feature_code': 'ADM1'}}
