{'word': 'Louisiana', 'spans': [{'start': 0, 'end': 9}], 'country_predicted': 'USA', 'country_conf': 0.9634983, 'geo': {'admin1': 'Louisiana', 'lat': '31.00047', 'lon': '-92.0004', 'country_code3': 'USA', 'geonameid': '4331987', 'place_name': 'Louisiana', 'feature_class': 'A', 'feature_code': 'ADM1'}}
{'word': 'Guinea', 'spans': [{'start': 0, 'end': 6}], 'country_predicted': 'GIN', 'country_conf': 0.68758196, 'geo': {'admin1': 'NA', 'lat': '10.83333', 'lon': '-10.66667', 'country_code3': 'GIN', 'geonameid': '2420477', 'place_name': 'Republic of Guinea', 'feature_class': 'A', 'feature_code': 'PCLI'}}
{'word': 'Hawaii', 'spans': [{'start': 0, 'end': 6}], 'country_predicted': 'USA', 'country_conf': 0.9634983, 'geo': {'admin1': 'Hawaii', 'lat': '20.78785', 'lon': '-156.38612', 'country_code3': 'USA', 'geonameid': '5855797', 'place_name': 'Hawaii', 'feature_class': 'A', 'feature_code': 'ADM1'}}
{'word': 'Costa', 'spans': [{'start': 0, 'end': 5}], 'country_predicted': 'ITA', 'country_conf': 0.9048774, 'geo': {'admin1': 'Piedmont', 'lat': '44.61758', 'lon': '8.63968', 'country_code3': 'ITA', 'geonameid': '8953792', 'place_name': 'Costa', 'feature_class': 'P', 'feature_code': 'PPL'}}
{'word': 'Rica', 'spans': [{'start': 0, 'end': 4}], 'country_predicted': 'COL', 'country_conf': 0.28365934}
{'word': 'Brazil', 'spans': [{'start': 0, 'end': 6}], 'country_predicted': 'BRA', 'country_conf': 0.9516948, 'geo': {'admin1': 'NA', 'lat': '-10', 'lon': '-55', 'country_code3': 'BRA', 'geonameid': '3469034', 'place_name': 'Federative Republic of Brazil', 'feature_class': 'A', 'feature_code': 'PCLI'}}
{'word': 'Louisiana', 'spans': [{'start': 0, 'end': 9}], 'country_predicted': 'USA', 'country_conf': 0.9634983, 'geo': {'admin1': 'Louisiana', 'lat': '31.00047', 'lon': '-92.0004', 'country_code3': 'USA', 'geonameid': '4331987', 'place_name': 'Louisiana', 'feature_class': 'A', 'feature_code': 'ADM1'}}
{'word': 'mustelina', 'spans': [{'start': 0, 'end': 9}], 'country_predicted': '', 'country_conf': 0}
{'word': 'Saskatchewan', 'spans': [{'start': 0, 'end': 12}], 'country_predicted': 'CAN', 'country_conf': 0.9048774, 'geo': {'admin1': 'Saskatchewan', 'lat': '54.0001', 'lon': '-106.00099', 'country_code3': 'CAN', 'geonameid': '6141242', 'place_name': 'Saskatchewan', 'feature_class': 'A', 'feature_code': 'ADM1'}}
{'word': 'Canada', 'spans': [{'start': 0, 'end': 6}], 'country_predicted': 'CAN', 'country_conf': 0.9516948, 'geo': {'admin1': 'NA', 'lat': '60.10867', 'lon': '-113.64258', 'country_code3': 'CAN', 'geonameid': '6251999', 'place_name': 'Canada', 'feature_class': 'A', 'feature_code': 'PCLI'}}
