{'word': 'Missouri', 'spans': [{'start': 0, 'end': 8}], 'country_predicted': 'USA', 'country_conf': 0.9634983, 'geo': {'admin1': 'Missouri', 'lat': '38.25031', 'lon': '-92.50046', 'country_code3': 'USA', 'geonameid': '4398678', 'place_name': 'Missouri', 'feature_class': 'A', 'feature_code': 'ADM1'}}
{'word': 'Saskatchewan', 'spans': [{'start': 0, 'end': 12}], 'country_predicted': 'CAN', 'country_conf': 0.9048774, 'geo': {'admin1': 'Saskatchewan', 'lat': '54.0001', 'lon': '-106.00099', 'country_code3': 'CAN', 'geonameid': '6141242', 'place_name': 'Saskatchewan', 'feature_class': 'A', 'feature_code': 'ADM1'}}
{'word': 'Philopatry', 'spans': [{'start': 0, 'end': 10}], 'country_predicted': '', 'country_conf': 0}
{'word': 'Missouri', 'spans': [{'start': 0, 'end': 8}], 'country_predicted': 'USA', 'country_conf': 0.9634983, 'geo': {'admin1': 'Missouri', 'lat': '38.25031', 'lon': '-92.50046', 'country_code3': 'USA', 'geonameid': '4398678', 'place_name': 'Missouri', 'feature_class': 'A', 'feature_code': 'ADM1'}}
{'word': 'USA', 'spans': [{'start': 0, 'end': 3}], 'country_predicted': 'USA', 'country_conf': 0.9516948, 'geo': {'admin1': 'Louisiana', 'lat': '29.2605', 'lon': '-89.35478', 'country_code3': 'USA', 'geonameid': '4319780', 'place_name': 'Chevron USA Incorporated Seaplane Base', 'feature_class': 'S', 'feature_code': 'AIRP'}}
{'word': 'h&aacute;bitat', 'spans': [{'start': 0, 'end': 14}], 'country_predicted': '', 'country_conf': 0}
{'word': 'los', 'spans': [{'start': 0, 'end': 3}], 'country_predicted': 'MEX', 'country_conf': 0.7178229, 'geo': {'admin1': 'Jalisco', 'lat': '20.42278', 'lon': '-103.18306', 'country_code3': 'MEX', 'geonameid': '8860783', 'place_name': 'Los Freseros (Los Sabinos)', 'feature_class': 'P', 'feature_code': 'PPL'}}
{'word': 'Missouri', 'spans': [{'start': 0, 'end': 8}], 'country_predicted': 'USA', 'country_conf': 0.9634983, 'geo': {'admin1': 'Missouri', 'lat': '38.25031', 'lon': '-92.50046', 'country_code3': 'USA', 'geonameid': '4398678', 'place_name': 'Missouri', 'feature_class': 'A', 'feature_code': 'ADM1'}}
{'word': 'los', 'spans': [{'start': 0, 'end': 3}], 'country_predicted': 'MEX', 'country_conf': 0.7178229, 'geo': {'admin1': 'Jalisco', 'lat': '20.42278', 'lon': '-103.18306', 'country_code3': 'MEX', 'geonameid': '8860783', 'place_name': 'Los Freseros (Los Sabinos)', 'feature_class': 'P', 'feature_code': 'PPL'}}
{'word': 'los', 'spans': [{'start': 0, 'end': 3}], 'country_predicted': 'MEX', 'country_conf': 0.7178229, 'geo': {'admin1': 'Jalisco', 'lat': '20.42278', 'lon': '-103.18306', 'country_code3': 'MEX', 'geonameid': '8860783', 'place_name': 'Los Freseros (Los Sabinos)', 'feature_class': 'P', 'feature_code': 'PPL'}}
{'word': 'los', 'spans': [{'start': 0, 'end': 3}], 'country_predicted': 'MEX', 'country_conf': 0.7178229, 'geo': {'admin1': 'Jalisco', 'lat': '20.42278', 'lon': '-103.18306', 'country_code3': 'MEX', 'geonameid': '8860783', 'place_name': 'Los Freseros (Los Sabinos)', 'feature_class': 'P', 'feature_code': 'PPL'}}
{'word': 'los', 'spans': [{'start': 0, 'end': 3}], 'country_predicted': 'MEX', 'country_conf': 0.7178229, 'geo': {'admin1': 'Jalisco', 'lat': '20.42278', 'lon': '-103.18306', 'country_code3': 'MEX', 'geonameid': '8860783', 'place_name': 'Los Freseros (Los Sabinos)', 'feature_class': 'P', 'feature_code': 'PPL'}}
{'word': 'los', 'spans': [{'start': 0, 'end': 3}], 'country_predicted': 'MEX', 'country_conf': 0.7178229, 'geo': {'admin1': 'Jalisco', 'lat': '20.42278', 'lon': '-103.18306', 'country_code3': 'MEX', 'geonameid': '8860783', 'place_name': 'Los Freseros (Los Sabinos)', 'feature_class': 'P', 'feature_code': 'PPL'}}
{'word': 'los', 'spans': [{'start': 0, 'end': 3}], 'country_predicted': 'MEX', 'country_conf': 0.7178229, 'geo': {'admin1': 'Jalisco', 'lat': '20.42278', 'lon': '-103.18306', 'country_code3': 'MEX', 'geonameid': '8860783', 'place_name': 'Los Freseros (Los Sabinos)', 'feature_class': 'P', 'feature_code': 'PPL'}}
{'word': 'los', 'spans': [{'start': 0, 'end': 3}], 'country_predicted': 'MEX', 'country_conf': 0.7178229, 'geo': {'admin1': 'Jalisco', 'lat': '20.42278', 'lon': '-103.18306', 'country_code3': 'MEX', 'geonameid': '8860783', 'place_name': 'Los Freseros (Los Sabinos)', 'feature_class': 'P', 'feature_code': 'PPL'}}
{'word': 'Missouri', 'spans': [{'start': 0, 'end': 8}], 'country_predicted': 'USA', 'country_conf': 0.9634983, 'geo': {'admin1': 'Missouri', 'lat': '38.25031', 'lon': '-92.50046', 'country_code3': 'USA', 'geonameid': '4398678', 'place_name': 'Missouri', 'feature_class': 'A', 'feature_code': 'ADM1'}}
{'word': 'Missouri', 'spans': [{'start': 0, 'end': 8}], 'country_predicted': 'USA', 'country_conf': 0.9634983, 'geo': {'admin1': 'Missouri', 'lat': '38.25031', 'lon': '-92.50046', 'country_code3': 'USA', 'geonameid': '4398678', 'place_name': 'Missouri', 'feature_class': 'A', 'feature_code': 'ADM1'}}
{'word': 'Dakota', 'spans': [{'start': 0, 'end': 6}], 'country_predicted': 'USA', 'country_conf': 0.957188, 'geo': {'admin1': 'South Dakota', 'lat': '44.50026', 'lon': '-100.25069', 'country_code3': 'USA', 'geonameid': '5769223', 'place_name': 'South Dakota', 'feature_class': 'A', 'feature_code': 'ADM1'}}
{'word': '&ge;75&percnt', 'spans': [{'start': 0, 'end': 13}], 'country_predicted': 'CHN', 'country_conf': 0.24821267}
{'word': '18&percnt', 'spans': [{'start': 0, 'end': 9}], 'country_predicted': '', 'country_conf': 0}
{'word': 'Sunnyvale', 'spans': [{'start': 0, 'end': 9}], 'country_predicted': 'USA', 'country_conf': 0.957188, 'geo': {'admin1': 'California', 'lat': '37.36883', 'lon': '-122.03635', 'country_code3': 'USA', 'geonameid': '5400075', 'place_name': 'Sunnyvale', 'feature_class': 'P', 'feature_code': 'PPL'}}
{'word': 'NC', 'spans': [{'start': 0, 'end': 2}], 'country_predicted': 'IND', 'country_conf': 0.9048774, 'geo': {'admin1': 'Assam', 'lat': '27.29429', 'lon': '94.20387', 'country_code3': 'IND', 'geonameid': '9035240', 'place_name': 'Salikipara NC', 'feature_class': 'P', 'feature_code': 'PPL'}}
{'word': 'USA', 'spans': [{'start': 0, 'end': 3}], 'country_predicted': 'USA', 'country_conf': 0.9516948, 'geo': {'admin1': 'Louisiana', 'lat': '29.2605', 'lon': '-89.35478', 'country_code3': 'USA', 'geonameid': '4319780', 'place_name': 'Chevron USA Incorporated Seaplane Base', 'feature_class': 'S', 'feature_code': 'AIRP'}}
{'word': '18&percnt', 'spans': [{'start': 0, 'end': 9}], 'country_predicted': '', 'country_conf': 0}
{'word': 'Missouri', 'spans': [{'start': 0, 'end': 8}], 'country_predicted': 'USA', 'country_conf': 0.9634983, 'geo': {'admin1': 'Missouri', 'lat': '38.25031', 'lon': '-92.50046', 'country_code3': 'USA', 'geonameid': '4398678', 'place_name': 'Missouri', 'feature_class': 'A', 'feature_code': 'ADM1'}}
{'word': 'Missouri', 'spans': [{'start': 0, 'end': 8}], 'country_predicted': 'USA', 'country_conf': 0.9634983, 'geo': {'admin1': 'Missouri', 'lat': '38.25031', 'lon': '-92.50046', 'country_code3': 'USA', 'geonameid': '4398678', 'place_name': 'Missouri', 'feature_class': 'A', 'feature_code': 'ADM1'}}
{'word': 'Missouri', 'spans': [{'start': 0, 'end': 8}], 'country_predicted': 'USA', 'country_conf': 0.9634983, 'geo': {'admin1': 'Missouri', 'lat': '38.25031', 'lon': '-92.50046', 'country_code3': 'USA', 'geonameid': '4398678', 'place_name': 'Missouri', 'feature_class': 'A', 'feature_code': 'ADM1'}}
{'word': 'Missouri', 'spans': [{'start': 0, 'end': 8}], 'country_predicted': 'USA', 'country_conf': 0.9634983, 'geo': {'admin1': 'Missouri', 'lat': '38.25031', 'lon': '-92.50046', 'country_code3': 'USA', 'geonameid': '4398678', 'place_name': 'Missouri', 'feature_class': 'A', 'feature_code': 'ADM1'}}
{'word': 'Missouri', 'spans': [{'start': 0, 'end': 8}], 'country_predicted': 'USA', 'country_conf': 0.9634983, 'geo': {'admin1': 'Missouri', 'lat': '38.25031', 'lon': '-92.50046', 'country_code3': 'USA', 'geonameid': '4398678', 'place_name': 'Missouri', 'feature_class': 'A', 'feature_code': 'ADM1'}}
{'word': 'philopatry', 'spans': [{'start': 0, 'end': 10}], 'country_predicted': '', 'country_conf': 0}
{'word': 'place&rdquo', 'spans': [{'start': 0, 'end': 11}], 'country_predicted': '', 'country_conf': 0}
{'word': 'Houston', 'spans': [{'start': 0, 'end': 7}], 'country_predicted': 'USA', 'country_conf': 0.957188, 'geo': {'admin1': 'Texas', 'lat': '29.76328', 'lon': '-95.36327', 'country_code3': 'USA', 'geonameid': '4699066', 'place_name': 'Houston', 'feature_class': 'P', 'feature_code': 'PPLA2'}}
{'word': 'Missouri', 'spans': [{'start': 0, 'end': 8}], 'country_predicted': 'USA', 'country_conf': 0.9634983, 'geo': {'admin1': 'Missouri', 'lat': '38.25031', 'lon': '-92.50046', 'country_code3': 'USA', 'geonameid': '4398678', 'place_name': 'Missouri', 'feature_class': 'A', 'feature_code': 'ADM1'}}
{'word': 'Manitoba', 'spans': [{'start': 0, 'end': 8}], 'country_predicted': 'CAN', 'country_conf': 0.87992215, 'geo': {'admin1': 'Manitoba', 'lat': '55.00019', 'lon': '-97.00049', 'country_code3': 'CAN', 'geonameid': '6065171', 'place_name': 'Manitoba', 'feature_class': 'A', 'feature_code': 'ADM1'}}
{'word': 'Minnesota', 'spans': [{'start': 0, 'end': 9}], 'country_predicted': 'USA', 'country_conf': 0.9516948, 'geo': {'admin1': 'Minnesota', 'lat': '46.25024', 'lon': '-94.25055', 'country_code3': 'USA', 'geonameid': '5037779', 'place_name': 'Minnesota', 'feature_class': 'A', 'feature_code': 'ADM1'}}
{'word': 'Virginia', 'spans': [{'start': 0, 'end': 8}], 'country_predicted': 'HND', 'country_conf': 0.19161284}
{'word': 'Virginia', 'spans': [{'start': 0, 'end': 8}], 'country_predicted': 'HND', 'country_conf': 0.19161284}
