{'word': 'Ohio', 'spans': [{'start': 0, 'end': 4}], 'country_predicted': 'USA', 'country_conf': 0.9634983, 'geo': {'admin1': 'Ohio', 'lat': '40.25034', 'lon': '-83.00018', 'country_code3': 'USA', 'geonameid': '5165418', 'place_name': 'Ohio', 'feature_class': 'A', 'feature_code': 'ADM1'}}
{'word': 'Ohio', 'spans': [{'start': 0, 'end': 4}], 'country_predicted': 'USA', 'country_conf': 0.9634983, 'geo': {'admin1': 'Ohio', 'lat': '40.25034', 'lon': '-83.00018', 'country_code3': 'USA', 'geonameid': '5165418', 'place_name': 'Ohio', 'feature_class': 'A', 'feature_code': 'ADM1'}}
{'word': 'USA', 'spans': [{'start': 0, 'end': 3}], 'country_predicted': 'USA', 'country_conf': 0.9516948, 'geo': {'admin1': 'Louisiana', 'lat': '29.2605', 'lon': '-89.35478', 'country_code3': 'USA', 'geonameid': '4319780', 'place_name': 'Chevron USA Incorporated Seaplane Base', 'feature_class': 'S', 'feature_code': 'AIRP'}}
{'word': 'Canada', 'spans': [{'start': 0, 'end': 6}], 'country_predicted': 'CAN', 'country_conf': 0.9516948, 'geo': {'admin1': 'NA', 'lat': '60.10867', 'lon': '-113.64258', 'country_code3': 'CAN', 'geonameid': '6251999', 'place_name': 'Canada', 'feature_class': 'A', 'feature_code': 'PCLI'}}
{'word': 'Georgia', 'spans': [{'start': 0, 'end': 7}], 'country_predicted': 'GEO', 'country_conf': 0.9516948, 'geo': {'admin1': 'NA', 'lat': '41.99998', 'lon': '43.4999', 'country_code3': 'GEO', 'geonameid': '614540', 'place_name': 'Georgia', 'feature_class': 'A', 'feature_code': 'PCLI'}}
{'word': 'Georgia', 'spans': [{'start': 0, 'end': 7}], 'country_predicted': 'GEO', 'country_conf': 0.9516948, 'geo': {'admin1': 'NA', 'lat': '41.99998', 'lon': '43.4999', 'country_code3': 'GEO', 'geonameid': '614540', 'place_name': 'Georgia', 'feature_class': 'A', 'feature_code': 'PCLI'}}
{'word': 'Zealand', 'spans': [{'start': 0, 'end': 7}], 'country_predicted': 'NA', 'country_conf': 0.28365934}
{'word': 'Cahaba', 'spans': [{'start': 0, 'end': 6}], 'country_predicted': 'USA', 'country_conf': 0.9048774, 'geo': {'admin1': 'Alabama', 'lat': '33.464', 'lon': '-86.73193', 'country_code3': 'USA', 'geonameid': '4052964', 'place_name': 'Cahaba Heights', 'feature_class': 'P', 'feature_code': 'PPL'}}
{'word': 'Alabama', 'spans': [{'start': 0, 'end': 7}], 'country_predicted': 'USA', 'country_conf': 0.9634983, 'geo': {'admin1': 'Alabama', 'lat': '32.75041', 'lon': '-86.75026', 'country_code3': 'USA', 'geonameid': '4829764', 'place_name': 'Alabama', 'feature_class': 'A', 'feature_code': 'ADM1'}}
