{'word': 'Midwest', 'spans': [{'start': 0, 'end': 7}], 'country_predicted': 'USA', 'country_conf': 0.96374094, 'geo': {'admin1': 'NA', 'lat': '42.65982', 'lon': '-93.93863', 'country_code3': 'USA', 'geonameid': '11887750', 'place_name': 'Midwest', 'feature_class': 'L', 'feature_code': 'RGN'}}
{'word': 'Dakota', 'spans': [{'start': 0, 'end': 6}], 'country_predicted': 'USA', 'country_conf': 0.957188, 'geo': {'admin1': 'South Dakota', 'lat': '44.50026', 'lon': '-100.25069', 'country_code3': 'USA', 'geonameid': '5769223', 'place_name': 'South Dakota', 'feature_class': 'A', 'feature_code': 'ADM1'}}
{'word': 'Dakota', 'spans': [{'start': 0, 'end': 6}], 'country_predicted': 'USA', 'country_conf': 0.957188, 'geo': {'admin1': 'South Dakota', 'lat': '44.50026', 'lon': '-100.25069', 'country_code3': 'USA', 'geonameid': '5769223', 'place_name': 'South Dakota', 'feature_class': 'A', 'feature_code': 'ADM1'}}
{'word': 'Iowa', 'spans': [{'start': 0, 'end': 4}], 'country_predicted': 'USA', 'country_conf': 0.9634983, 'geo': {'admin1': 'Iowa', 'lat': '42.00027', 'lon': '-93.50049', 'country_code3': 'USA', 'geonameid': '4862182', 'place_name': 'Iowa', 'feature_class': 'A', 'feature_code': 'ADM1'}}
{'word': 'Savannah', 'spans': [{'start': 0, 'end': 8}], 'country_predicted': 'USA', 'country_conf': 0.87992215, 'geo': {'admin1': 'Georgia', 'lat': '32.08354', 'lon': '-81.09983', 'country_code3': 'USA', 'geonameid': '4221552', 'place_name': 'Savannah', 'feature_class': 'P', 'feature_code': 'PPLA2'}}
{'word': 'Chicago', 'spans': [{'start': 0, 'end': 7}], 'country_predicted': 'USA', 'country_conf': 0.9634983, 'geo': {'admin1': 'Illinois', 'lat': '41.85003', 'lon': '-87.65005', 'country_code3': 'USA', 'geonameid': '4887398', 'place_name': 'Chicago', 'feature_class': 'P', 'feature_code': 'PPLA2'}}
{'word': 'USA', 'spans': [{'start': 0, 'end': 3}], 'country_predicted': 'USA', 'country_conf': 0.9516948, 'geo': {'admin1': 'Louisiana', 'lat': '29.2605', 'lon': '-89.35478', 'country_code3': 'USA', 'geonameid': '4319780', 'place_name': 'Chevron USA Incorporated Seaplane Base', 'feature_class': 'S', 'feature_code': 'AIRP'}}
{'word': 'Illinois', 'spans': [{'start': 0, 'end': 8}], 'country_predicted': 'USA', 'country_conf': 0.9634983, 'geo': {'admin1': 'Illinois', 'lat': '40.00032', 'lon': '-89.25037', 'country_code3': 'USA', 'geonameid': '4896861', 'place_name': 'Illinois', 'feature_class': 'A', 'feature_code': 'ADM1'}}
{'word': 'los', 'spans': [{'start': 0, 'end': 3}], 'country_predicted': 'MEX', 'country_conf': 0.7178229, 'geo': {'admin1': 'Jalisco', 'lat': '20.42278', 'lon': '-103.18306', 'country_code3': 'MEX', 'geonameid': '8860783', 'place_name': 'Los Freseros (Los Sabinos)', 'feature_class': 'P', 'feature_code': 'PPL'}}
{'word': 'poco', 'spans': [{'start': 0, 'end': 4}], 'country_predicted': 'HTI', 'country_conf': 0.28868946}
{'word': 'h&aacute;bitat', 'spans': [{'start': 0, 'end': 14}], 'country_predicted': '', 'country_conf': 0}
{'word': 'h&aacute;bitat', 'spans': [{'start': 0, 'end': 14}], 'country_predicted': '', 'country_conf': 0}
{'word': 'Illinois', 'spans': [{'start': 0, 'end': 8}], 'country_predicted': 'USA', 'country_conf': 0.9634983, 'geo': {'admin1': 'Illinois', 'lat': '40.00032', 'lon': '-89.25037', 'country_code3': 'USA', 'geonameid': '4896861', 'place_name': 'Illinois', 'feature_class': 'A', 'feature_code': 'ADM1'}}
{'word': 'savanarum', 'spans': [{'start': 0, 'end': 9}], 'country_predicted': '', 'country_conf': 0}
{'word': 'los', 'spans': [{'start': 0, 'end': 3}], 'country_predicted': 'MEX', 'country_conf': 0.7178229, 'geo': {'admin1': 'Jalisco', 'lat': '20.42278', 'lon': '-103.18306', 'country_code3': 'MEX', 'geonameid': '8860783', 'place_name': 'Los Freseros (Los Sabinos)', 'feature_class': 'P', 'feature_code': 'PPL'}}
{'word': 'coespec&iacute;ficas', 'spans': [{'start': 0, 'end': 20}], 'country_predicted': '', 'country_conf': 0}
{'word': 'savanarum', 'spans': [{'start': 0, 'end': 9}], 'country_predicted': '', 'country_conf': 0}
{'word': 'los', 'spans': [{'start': 0, 'end': 3}], 'country_predicted': 'MEX', 'country_conf': 0.7178229, 'geo': {'admin1': 'Jalisco', 'lat': '20.42278', 'lon': '-103.18306', 'country_code3': 'MEX', 'geonameid': '8860783', 'place_name': 'Los Freseros (Los Sabinos)', 'feature_class': 'P', 'feature_code': 'PPL'}}
{'word': 'savanarum', 'spans': [{'start': 0, 'end': 9}], 'country_predicted': '', 'country_conf': 0}
{'word': 'los', 'spans': [{'start': 0, 'end': 3}], 'country_predicted': 'MEX', 'country_conf': 0.7178229, 'geo': {'admin1': 'Jalisco', 'lat': '20.42278', 'lon': '-103.18306', 'country_code3': 'MEX', 'geonameid': '8860783', 'place_name': 'Los Freseros (Los Sabinos)', 'feature_class': 'P', 'feature_code': 'PPL'}}
{'word': 'los', 'spans': [{'start': 0, 'end': 3}], 'country_predicted': 'MEX', 'country_conf': 0.7178229, 'geo': {'admin1': 'Jalisco', 'lat': '20.42278', 'lon': '-103.18306', 'country_code3': 'MEX', 'geonameid': '8860783', 'place_name': 'Los Freseros (Los Sabinos)', 'feature_class': 'P', 'feature_code': 'PPL'}}
{'word': 'h&aacute;bitat', 'spans': [{'start': 0, 'end': 14}], 'country_predicted': '', 'country_conf': 0}
{'word': 'America', 'spans': [{'start': 0, 'end': 7}], 'country_predicted': 'USA', 'country_conf': 0.9516948, 'geo': {'admin1': 'Wyoming', 'lat': '41.54357', 'lon': '-109.85903', 'country_code3': 'USA', 'geonameid': '5830444', 'place_name': 'Little America', 'feature_class': 'P', 'feature_code': 'PPL'}}
{'word': 'Lima', 'spans': [{'start': 0, 'end': 4}], 'country_predicted': 'AUS', 'country_conf': 0.28365934}
{'word': 'Lima', 'spans': [{'start': 0, 'end': 4}], 'country_predicted': 'AUS', 'country_conf': 0.28365934}
{'word': 'Illinois', 'spans': [{'start': 0, 'end': 8}], 'country_predicted': 'USA', 'country_conf': 0.9634983, 'geo': {'admin1': 'Illinois', 'lat': '40.00032', 'lon': '-89.25037', 'country_code3': 'USA', 'geonameid': '4896861', 'place_name': 'Illinois', 'feature_class': 'A', 'feature_code': 'ADM1'}}
{'word': 'Illinois', 'spans': [{'start': 0, 'end': 8}], 'country_predicted': 'USA', 'country_conf': 0.9634983, 'geo': {'admin1': 'Illinois', 'lat': '40.00032', 'lon': '-89.25037', 'country_code3': 'USA', 'geonameid': '4896861', 'place_name': 'Illinois', 'feature_class': 'A', 'feature_code': 'ADM1'}}
{'word': 'Illinois', 'spans': [{'start': 0, 'end': 8}], 'country_predicted': 'USA', 'country_conf': 0.9634983, 'geo': {'admin1': 'Illinois', 'lat': '40.00032', 'lon': '-89.25037', 'country_code3': 'USA', 'geonameid': '4896861', 'place_name': 'Illinois', 'feature_class': 'A', 'feature_code': 'ADM1'}}
{'word': 'Canada', 'spans': [{'start': 0, 'end': 6}], 'country_predicted': 'CAN', 'country_conf': 0.9516948, 'geo': {'admin1': 'NA', 'lat': '60.10867', 'lon': '-113.64258', 'country_code3': 'CAN', 'geonameid': '6251999', 'place_name': 'Canada', 'feature_class': 'A', 'feature_code': 'PCLI'}}
{'word': 'Illinois', 'spans': [{'start': 0, 'end': 8}], 'country_predicted': 'USA', 'country_conf': 0.9634983, 'geo': {'admin1': 'Illinois', 'lat': '40.00032', 'lon': '-89.25037', 'country_code3': 'USA', 'geonameid': '4896861', 'place_name': 'Illinois', 'feature_class': 'A', 'feature_code': 'ADM1'}}
{'word': 'Indiana', 'spans': [{'start': 0, 'end': 7}], 'country_predicted': 'USA', 'country_conf': 0.9634983, 'geo': {'admin1': 'Indiana', 'lat': '40.00032', 'lon': '-86.25027', 'country_code3': 'USA', 'geonameid': '4921868', 'place_name': 'Indiana', 'feature_class': 'A', 'feature_code': 'ADM1'}}
{'word': 'Lewiston', 'spans': [{'start': 0, 'end': 8}], 'country_predicted': 'USA', 'country_conf': 0.957188, 'geo': {'admin1': 'Maine', 'lat': '44.10035', 'lon': '-70.21478', 'country_code3': 'USA', 'geonameid': '4969398', 'place_name': 'Lewiston', 'feature_class': 'P', 'feature_code': 'PPL'}}
{'word': 'PA', 'spans': [{'start': 0, 'end': 2}], 'country_predicted': 'MLI', 'country_conf': 0.28868946}
{'word': 'USA', 'spans': [{'start': 0, 'end': 3}], 'country_predicted': 'USA', 'country_conf': 0.9516948, 'geo': {'admin1': 'Louisiana', 'lat': '29.2605', 'lon': '-89.35478', 'country_code3': 'USA', 'geonameid': '4319780', 'place_name': 'Chevron USA Incorporated Seaplane Base', 'feature_class': 'S', 'feature_code': 'AIRP'}}
{'word': 'Germany', 'spans': [{'start': 0, 'end': 7}], 'country_predicted': 'DEU', 'country_conf': 0.9516948, 'geo': {'admin1': 'NA', 'lat': '51.5', 'lon': '10.5', 'country_code3': 'DEU', 'geonameid': '2921044', 'place_name': 'Federal Republic of Germany', 'feature_class': 'A', 'feature_code': 'PCLI'}}
{'word': 'Lima', 'spans': [{'start': 0, 'end': 4}], 'country_predicted': 'AUS', 'country_conf': 0.28365934}
{'word': 'Illinois', 'spans': [{'start': 0, 'end': 8}], 'country_predicted': 'USA', 'country_conf': 0.9634983, 'geo': {'admin1': 'Illinois', 'lat': '40.00032', 'lon': '-89.25037', 'country_code3': 'USA', 'geonameid': '4896861', 'place_name': 'Illinois', 'feature_class': 'A', 'feature_code': 'ADM1'}}
{'word': 'Illinois', 'spans': [{'start': 0, 'end': 8}], 'country_predicted': 'USA', 'country_conf': 0.9634983, 'geo': {'admin1': 'Illinois', 'lat': '40.00032', 'lon': '-89.25037', 'country_code3': 'USA', 'geonameid': '4896861', 'place_name': 'Illinois', 'feature_class': 'A', 'feature_code': 'ADM1'}}
{'word': 'Illinois', 'spans': [{'start': 0, 'end': 8}], 'country_predicted': 'USA', 'country_conf': 0.9634983, 'geo': {'admin1': 'Illinois', 'lat': '40.00032', 'lon': '-89.25037', 'country_code3': 'USA', 'geonameid': '4896861', 'place_name': 'Illinois', 'feature_class': 'A', 'feature_code': 'ADM1'}}
