{'word': 'Kansas', 'spans': [{'start': 0, 'end': 6}], 'country_predicted': 'USA', 'country_conf': 0.9634983, 'geo': {'admin1': 'Kansas', 'lat': '38.50029', 'lon': '-98.50063', 'country_code3': 'USA', 'geonameid': '4273857', 'place_name': 'Kansas', 'feature_class': 'A', 'feature_code': 'ADM1'}}
{'word': 'Alberta', 'spans': [{'start': 0, 'end': 7}], 'country_predicted': 'CAN', 'country_conf': 0.87992215, 'geo': {'admin1': 'Alberta', 'lat': '52.28333', 'lon': '-117.469', 'country_code3': 'CAN', 'geonameid': '5883102', 'place_name': 'Alberta', 'feature_class': 'A', 'feature_code': 'ADM1'}}
{'word': 'California', 'spans': [{'start': 0, 'end': 10}], 'country_predicted': 'COL', 'country_conf': 0.19161284}
{'word': 'Berkeley', 'spans': [{'start': 0, 'end': 8}], 'country_predicted': 'USA', 'country_conf': 0.957188, 'geo': {'admin1': 'California', 'lat': '37.87159', 'lon': '-122.27275', 'country_code3': 'USA', 'geonameid': '5327684', 'place_name': 'Berkeley', 'feature_class': 'P', 'feature_code': 'PPL'}}
{'word': 'Kansas', 'spans': [{'start': 0, 'end': 6}], 'country_predicted': 'USA', 'country_conf': 0.9634983, 'geo': {'admin1': 'Kansas', 'lat': '38.50029', 'lon': '-98.50063', 'country_code3': 'USA', 'geonameid': '4273857', 'place_name': 'Kansas', 'feature_class': 'A', 'feature_code': 'ADM1'}}
{'word': 'Kansas', 'spans': [{'start': 0, 'end': 6}], 'country_predicted': 'USA', 'country_conf': 0.9634983, 'geo': {'admin1': 'Kansas', 'lat': '38.50029', 'lon': '-98.50063', 'country_code3': 'USA', 'geonameid': '4273857', 'place_name': 'Kansas', 'feature_class': 'A', 'feature_code': 'ADM1'}}
{'word': 'California', 'spans': [{'start': 0, 'end': 10}], 'country_predicted': 'COL', 'country_conf': 0.19161284}
{'word': 'Washington', 'spans': [{'start': 0, 'end': 10}], 'country_predicted': 'USA', 'country_conf': 0.69099617, 'geo': {'admin1': 'Washington', 'lat': '47.50012', 'lon': '-120.50147', 'country_code3': 'USA', 'geonameid': '5815135', 'place_name': 'Washington', 'feature_class': 'A', 'feature_code': 'ADM1'}}
{'word': 'Washington', 'spans': [{'start': 0, 'end': 10}], 'country_predicted': 'USA', 'country_conf': 0.69099617, 'geo': {'admin1': 'Washington', 'lat': '47.50012', 'lon': '-120.50147', 'country_code3': 'USA', 'geonameid': '5815135', 'place_name': 'Washington', 'feature_class': 'A', 'feature_code': 'ADM1'}}
{'word': 'Seattle', 'spans': [{'start': 0, 'end': 7}], 'country_predicted': 'USA', 'country_conf': 0.96374094, 'geo': {'admin1': 'Washington', 'lat': '47.60621', 'lon': '-122.33207', 'country_code3': 'USA', 'geonameid': '5809844', 'place_name': 'Seattle', 'feature_class': 'P', 'feature_code': 'PPLA2'}}
{'word': 'Colorado', 'spans': [{'start': 0, 'end': 8}], 'country_predicted': 'CRI', 'country_conf': 0.19161284}
{'word': 'Playa', 'spans': [{'start': 0, 'end': 5}], 'country_predicted': 'MEX', 'country_conf': 0.28365934}
{'word': 'Moscow', 'spans': [{'start': 0, 'end': 6}], 'country_predicted': 'RUS', 'country_conf': 0.957188, 'geo': {'admin1': 'Moscow', 'lat': '55.75222', 'lon': '37.61556', 'country_code3': 'RUS', 'geonameid': '524901', 'place_name': 'Moscow', 'feature_class': 'P', 'feature_code': 'PPLC'}}
{'word': 'WI', 'spans': [{'start': 0, 'end': 2}], 'country_predicted': 'COG', 'country_conf': 0.28868946}
{'word': 'Veracruz', 'spans': [{'start': 0, 'end': 8}], 'country_predicted': 'MEX', 'country_conf': 0.87992215, 'geo': {'admin1': 'Veracruz', 'lat': '19.18095', 'lon': '-96.1429', 'country_code3': 'MEX', 'geonameid': '3514783', 'place_name': 'Veracruz', 'feature_class': 'P', 'feature_code': 'PPLA2'}}
{'word': 'Mexico', 'spans': [{'start': 0, 'end': 6}], 'country_predicted': 'MEX', 'country_conf': 0.9516948, 'geo': {'admin1': 'NA', 'lat': '23', 'lon': '-102', 'country_code3': 'MEX', 'geonameid': '3996063', 'place_name': 'Mexico', 'feature_class': 'A', 'feature_code': 'PCLI'}}
