{'word': 'China', 'spans': [{'start': 0, 'end': 5}], 'country_predicted': 'CHN', 'country_conf': 0.68758196, 'geo': {'admin1': 'Hubei', 'lat': '30.52047', 'lon': '114.39637', 'country_code3': 'CHN', 'geonameid': '6620465', 'place_name': 'China University of Geosciences', 'feature_class': 'S', 'feature_code': 'SCHC'}}
{'word': 'Cincinnati', 'spans': [{'start': 0, 'end': 10}], 'country_predicted': 'USA', 'country_conf': 0.957188, 'geo': {'admin1': 'Ohio', 'lat': '39.12711', 'lon': '-84.51439', 'country_code3': 'USA', 'geonameid': '4508722', 'place_name': 'Cincinnati', 'feature_class': 'P', 'feature_code': 'PPLA2'}}
{'word': 'Richmond', 'spans': [{'start': 0, 'end': 8}], 'country_predicted': 'CAN', 'country_conf': 0.87992215, 'geo': {'admin1': 'Ontario', 'lat': '43.87111', 'lon': '-79.43725', 'country_code3': 'CAN', 'geonameid': '6122091', 'place_name': 'Richmond Hill', 'feature_class': 'P', 'feature_code': 'PPL'}}
{'word': 'volumes.&rdquo', 'spans': [{'start': 0, 'end': 14}], 'country_predicted': '', 'country_conf': 0}
{'word': 'Florence', 'spans': [{'start': 0, 'end': 8}], 'country_predicted': 'ITA', 'country_conf': 0.96374094, 'geo': {'admin1': 'Tuscany', 'lat': '43.83333', 'lon': '11.33333', 'country_code3': 'ITA', 'geonameid': '3176958', 'place_name': 'Province of Florence', 'feature_class': 'A', 'feature_code': 'ADM2'}}
{'word': 'Florence', 'spans': [{'start': 0, 'end': 8}], 'country_predicted': 'ITA', 'country_conf': 0.96374094, 'geo': {'admin1': 'Tuscany', 'lat': '43.83333', 'lon': '11.33333', 'country_code3': 'ITA', 'geonameid': '3176958', 'place_name': 'Province of Florence', 'feature_class': 'A', 'feature_code': 'ADM2'}}
{'word': 'Florida', 'spans': [{'start': 0, 'end': 7}], 'country_predicted': 'CUB', 'country_conf': 0.19161284}
{'word': 'Florida', 'spans': [{'start': 0, 'end': 7}], 'country_predicted': 'CUB', 'country_conf': 0.19161284}
{'word': 'collection.&rdquo', 'spans': [{'start': 0, 'end': 17}], 'country_predicted': '', 'country_conf': 0}
{'word': 'Canada', 'spans': [{'start': 0, 'end': 6}], 'country_predicted': 'CAN', 'country_conf': 0.9516948, 'geo': {'admin1': 'NA', 'lat': '60.10867', 'lon': '-113.64258', 'country_code3': 'CAN', 'geonameid': '6251999', 'place_name': 'Canada', 'feature_class': 'A', 'feature_code': 'PCLI'}}
{'word': 'Canada', 'spans': [{'start': 0, 'end': 6}], 'country_predicted': 'CAN', 'country_conf': 0.9516948, 'geo': {'admin1': 'NA', 'lat': '60.10867', 'lon': '-113.64258', 'country_code3': 'CAN', 'geonameid': '6251999', 'place_name': 'Canada', 'feature_class': 'A', 'feature_code': 'PCLI'}}
{'word': 'Alaska', 'spans': [{'start': 0, 'end': 6}], 'country_predicted': 'USA', 'country_conf': 0.9634983, 'geo': {'admin1': 'Alaska', 'lat': '64.00028', 'lon': '-150.00028', 'country_code3': 'USA', 'geonameid': '5879092', 'place_name': 'Alaska', 'feature_class': 'A', 'feature_code': 'ADM1'}}
{'word': 'Boston', 'spans': [{'start': 0, 'end': 6}], 'country_predicted': 'USA', 'country_conf': 0.957188, 'geo': {'admin1': 'Massachusetts', 'lat': '42.35843', 'lon': '-71.05977', 'country_code3': 'USA', 'geonameid': '4930956', 'place_name': 'Boston', 'feature_class': 'P', 'feature_code': 'PPLA'}}
{'word': 'America', 'spans': [{'start': 0, 'end': 7}], 'country_predicted': 'USA', 'country_conf': 0.9516948, 'geo': {'admin1': 'Wyoming', 'lat': '41.54357', 'lon': '-109.85903', 'country_code3': 'USA', 'geonameid': '5830444', 'place_name': 'Little America', 'feature_class': 'P', 'feature_code': 'PPL'}}
{'word': 'Boston', 'spans': [{'start': 0, 'end': 6}], 'country_predicted': 'USA', 'country_conf': 0.957188, 'geo': {'admin1': 'Massachusetts', 'lat': '42.35843', 'lon': '-71.05977', 'country_code3': 'USA', 'geonameid': '4930956', 'place_name': 'Boston', 'feature_class': 'P', 'feature_code': 'PPLA'}}
{'word': 'Boston', 'spans': [{'start': 0, 'end': 6}], 'country_predicted': 'USA', 'country_conf': 0.957188, 'geo': {'admin1': 'Massachusetts', 'lat': '42.35843', 'lon': '-71.05977', 'country_code3': 'USA', 'geonameid': '4930956', 'place_name': 'Boston', 'feature_class': 'P', 'feature_code': 'PPLA'}}
{'word': 'Venice', 'spans': [{'start': 0, 'end': 6}], 'country_predicted': 'ITA', 'country_conf': 0.96374094, 'geo': {'admin1': 'Veneto', 'lat': '45.43713', 'lon': '12.33265', 'country_code3': 'ITA', 'geonameid': '3164603', 'place_name': 'Venice', 'feature_class': 'P', 'feature_code': 'PPLA'}}
{'word': 'Minnesota', 'spans': [{'start': 0, 'end': 9}], 'country_predicted': 'USA', 'country_conf': 0.9516948, 'geo': {'admin1': 'Minnesota', 'lat': '46.25024', 'lon': '-94.25055', 'country_code3': 'USA', 'geonameid': '5037779', 'place_name': 'Minnesota', 'feature_class': 'A', 'feature_code': 'ADM1'}}
{'word': 'Minnesota', 'spans': [{'start': 0, 'end': 9}], 'country_predicted': 'USA', 'country_conf': 0.9516948, 'geo': {'admin1': 'Minnesota', 'lat': '46.25024', 'lon': '-94.25055', 'country_code3': 'USA', 'geonameid': '5037779', 'place_name': 'Minnesota', 'feature_class': 'A', 'feature_code': 'ADM1'}}
{'word': 'Minneapolis', 'spans': [{'start': 0, 'end': 11}], 'country_predicted': 'USA', 'country_conf': 0.96374094, 'geo': {'admin1': 'Minnesota', 'lat': '44.97997', 'lon': '-93.26384', 'country_code3': 'USA', 'geonameid': '5037649', 'place_name': 'Minneapolis', 'feature_class': 'P', 'feature_code': 'PPLA2'}}
{'word': 'Zink', 'spans': [{'start': 0, 'end': 4}], 'country_predicted': 'CAN', 'country_conf': 0.28868946}
{'word': 'China', 'spans': [{'start': 0, 'end': 5}], 'country_predicted': 'CHN', 'country_conf': 0.68758196, 'geo': {'admin1': 'Hubei', 'lat': '30.52047', 'lon': '114.39637', 'country_code3': 'CHN', 'geonameid': '6620465', 'place_name': 'China University of Geosciences', 'feature_class': 'S', 'feature_code': 'SCHC'}}
{'word': 'Minnesota', 'spans': [{'start': 0, 'end': 9}], 'country_predicted': 'USA', 'country_conf': 0.9516948, 'geo': {'admin1': 'Minnesota', 'lat': '46.25024', 'lon': '-94.25055', 'country_code3': 'USA', 'geonameid': '5037779', 'place_name': 'Minnesota', 'feature_class': 'A', 'feature_code': 'ADM1'}}
