{'word': 'Hampshire', 'spans': [{'start': 0, 'end': 9}], 'country_predicted': 'USA', 'country_conf': 0.6353264, 'geo': {'admin1': 'New Hampshire', 'lat': '43.66702', 'lon': '-71.4998', 'country_code3': 'USA', 'geonameid': '5090174', 'place_name': 'New Hampshire', 'feature_class': 'A', 'feature_code': 'ADM1'}}
{'word': 'Saskatchewan', 'spans': [{'start': 0, 'end': 12}], 'country_predicted': 'CAN', 'country_conf': 0.9048774, 'geo': {'admin1': 'Saskatchewan', 'lat': '54.0001', 'lon': '-106.00099', 'country_code3': 'CAN', 'geonameid': '6141242', 'place_name': 'Saskatchewan', 'feature_class': 'A', 'feature_code': 'ADM1'}}
{'word': 'Mayfield', 'spans': [{'start': 0, 'end': 8}], 'country_predicted': 'GBR', 'country_conf': 0.28365934}
{'word': 'America', 'spans': [{'start': 0, 'end': 7}], 'country_predicted': 'USA', 'country_conf': 0.9516948, 'geo': {'admin1': 'Wyoming', 'lat': '41.54357', 'lon': '-109.85903', 'country_code3': 'USA', 'geonameid': '5830444', 'place_name': 'Little America', 'feature_class': 'P', 'feature_code': 'PPL'}}
{'word': 'Wisconsin', 'spans': [{'start': 0, 'end': 9}], 'country_predicted': 'USA', 'country_conf': 0.9634983, 'geo': {'admin1': 'Wisconsin', 'lat': '44.50024', 'lon': '-90.00041', 'country_code3': 'USA', 'geonameid': '5279468', 'place_name': 'Wisconsin', 'feature_class': 'A', 'feature_code': 'ADM1'}}
{'word': 'USA', 'spans': [{'start': 0, 'end': 3}], 'country_predicted': 'USA', 'country_conf': 0.9516948, 'geo': {'admin1': 'Louisiana', 'lat': '29.2605', 'lon': '-89.35478', 'country_code3': 'USA', 'geonameid': '4319780', 'place_name': 'Chevron USA Incorporated Seaplane Base', 'feature_class': 'S', 'feature_code': 'AIRP'}}
{'word': 'Minnesota', 'spans': [{'start': 0, 'end': 9}], 'country_predicted': 'USA', 'country_conf': 0.9516948, 'geo': {'admin1': 'Minnesota', 'lat': '46.25024', 'lon': '-94.25055', 'country_code3': 'USA', 'geonameid': '5037779', 'place_name': 'Minnesota', 'feature_class': 'A', 'feature_code': 'ADM1'}}
{'word': 'Michigan', 'spans': [{'start': 0, 'end': 8}], 'country_predicted': 'USA', 'country_conf': 0.9634983, 'geo': {'admin1': 'Michigan', 'lat': '44.25029', 'lon': '-85.50033', 'country_code3': 'USA', 'geonameid': '5001836', 'place_name': 'Michigan', 'feature_class': 'A', 'feature_code': 'ADM1'}}
{'word': 'USA', 'spans': [{'start': 0, 'end': 3}], 'country_predicted': 'USA', 'country_conf': 0.9516948, 'geo': {'admin1': 'Louisiana', 'lat': '29.2605', 'lon': '-89.35478', 'country_code3': 'USA', 'geonameid': '4319780', 'place_name': 'Chevron USA Incorporated Seaplane Base', 'feature_class': 'S', 'feature_code': 'AIRP'}}
{'word': 'humain', 'spans': [{'start': 0, 'end': 6}], 'country_predicted': 'BEL', 'country_conf': 0.9048774, 'geo': {'admin1': 'Wallonia', 'lat': '50.20493', 'lon': '5.25687', 'country_code3': 'BEL', 'geonameid': '2795151', 'place_name': 'Humain', 'feature_class': 'P', 'feature_code': 'PPL'}}
{'word': 'Michigan', 'spans': [{'start': 0, 'end': 8}], 'country_predicted': 'USA', 'country_conf': 0.9634983, 'geo': {'admin1': 'Michigan', 'lat': '44.25029', 'lon': '-85.50033', 'country_code3': 'USA', 'geonameid': '5001836', 'place_name': 'Michigan', 'feature_class': 'A', 'feature_code': 'ADM1'}}
{'word': 'humain', 'spans': [{'start': 0, 'end': 6}], 'country_predicted': 'BEL', 'country_conf': 0.9048774, 'geo': {'admin1': 'Wallonia', 'lat': '50.20493', 'lon': '5.25687', 'country_code3': 'BEL', 'geonameid': '2795151', 'place_name': 'Humain', 'feature_class': 'P', 'feature_code': 'PPL'}}
{'word': 'humain', 'spans': [{'start': 0, 'end': 6}], 'country_predicted': 'BEL', 'country_conf': 0.9048774, 'geo': {'admin1': 'Wallonia', 'lat': '50.20493', 'lon': '5.25687', 'country_code3': 'BEL', 'geonameid': '2795151', 'place_name': 'Humain', 'feature_class': 'P', 'feature_code': 'PPL'}}
{'word': 'humain', 'spans': [{'start': 0, 'end': 6}], 'country_predicted': 'BEL', 'country_conf': 0.9048774, 'geo': {'admin1': 'Wallonia', 'lat': '50.20493', 'lon': '5.25687', 'country_code3': 'BEL', 'geonameid': '2795151', 'place_name': 'Humain', 'feature_class': 'P', 'feature_code': 'PPL'}}
{'word': 'Michigan', 'spans': [{'start': 0, 'end': 8}], 'country_predicted': 'USA', 'country_conf': 0.9634983, 'geo': {'admin1': 'Michigan', 'lat': '44.25029', 'lon': '-85.50033', 'country_code3': 'USA', 'geonameid': '5001836', 'place_name': 'Michigan', 'feature_class': 'A', 'feature_code': 'ADM1'}}
{'word': 'indice', 'spans': [{'start': 0, 'end': 6}], 'country_predicted': 'ARG', 'country_conf': 0.28868946}
{'word': '&gt;71&percnt', 'spans': [{'start': 0, 'end': 13}], 'country_predicted': 'CHN', 'country_conf': 0.24821267}
{'word': 'territories', 'spans': [{'start': 0, 'end': 11}], 'country_predicted': 'PSE', 'country_conf': 0.7178229, 'geo': {'admin1': 'NA', 'lat': '31.92157', 'lon': '35.20329', 'country_code3': 'PSE', 'geonameid': '6254930', 'place_name': 'Palestine', 'feature_class': 'A', 'feature_code': 'PCLS'}}
{'word': 'Hampshire', 'spans': [{'start': 0, 'end': 9}], 'country_predicted': 'USA', 'country_conf': 0.6353264, 'geo': {'admin1': 'New Hampshire', 'lat': '43.66702', 'lon': '-71.4998', 'country_code3': 'USA', 'geonameid': '5090174', 'place_name': 'New Hampshire', 'feature_class': 'A', 'feature_code': 'ADM1'}}
{'word': 'USA', 'spans': [{'start': 0, 'end': 3}], 'country_predicted': 'USA', 'country_conf': 0.9516948, 'geo': {'admin1': 'Louisiana', 'lat': '29.2605', 'lon': '-89.35478', 'country_code3': 'USA', 'geonameid': '4319780', 'place_name': 'Chevron USA Incorporated Seaplane Base', 'feature_class': 'S', 'feature_code': 'AIRP'}}
{'word': 'Montana', 'spans': [{'start': 0, 'end': 7}], 'country_predicted': 'USA', 'country_conf': 0.9634983, 'geo': {'admin1': 'Montana', 'lat': '47.00025', 'lon': '-109.75102', 'country_code3': 'USA', 'geonameid': '5667009', 'place_name': 'Montana', 'feature_class': 'A', 'feature_code': 'ADM1'}}
{'word': 'USA', 'spans': [{'start': 0, 'end': 3}], 'country_predicted': 'USA', 'country_conf': 0.9516948, 'geo': {'admin1': 'Louisiana', 'lat': '29.2605', 'lon': '-89.35478', 'country_code3': 'USA', 'geonameid': '4319780', 'place_name': 'Chevron USA Incorporated Seaplane Base', 'feature_class': 'S', 'feature_code': 'AIRP'}}
{'word': 'Michigan', 'spans': [{'start': 0, 'end': 8}], 'country_predicted': 'USA', 'country_conf': 0.9634983, 'geo': {'admin1': 'Michigan', 'lat': '44.25029', 'lon': '-85.50033', 'country_code3': 'USA', 'geonameid': '5001836', 'place_name': 'Michigan', 'feature_class': 'A', 'feature_code': 'ADM1'}}
{'word': 'USA', 'spans': [{'start': 0, 'end': 3}], 'country_predicted': 'USA', 'country_conf': 0.9516948, 'geo': {'admin1': 'Louisiana', 'lat': '29.2605', 'lon': '-89.35478', 'country_code3': 'USA', 'geonameid': '4319780', 'place_name': 'Chevron USA Incorporated Seaplane Base', 'feature_class': 'S', 'feature_code': 'AIRP'}}
{'word': 'Michigan', 'spans': [{'start': 0, 'end': 8}], 'country_predicted': 'USA', 'country_conf': 0.9634983, 'geo': {'admin1': 'Michigan', 'lat': '44.25029', 'lon': '-85.50033', 'country_code3': 'USA', 'geonameid': '5001836', 'place_name': 'Michigan', 'feature_class': 'A', 'feature_code': 'ADM1'}}
{'word': 'Charlevoix', 'spans': [{'start': 0, 'end': 10}], 'country_predicted': 'USA', 'country_conf': 0.87992215, 'geo': {'admin1': 'Michigan', 'lat': '45.26715', 'lon': '-85.24017', 'country_code3': 'USA', 'geonameid': '4988577', 'place_name': 'Charlevoix County', 'feature_class': 'A', 'feature_code': 'ADM2'}}
{'word': 'Cheboygan', 'spans': [{'start': 0, 'end': 9}], 'country_predicted': 'USA', 'country_conf': 0.9048774, 'geo': {'admin1': 'Michigan', 'lat': '45.47294', 'lon': '-84.49206', 'country_code3': 'USA', 'geonameid': '4988619', 'place_name': 'Cheboygan County', 'feature_class': 'A', 'feature_code': 'ADM2'}}
{'word': 'Michigan', 'spans': [{'start': 0, 'end': 8}], 'country_predicted': 'USA', 'country_conf': 0.9634983, 'geo': {'admin1': 'Michigan', 'lat': '44.25029', 'lon': '-85.50033', 'country_code3': 'USA', 'geonameid': '5001836', 'place_name': 'Michigan', 'feature_class': 'A', 'feature_code': 'ADM1'}}
{'word': 'County', 'spans': [{'start': 0, 'end': 6}], 'country_predicted': 'GBR', 'country_conf': 0.28868946}
{'word': 'Michigan', 'spans': [{'start': 0, 'end': 8}], 'country_predicted': 'USA', 'country_conf': 0.9634983, 'geo': {'admin1': 'Michigan', 'lat': '44.25029', 'lon': '-85.50033', 'country_code3': 'USA', 'geonameid': '5001836', 'place_name': 'Michigan', 'feature_class': 'A', 'feature_code': 'ADM1'}}
{'word': 'Muskegon', 'spans': [{'start': 0, 'end': 8}], 'country_predicted': 'USA', 'country_conf': 0.96374094, 'geo': {'admin1': 'Michigan', 'lat': '43.21919', 'lon': '-86.21246', 'country_code3': 'USA', 'geonameid': '5003136', 'place_name': 'Muskegon County', 'feature_class': 'A', 'feature_code': 'ADM2'}}
{'word': 'Michigan', 'spans': [{'start': 0, 'end': 8}], 'country_predicted': 'USA', 'country_conf': 0.9634983, 'geo': {'admin1': 'Michigan', 'lat': '44.25029', 'lon': '-85.50033', 'country_code3': 'USA', 'geonameid': '5001836', 'place_name': 'Michigan', 'feature_class': 'A', 'feature_code': 'ADM1'}}
{'word': 'Michigan', 'spans': [{'start': 0, 'end': 8}], 'country_predicted': 'USA', 'country_conf': 0.9634983, 'geo': {'admin1': 'Michigan', 'lat': '44.25029', 'lon': '-85.50033', 'country_code3': 'USA', 'geonameid': '5001836', 'place_name': 'Michigan', 'feature_class': 'A', 'feature_code': 'ADM1'}}
{'word': 'Michigan', 'spans': [{'start': 0, 'end': 8}], 'country_predicted': 'USA', 'country_conf': 0.9634983, 'geo': {'admin1': 'Michigan', 'lat': '44.25029', 'lon': '-85.50033', 'country_code3': 'USA', 'geonameid': '5001836', 'place_name': 'Michigan', 'feature_class': 'A', 'feature_code': 'ADM1'}}
{'word': 'Michigan', 'spans': [{'start': 0, 'end': 8}], 'country_predicted': 'USA', 'country_conf': 0.9634983, 'geo': {'admin1': 'Michigan', 'lat': '44.25029', 'lon': '-85.50033', 'country_code3': 'USA', 'geonameid': '5001836', 'place_name': 'Michigan', 'feature_class': 'A', 'feature_code': 'ADM1'}}
{'word': 'USA', 'spans': [{'start': 0, 'end': 3}], 'country_predicted': 'USA', 'country_conf': 0.9516948, 'geo': {'admin1': 'Louisiana', 'lat': '29.2605', 'lon': '-89.35478', 'country_code3': 'USA', 'geonameid': '4319780', 'place_name': 'Chevron USA Incorporated Seaplane Base', 'feature_class': 'S', 'feature_code': 'AIRP'}}
{'word': 'Michigan', 'spans': [{'start': 0, 'end': 8}], 'country_predicted': 'USA', 'country_conf': 0.9634983, 'geo': {'admin1': 'Michigan', 'lat': '44.25029', 'lon': '-85.50033', 'country_code3': 'USA', 'geonameid': '5001836', 'place_name': 'Michigan', 'feature_class': 'A', 'feature_code': 'ADM1'}}
{'word': 'lake', 'spans': [{'start': 0, 'end': 4}], 'country_predicted': 'USA', 'country_conf': 0.7178229, 'geo': {'admin1': 'Michigan', 'lat': '43.17956', 'lon': '-83.3123', 'country_code3': 'USA', 'geonameid': '7259538', 'place_name': 'Barnes Lake-Millers Lake', 'feature_class': 'P', 'feature_code': 'PPL'}}
{'word': 'Michigan', 'spans': [{'start': 0, 'end': 8}], 'country_predicted': 'USA', 'country_conf': 0.9634983, 'geo': {'admin1': 'Michigan', 'lat': '44.25029', 'lon': '-85.50033', 'country_code3': 'USA', 'geonameid': '5001836', 'place_name': 'Michigan', 'feature_class': 'A', 'feature_code': 'ADM1'}}
{'word': 'Michigan', 'spans': [{'start': 0, 'end': 8}], 'country_predicted': 'USA', 'country_conf': 0.9634983, 'geo': {'admin1': 'Michigan', 'lat': '44.25029', 'lon': '-85.50033', 'country_code3': 'USA', 'geonameid': '5001836', 'place_name': 'Michigan', 'feature_class': 'A', 'feature_code': 'ADM1'}}
{'word': 'Michigan', 'spans': [{'start': 0, 'end': 8}], 'country_predicted': 'USA', 'country_conf': 0.9634983, 'geo': {'admin1': 'Michigan', 'lat': '44.25029', 'lon': '-85.50033', 'country_code3': 'USA', 'geonameid': '5001836', 'place_name': 'Michigan', 'feature_class': 'A', 'feature_code': 'ADM1'}}
{'word': 'Michigan', 'spans': [{'start': 0, 'end': 8}], 'country_predicted': 'USA', 'country_conf': 0.9634983, 'geo': {'admin1': 'Michigan', 'lat': '44.25029', 'lon': '-85.50033', 'country_code3': 'USA', 'geonameid': '5001836', 'place_name': 'Michigan', 'feature_class': 'A', 'feature_code': 'ADM1'}}
{'word': 'Redlands', 'spans': [{'start': 0, 'end': 8}], 'country_predicted': 'USA', 'country_conf': 0.957188, 'geo': {'admin1': 'California', 'lat': '34.05557', 'lon': '-117.18254', 'country_code3': 'USA', 'geonameid': '5386754', 'place_name': 'Redlands', 'feature_class': 'P', 'feature_code': 'PPL'}}
{'word': 'California', 'spans': [{'start': 0, 'end': 10}], 'country_predicted': 'COL', 'country_conf': 0.19161284}
{'word': 'Michigan', 'spans': [{'start': 0, 'end': 8}], 'country_predicted': 'USA', 'country_conf': 0.9634983, 'geo': {'admin1': 'Michigan', 'lat': '44.25029', 'lon': '-85.50033', 'country_code3': 'USA', 'geonameid': '5001836', 'place_name': 'Michigan', 'feature_class': 'A', 'feature_code': 'ADM1'}}
{'word': 'Michigan', 'spans': [{'start': 0, 'end': 8}], 'country_predicted': 'USA', 'country_conf': 0.9634983, 'geo': {'admin1': 'Michigan', 'lat': '44.25029', 'lon': '-85.50033', 'country_code3': 'USA', 'geonameid': '5001836', 'place_name': 'Michigan', 'feature_class': 'A', 'feature_code': 'ADM1'}}
{'word': 'Michigan', 'spans': [{'start': 0, 'end': 8}], 'country_predicted': 'USA', 'country_conf': 0.9634983, 'geo': {'admin1': 'Michigan', 'lat': '44.25029', 'lon': '-85.50033', 'country_code3': 'USA', 'geonameid': '5001836', 'place_name': 'Michigan', 'feature_class': 'A', 'feature_code': 'ADM1'}}
{'word': 'Michigan', 'spans': [{'start': 0, 'end': 8}], 'country_predicted': 'USA', 'country_conf': 0.9634983, 'geo': {'admin1': 'Michigan', 'lat': '44.25029', 'lon': '-85.50033', 'country_code3': 'USA', 'geonameid': '5001836', 'place_name': 'Michigan', 'feature_class': 'A', 'feature_code': 'ADM1'}}
{'word': 'USA', 'spans': [{'start': 0, 'end': 3}], 'country_predicted': 'USA', 'country_conf': 0.9516948, 'geo': {'admin1': 'Louisiana', 'lat': '29.2605', 'lon': '-89.35478', 'country_code3': 'USA', 'geonameid': '4319780', 'place_name': 'Chevron USA Incorporated Seaplane Base', 'feature_class': 'S', 'feature_code': 'AIRP'}}
{'word': 'ROC', 'spans': [{'start': 1, 'end': 4}], 'country_predicted': 'FRA', 'country_conf': 0.28365934}
{'word': 'Michigan', 'spans': [{'start': 0, 'end': 8}], 'country_predicted': 'USA', 'country_conf': 0.9634983, 'geo': {'admin1': 'Michigan', 'lat': '44.25029', 'lon': '-85.50033', 'country_code3': 'USA', 'geonameid': '5001836', 'place_name': 'Michigan', 'feature_class': 'A', 'feature_code': 'ADM1'}}
{'word': 'USA', 'spans': [{'start': 0, 'end': 3}], 'country_predicted': 'USA', 'country_conf': 0.9516948, 'geo': {'admin1': 'Louisiana', 'lat': '29.2605', 'lon': '-89.35478', 'country_code3': 'USA', 'geonameid': '4319780', 'place_name': 'Chevron USA Incorporated Seaplane Base', 'feature_class': 'S', 'feature_code': 'AIRP'}}
{'word': 'Michigan', 'spans': [{'start': 0, 'end': 8}], 'country_predicted': 'USA', 'country_conf': 0.9634983, 'geo': {'admin1': 'Michigan', 'lat': '44.25029', 'lon': '-85.50033', 'country_code3': 'USA', 'geonameid': '5001836', 'place_name': 'Michigan', 'feature_class': 'A', 'feature_code': 'ADM1'}}
{'word': 'USA', 'spans': [{'start': 0, 'end': 3}], 'country_predicted': 'USA', 'country_conf': 0.9516948, 'geo': {'admin1': 'Louisiana', 'lat': '29.2605', 'lon': '-89.35478', 'country_code3': 'USA', 'geonameid': '4319780', 'place_name': 'Chevron USA Incorporated Seaplane Base', 'feature_class': 'S', 'feature_code': 'AIRP'}}
{'word': 'Michigan', 'spans': [{'start': 0, 'end': 8}], 'country_predicted': 'USA', 'country_conf': 0.9634983, 'geo': {'admin1': 'Michigan', 'lat': '44.25029', 'lon': '-85.50033', 'country_code3': 'USA', 'geonameid': '5001836', 'place_name': 'Michigan', 'feature_class': 'A', 'feature_code': 'ADM1'}}
{'word': 'USA', 'spans': [{'start': 0, 'end': 3}], 'country_predicted': 'USA', 'country_conf': 0.9516948, 'geo': {'admin1': 'Louisiana', 'lat': '29.2605', 'lon': '-89.35478', 'country_code3': 'USA', 'geonameid': '4319780', 'place_name': 'Chevron USA Incorporated Seaplane Base', 'feature_class': 'S', 'feature_code': 'AIRP'}}
{'word': 'Michigan', 'spans': [{'start': 0, 'end': 8}], 'country_predicted': 'USA', 'country_conf': 0.9634983, 'geo': {'admin1': 'Michigan', 'lat': '44.25029', 'lon': '-85.50033', 'country_code3': 'USA', 'geonameid': '5001836', 'place_name': 'Michigan', 'feature_class': 'A', 'feature_code': 'ADM1'}}
{'word': 'USA', 'spans': [{'start': 0, 'end': 3}], 'country_predicted': 'USA', 'country_conf': 0.9516948, 'geo': {'admin1': 'Louisiana', 'lat': '29.2605', 'lon': '-89.35478', 'country_code3': 'USA', 'geonameid': '4319780', 'place_name': 'Chevron USA Incorporated Seaplane Base', 'feature_class': 'S', 'feature_code': 'AIRP'}}
{'word': 'Michigan', 'spans': [{'start': 0, 'end': 8}], 'country_predicted': 'USA', 'country_conf': 0.9634983, 'geo': {'admin1': 'Michigan', 'lat': '44.25029', 'lon': '-85.50033', 'country_code3': 'USA', 'geonameid': '5001836', 'place_name': 'Michigan', 'feature_class': 'A', 'feature_code': 'ADM1'}}
{'word': 'USA', 'spans': [{'start': 0, 'end': 3}], 'country_predicted': 'USA', 'country_conf': 0.9516948, 'geo': {'admin1': 'Louisiana', 'lat': '29.2605', 'lon': '-89.35478', 'country_code3': 'USA', 'geonameid': '4319780', 'place_name': 'Chevron USA Incorporated Seaplane Base', 'feature_class': 'S', 'feature_code': 'AIRP'}}
{'word': 'Michigan', 'spans': [{'start': 0, 'end': 8}], 'country_predicted': 'USA', 'country_conf': 0.9634983, 'geo': {'admin1': 'Michigan', 'lat': '44.25029', 'lon': '-85.50033', 'country_code3': 'USA', 'geonameid': '5001836', 'place_name': 'Michigan', 'feature_class': 'A', 'feature_code': 'ADM1'}}
{'word': 'Michigan', 'spans': [{'start': 0, 'end': 8}], 'country_predicted': 'USA', 'country_conf': 0.9634983, 'geo': {'admin1': 'Michigan', 'lat': '44.25029', 'lon': '-85.50033', 'country_code3': 'USA', 'geonameid': '5001836', 'place_name': 'Michigan', 'feature_class': 'A', 'feature_code': 'ADM1'}}
{'word': 'Hampshire', 'spans': [{'start': 0, 'end': 9}], 'country_predicted': 'USA', 'country_conf': 0.6353264, 'geo': {'admin1': 'New Hampshire', 'lat': '43.66702', 'lon': '-71.4998', 'country_code3': 'USA', 'geonameid': '5090174', 'place_name': 'New Hampshire', 'feature_class': 'A', 'feature_code': 'ADM1'}}
{'word': 'Michigan', 'spans': [{'start': 0, 'end': 8}], 'country_predicted': 'USA', 'country_conf': 0.9634983, 'geo': {'admin1': 'Michigan', 'lat': '44.25029', 'lon': '-85.50033', 'country_code3': 'USA', 'geonameid': '5001836', 'place_name': 'Michigan', 'feature_class': 'A', 'feature_code': 'ADM1'}}
{'word': 'Michigan', 'spans': [{'start': 0, 'end': 8}], 'country_predicted': 'USA', 'country_conf': 0.9634983, 'geo': {'admin1': 'Michigan', 'lat': '44.25029', 'lon': '-85.50033', 'country_code3': 'USA', 'geonameid': '5001836', 'place_name': 'Michigan', 'feature_class': 'A', 'feature_code': 'ADM1'}}
{'word': 'Michigan', 'spans': [{'start': 0, 'end': 8}], 'country_predicted': 'USA', 'country_conf': 0.9634983, 'geo': {'admin1': 'Michigan', 'lat': '44.25029', 'lon': '-85.50033', 'country_code3': 'USA', 'geonameid': '5001836', 'place_name': 'Michigan', 'feature_class': 'A', 'feature_code': 'ADM1'}}
{'word': 'Michigan', 'spans': [{'start': 0, 'end': 8}], 'country_predicted': 'USA', 'country_conf': 0.9634983, 'geo': {'admin1': 'Michigan', 'lat': '44.25029', 'lon': '-85.50033', 'country_code3': 'USA', 'geonameid': '5001836', 'place_name': 'Michigan', 'feature_class': 'A', 'feature_code': 'ADM1'}}
