{'word': 'Amsterdam', 'spans': [{'start': 0, 'end': 9}], 'country_predicted': 'NLD', 'country_conf': 0.957188, 'geo': {'admin1': 'North Holland', 'lat': '52.37302', 'lon': '4.89856', 'country_code3': 'NLD', 'geonameid': '2759793', 'place_name': 'Gemeente Amsterdam', 'feature_class': 'A', 'feature_code': 'ADM2'}}
{'word': 'Netherlands', 'spans': [{'start': 0, 'end': 11}], 'country_predicted': 'NLD', 'country_conf': 0.6948644, 'geo': {'admin1': 'NA', 'lat': '52.25', 'lon': '5.75', 'country_code3': 'NLD', 'geonameid': '2750405', 'place_name': 'Kingdom of the Netherlands', 'feature_class': 'A', 'feature_code': 'PCLI'}}
{'word': 'Aberdeen', 'spans': [{'start': 0, 'end': 8}], 'country_predicted': 'GBR', 'country_conf': 0.957188, 'geo': {'admin1': 'Scotland', 'lat': '57.16667', 'lon': '-2.16667', 'country_code3': 'GBR', 'geonameid': '3333224', 'place_name': 'Aberdeen City', 'feature_class': 'A', 'feature_code': 'ADM2'}}
{'word': 'Britain', 'spans': [{'start': 0, 'end': 7}], 'country_predicted': 'GBR', 'country_conf': 0.9516948, 'geo': {'admin1': 'NA', 'lat': '54.75844', 'lon': '-2.69531', 'country_code3': 'GBR', 'geonameid': '2635167', 'place_name': 'United Kingdom of Great Britain and Northern Ireland', 'feature_class': 'A', 'feature_code': 'PCLI'}}
{'word': 'al.', 'spans': [{'start': 0, 'end': 3}], 'country_predicted': 'IRQ', 'country_conf': 0.28365934}
{'word': 'al.', 'spans': [{'start': 0, 'end': 3}], 'country_predicted': 'IRQ', 'country_conf': 0.28365934}
{'word': 'al.', 'spans': [{'start': 0, 'end': 3}], 'country_predicted': 'IRQ', 'country_conf': 0.28365934}
{'word': 'York', 'spans': [{'start': 0, 'end': 4}], 'country_predicted': 'CAN', 'country_conf': 0.28868946}
{'word': 'al.', 'spans': [{'start': 0, 'end': 3}], 'country_predicted': 'IRQ', 'country_conf': 0.28365934}
{'word': 'NH', 'spans': [{'start': 0, 'end': 2}], 'country_predicted': 'ITA', 'country_conf': 0.9048774, 'geo': {'admin1': 'Sicily', 'lat': '37.4881', 'lon': '15.0838', 'country_code3': 'ITA', 'geonameid': '6502841', 'place_name': 'NH Parco degli Aragonesi', 'feature_class': 'S', 'feature_code': 'HTL'}}
{'word': 'al.', 'spans': [{'start': 0, 'end': 3}], 'country_predicted': 'IRQ', 'country_conf': 0.28365934}
{'word': "cm-'carboxyl", 'spans': [{'start': 0, 'end': 12}], 'country_predicted': '', 'country_conf': 0}
{'word': 'al.', 'spans': [{'start': 0, 'end': 3}], 'country_predicted': 'IRQ', 'country_conf': 0.28365934}
{'word': 'Cheshire', 'spans': [{'start': 0, 'end': 8}], 'country_predicted': 'GBR', 'country_conf': 0.6840588, 'geo': {'admin1': 'England', 'lat': '53.16667', 'lon': '-2.58333', 'country_code3': 'GBR', 'geonameid': '2653234', 'place_name': 'County of Cheshire', 'feature_class': 'L', 'feature_code': 'RGN'}}
{'word': 'Mundie', 'spans': [{'start': 0, 'end': 6}], 'country_predicted': 'MOZ', 'country_conf': 0.5714737}
{'word': 'Aberdeen', 'spans': [{'start': 0, 'end': 8}], 'country_predicted': 'GBR', 'country_conf': 0.957188, 'geo': {'admin1': 'Scotland', 'lat': '57.16667', 'lon': '-2.16667', 'country_code3': 'GBR', 'geonameid': '3333224', 'place_name': 'Aberdeen City', 'feature_class': 'A', 'feature_code': 'ADM2'}}
{'word': 'Britain', 'spans': [{'start': 0, 'end': 7}], 'country_predicted': 'GBR', 'country_conf': 0.9516948, 'geo': {'admin1': 'NA', 'lat': '54.75844', 'lon': '-2.69531', 'country_code3': 'GBR', 'geonameid': '2635167', 'place_name': 'United Kingdom of Great Britain and Northern Ireland', 'feature_class': 'A', 'feature_code': 'PCLI'}}
{'word': 'Scotland', 'spans': [{'start': 1, 'end': 9}], 'country_predicted': 'GBR', 'country_conf': 0.3105929}
{'word': 'Edinburgh', 'spans': [{'start': 0, 'end': 9}], 'country_predicted': 'GBR', 'country_conf': 0.96374094, 'geo': {'admin1': 'Scotland', 'lat': '55.94973', 'lon': '-3.19333', 'country_code3': 'GBR', 'geonameid': '3333229', 'place_name': 'City of Edinburgh', 'feature_class': 'A', 'feature_code': 'ADM2'}}
{'word': 'Scotland', 'spans': [{'start': 0, 'end': 8}], 'country_predicted': 'GBR', 'country_conf': 0.3105929}
{'word': 'Aberdeen', 'spans': [{'start': 0, 'end': 8}], 'country_predicted': 'GBR', 'country_conf': 0.957188, 'geo': {'admin1': 'Scotland', 'lat': '57.16667', 'lon': '-2.16667', 'country_code3': 'GBR', 'geonameid': '3333224', 'place_name': 'Aberdeen City', 'feature_class': 'A', 'feature_code': 'ADM2'}}
{'word': 'Soc.', 'spans': [{'start': 0, 'end': 4}], 'country_predicted': 'VNM', 'country_conf': 0.87992215, 'geo': {'admin1': 'Sc Trng', 'lat': '9.59995', 'lon': '105.97193', 'country_code3': 'VNM', 'geonameid': '1567788', 'place_name': 'Sc Trng', 'feature_class': 'P', 'feature_code': 'PPLA'}}
{'word': 'C.A.', 'spans': [{'start': 0, 'end': 4}], 'country_predicted': 'NLD', 'country_conf': 0.87992215, 'geo': {'admin1': 'Friesland', 'lat': '53.29066', 'lon': '6.16915', 'country_code3': 'NLD', 'geonameid': '2752523', 'place_name': 'Gemeente Kollumerland en Nieuwkruisland', 'feature_class': 'A', 'feature_code': 'ADM2H'}}
{'word': 'Bucharest', 'spans': [{'start': 0, 'end': 9}], 'country_predicted': 'ROU', 'country_conf': 0.96374094, 'geo': {'admin1': 'Bucureti', 'lat': '44.43225', 'lon': '26.10626', 'country_code3': 'ROU', 'geonameid': '683506', 'place_name': 'Bucharest', 'feature_class': 'P', 'feature_code': 'PPLC'}}
{'word': 'M.K.', 'spans': [{'start': 0, 'end': 4}], 'country_predicted': 'USA', 'country_conf': 0.5714737}
{'word': 'B.G.', 'spans': [{'start': 0, 'end': 4}], 'country_predicted': 'USA', 'country_conf': 0.28868946}
