{'word': 'Amsterdam', 'spans': [{'start': 0, 'end': 9}], 'country_predicted': 'NLD', 'country_conf': 0.957188, 'geo': {'admin1': 'North Holland', 'lat': '52.37302', 'lon': '4.89856', 'country_code3': 'NLD', 'geonameid': '2759793', 'place_name': 'Gemeente Amsterdam', 'feature_class': 'A', 'feature_code': 'ADM2'}}
{'word': 'Netherlands', 'spans': [{'start': 0, 'end': 11}], 'country_predicted': 'NLD', 'country_conf': 0.6948644, 'geo': {'admin1': 'NA', 'lat': '52.25', 'lon': '5.75', 'country_code3': 'NLD', 'geonameid': '2750405', 'place_name': 'Kingdom of the Netherlands', 'feature_class': 'A', 'feature_code': 'PCLI'}}
{'word': 'AUSTRALIA', 'spans': [{'start': 0, 'end': 9}], 'country_predicted': 'AUS', 'country_conf': 0.957188, 'geo': {'admin1': 'NA', 'lat': '-25', 'lon': '135', 'country_code3': 'AUS', 'geonameid': '2077456', 'place_name': 'Commonwealth of Australia', 'feature_class': 'A', 'feature_code': 'PCLI'}}
{'word': 'Australia', 'spans': [{'start': 0, 'end': 9}], 'country_predicted': 'AUS', 'country_conf': 0.9516948, 'geo': {'admin1': 'NA', 'lat': '-25', 'lon': '135', 'country_code3': 'AUS', 'geonameid': '2077456', 'place_name': 'Commonwealth of Australia', 'feature_class': 'A', 'feature_code': 'PCLI'}}
{'word': 'Australia', 'spans': [{'start': 1, 'end': 10}], 'country_predicted': 'AUS', 'country_conf': 0.9516948, 'geo': {'admin1': 'NA', 'lat': '-25', 'lon': '135', 'country_code3': 'AUS', 'geonameid': '2077456', 'place_name': 'Commonwealth of Australia', 'feature_class': 'A', 'feature_code': 'PCLI'}}
{'word': 'Australia', 'spans': [{'start': 0, 'end': 9}], 'country_predicted': 'AUS', 'country_conf': 0.9516948, 'geo': {'admin1': 'NA', 'lat': '-25', 'lon': '135', 'country_code3': 'AUS', 'geonameid': '2077456', 'place_name': 'Commonwealth of Australia', 'feature_class': 'A', 'feature_code': 'PCLI'}}
{'word': 'pseudorutile', 'spans': [{'start': 0, 'end': 12}], 'country_predicted': '', 'country_conf': 0}
{'word': 'Mn', 'spans': [{'start': 0, 'end': 2}], 'country_predicted': 'USA', 'country_conf': 0.96374094, 'geo': {'admin1': 'Minnesota', 'lat': '44.98043', 'lon': '-93.46116', 'country_code3': 'USA', 'geonameid': '10942549', 'place_name': 'Country Inn & Suites By Carlson, Minneapolis West, MN', 'feature_class': 'S', 'feature_code': 'HTL'}}
{'word': 'al.', 'spans': [{'start': 0, 'end': 3}], 'country_predicted': 'IRQ', 'country_conf': 0.28365934}
{'word': 'Australia', 'spans': [{'start': 0, 'end': 9}], 'country_predicted': 'AUS', 'country_conf': 0.9516948, 'geo': {'admin1': 'NA', 'lat': '-25', 'lon': '135', 'country_code3': 'AUS', 'geonameid': '2077456', 'place_name': 'Commonwealth of Australia', 'feature_class': 'A', 'feature_code': 'PCLI'}}
{'word': 'Perth', 'spans': [{'start': 0, 'end': 5}], 'country_predicted': 'AUS', 'country_conf': 0.957188, 'geo': {'admin1': 'Western Australia', 'lat': '-31.95224', 'lon': '115.8614', 'country_code3': 'AUS', 'geonameid': '2063523', 'place_name': 'Perth', 'feature_class': 'P', 'feature_code': 'PPLA'}}
{'word': 'Australia', 'spans': [{'start': 0, 'end': 9}], 'country_predicted': 'AUS', 'country_conf': 0.9516948, 'geo': {'admin1': 'NA', 'lat': '-25', 'lon': '135', 'country_code3': 'AUS', 'geonameid': '2077456', 'place_name': 'Commonwealth of Australia', 'feature_class': 'A', 'feature_code': 'PCLI'}}
{'word': 'al.', 'spans': [{'start': 0, 'end': 3}], 'country_predicted': 'IRQ', 'country_conf': 0.28365934}
{'word': 'Hajek', 'spans': [{'start': 0, 'end': 5}], 'country_predicted': 'CZE', 'country_conf': 0.9528109, 'geo': {'admin1': 'Karlovarsk', 'lat': '50.28314', 'lon': '12.9197', 'country_code3': 'CZE', 'geonameid': '3076013', 'place_name': 'Hjek', 'feature_class': 'P', 'feature_code': 'PPL'}}
{'word': 'al.', 'spans': [{'start': 0, 'end': 3}], 'country_predicted': 'IRQ', 'country_conf': 0.28365934}
{'word': 'al.', 'spans': [{'start': 0, 'end': 3}], 'country_predicted': 'IRQ', 'country_conf': 0.28365934}
{'word': 'al.', 'spans': [{'start': 0, 'end': 3}], 'country_predicted': 'IRQ', 'country_conf': 0.28365934}
{'word': 'al.', 'spans': [{'start': 0, 'end': 3}], 'country_predicted': 'IRQ', 'country_conf': 0.28365934}
{'word': 'Mn', 'spans': [{'start': 0, 'end': 2}], 'country_predicted': 'USA', 'country_conf': 0.96374094, 'geo': {'admin1': 'Minnesota', 'lat': '44.98043', 'lon': '-93.46116', 'country_code3': 'USA', 'geonameid': '10942549', 'place_name': 'Country Inn & Suites By Carlson, Minneapolis West, MN', 'feature_class': 'S', 'feature_code': 'HTL'}}
{'word': 'al.', 'spans': [{'start': 0, 'end': 3}], 'country_predicted': 'IRQ', 'country_conf': 0.28365934}
{'word': 'D.C.', 'spans': [{'start': 0, 'end': 4}], 'country_predicted': 'COL', 'country_conf': 0.28868946}
{'word': 'Scotland', 'spans': [{'start': 0, 'end': 8}], 'country_predicted': 'GBR', 'country_conf': 0.3105929}
{'word': 'Soc', 'spans': [{'start': 0, 'end': 3}], 'country_predicted': 'VNM', 'country_conf': 0.87992215, 'geo': {'admin1': 'Sc Trng', 'lat': '9.59995', 'lon': '105.97193', 'country_code3': 'VNM', 'geonameid': '1567788', 'place_name': 'Sc Trng', 'feature_class': 'P', 'feature_code': 'PPLA'}}
{'word': 'Wisc', 'spans': [{'start': 0, 'end': 4}], 'country_predicted': 'USA', 'country_conf': 0.96374094, 'geo': {'admin1': 'Wisconsin', 'lat': '43.03111', 'lon': '-89.50512', 'country_code3': 'USA', 'geonameid': '5277437', 'place_name': 'WISC-TV (Madison)', 'feature_class': 'S', 'feature_code': 'TOWR'}}
{'word': 'London', 'spans': [{'start': 0, 'end': 6}], 'country_predicted': 'GBR', 'country_conf': 0.957188, 'geo': {'admin1': 'England', 'lat': '51.49227', 'lon': '-0.30864', 'country_code3': 'GBR', 'geonameid': '11591955', 'place_name': 'London', 'feature_class': 'L', 'feature_code': 'RGN'}}
{'word': 'Australia', 'spans': [{'start': 0, 'end': 9}], 'country_predicted': 'AUS', 'country_conf': 0.9516948, 'geo': {'admin1': 'NA', 'lat': '-25', 'lon': '135', 'country_code3': 'AUS', 'geonameid': '2077456', 'place_name': 'Commonwealth of Australia', 'feature_class': 'A', 'feature_code': 'PCLI'}}
{'word': 'Aust', 'spans': [{'start': 0, 'end': 4}], 'country_predicted': 'IDN', 'country_conf': 0.28365934}
{'word': 'Resour', 'spans': [{'start': 0, 'end': 6}], 'country_predicted': 'FRA', 'country_conf': 0.5714737}
{'word': 'Amsterdam', 'spans': [{'start': 0, 'end': 9}], 'country_predicted': 'NLD', 'country_conf': 0.957188, 'geo': {'admin1': 'North Holland', 'lat': '52.37302', 'lon': '4.89856', 'country_code3': 'NLD', 'geonameid': '2759793', 'place_name': 'Gemeente Amsterdam', 'feature_class': 'A', 'feature_code': 'ADM2'}}
{'word': 'London', 'spans': [{'start': 0, 'end': 6}], 'country_predicted': 'GBR', 'country_conf': 0.957188, 'geo': {'admin1': 'England', 'lat': '51.49227', 'lon': '-0.30864', 'country_code3': 'GBR', 'geonameid': '11591955', 'place_name': 'London', 'feature_class': 'L', 'feature_code': 'RGN'}}
{'word': 'Paulo', 'spans': [{'start': 0, 'end': 5}], 'country_predicted': 'BRA', 'country_conf': 0.7178229, 'geo': {'admin1': 'So Paulo', 'lat': '-22', 'lon': '-49', 'country_code3': 'BRA', 'geonameid': '3448433', 'place_name': 'So Paulo', 'feature_class': 'A', 'feature_code': 'ADM1'}}
{'word': 'Brazil', 'spans': [{'start': 0, 'end': 6}], 'country_predicted': 'BRA', 'country_conf': 0.9516948, 'geo': {'admin1': 'NA', 'lat': '-10', 'lon': '-55', 'country_code3': 'BRA', 'geonameid': '3469034', 'place_name': 'Federative Republic of Brazil', 'feature_class': 'A', 'feature_code': 'PCLI'}}
{'word': 'Mexico', 'spans': [{'start': 0, 'end': 6}], 'country_predicted': 'MEX', 'country_conf': 0.9516948, 'geo': {'admin1': 'NA', 'lat': '23', 'lon': '-102', 'country_code3': 'MEX', 'geonameid': '3996063', 'place_name': 'Mexico', 'feature_class': 'A', 'feature_code': 'PCLI'}}
{'word': 'Maryland', 'spans': [{'start': 0, 'end': 8}], 'country_predicted': 'USA', 'country_conf': 0.9634983, 'geo': {'admin1': 'Maryland', 'lat': '39.00039', 'lon': '-76.74997', 'country_code3': 'USA', 'geonameid': '4361885', 'place_name': 'Maryland', 'feature_class': 'A', 'feature_code': 'ADM1'}}
{'word': 'Soc', 'spans': [{'start': 0, 'end': 3}], 'country_predicted': 'VNM', 'country_conf': 0.87992215, 'geo': {'admin1': 'Sc Trng', 'lat': '9.59995', 'lon': '105.97193', 'country_code3': 'VNM', 'geonameid': '1567788', 'place_name': 'Sc Trng', 'feature_class': 'P', 'feature_code': 'PPLA'}}
{'word': 'W.A.', 'spans': [{'start': 0, 'end': 4}], 'country_predicted': 'NZL', 'country_conf': 0.9048774, 'geo': {'admin1': 'Wellington', 'lat': '-40.69826', 'lon': '175.65021', 'country_code3': 'NZL', 'geonameid': '6227964', 'place_name': 'W.A. Miller Reserve', 'feature_class': 'L', 'feature_code': 'PRK'}}
{'word': 'London', 'spans': [{'start': 0, 'end': 6}], 'country_predicted': 'GBR', 'country_conf': 0.957188, 'geo': {'admin1': 'England', 'lat': '51.49227', 'lon': '-0.30864', 'country_code3': 'GBR', 'geonameid': '11591955', 'place_name': 'London', 'feature_class': 'L', 'feature_code': 'RGN'}}
{'word': 'W.A.', 'spans': [{'start': 0, 'end': 4}], 'country_predicted': 'NZL', 'country_conf': 0.9048774, 'geo': {'admin1': 'Wellington', 'lat': '-40.69826', 'lon': '175.65021', 'country_code3': 'NZL', 'geonameid': '6227964', 'place_name': 'W.A. Miller Reserve', 'feature_class': 'L', 'feature_code': 'PRK'}}
{'word': 'London', 'spans': [{'start': 0, 'end': 6}], 'country_predicted': 'GBR', 'country_conf': 0.957188, 'geo': {'admin1': 'England', 'lat': '51.49227', 'lon': '-0.30864', 'country_code3': 'GBR', 'geonameid': '11591955', 'place_name': 'London', 'feature_class': 'L', 'feature_code': 'RGN'}}
{'word': 'W.A.', 'spans': [{'start': 0, 'end': 4}], 'country_predicted': 'NZL', 'country_conf': 0.9048774, 'geo': {'admin1': 'Wellington', 'lat': '-40.69826', 'lon': '175.65021', 'country_code3': 'NZL', 'geonameid': '6227964', 'place_name': 'W.A. Miller Reserve', 'feature_class': 'L', 'feature_code': 'PRK'}}
{'word': 'London', 'spans': [{'start': 0, 'end': 6}], 'country_predicted': 'GBR', 'country_conf': 0.957188, 'geo': {'admin1': 'England', 'lat': '51.49227', 'lon': '-0.30864', 'country_code3': 'GBR', 'geonameid': '11591955', 'place_name': 'London', 'feature_class': 'L', 'feature_code': 'RGN'}}
{'word': 'London', 'spans': [{'start': 0, 'end': 6}], 'country_predicted': 'GBR', 'country_conf': 0.957188, 'geo': {'admin1': 'England', 'lat': '51.49227', 'lon': '-0.30864', 'country_code3': 'GBR', 'geonameid': '11591955', 'place_name': 'London', 'feature_class': 'L', 'feature_code': 'RGN'}}
{'word': 'Permian', 'spans': [{'start': 0, 'end': 7}], 'country_predicted': 'AUS', 'country_conf': 0.9048774, 'geo': {'admin1': 'Queensland', 'lat': '-23.81389', 'lon': '151.24444', 'country_code3': 'AUS', 'geonameid': '2153421', 'place_name': 'Permian Point', 'feature_class': 'T', 'feature_code': 'PT'}}
{'word': 'Queensland', 'spans': [{'start': 0, 'end': 10}], 'country_predicted': 'AUS', 'country_conf': 0.957188, 'geo': {'admin1': 'Queensland', 'lat': '-20', 'lon': '145', 'country_code3': 'AUS', 'geonameid': '2152274', 'place_name': 'State of Queensland', 'feature_class': 'A', 'feature_code': 'ADM1'}}
{'word': 'France', 'spans': [{'start': 1, 'end': 7}], 'country_predicted': 'FRA', 'country_conf': 0.9516948, 'geo': {'admin1': 'NA', 'lat': '46', 'lon': '2', 'country_code3': 'FRA', 'geonameid': '3017382', 'place_name': 'Republic of France', 'feature_class': 'A', 'feature_code': 'PCLI'}}
{'word': 'trometry', 'spans': [{'start': 0, 'end': 8}], 'country_predicted': '', 'country_conf': 0}
{'word': 'Paris', 'spans': [{'start': 0, 'end': 5}], 'country_predicted': 'FRA', 'country_conf': 0.957188, 'geo': {'admin1': 'le-de-France', 'lat': '48.85339', 'lon': '2.34864', 'country_code3': 'FRA', 'geonameid': '2988506', 'place_name': 'Paris', 'feature_class': 'A', 'feature_code': 'ADM3'}}
{'word': 'F.C.', 'spans': [{'start': 0, 'end': 4}], 'country_predicted': 'AUS', 'country_conf': 0.28868946}
{'word': 'Sydney', 'spans': [{'start': 0, 'end': 6}], 'country_predicted': 'AUS', 'country_conf': 0.957188, 'geo': {'admin1': 'New South Wales', 'lat': '-33.86785', 'lon': '151.20732', 'country_code3': 'AUS', 'geonameid': '2147714', 'place_name': 'Sydney', 'feature_class': 'P', 'feature_code': 'PPLA'}}
{'word': 'Soc', 'spans': [{'start': 0, 'end': 3}], 'country_predicted': 'VNM', 'country_conf': 0.87992215, 'geo': {'admin1': 'Sc Trng', 'lat': '9.59995', 'lon': '105.97193', 'country_code3': 'VNM', 'geonameid': '1567788', 'place_name': 'Sc Trng', 'feature_class': 'P', 'feature_code': 'PPLA'}}
{'word': 'London', 'spans': [{'start': 0, 'end': 6}], 'country_predicted': 'GBR', 'country_conf': 0.957188, 'geo': {'admin1': 'England', 'lat': '51.49227', 'lon': '-0.30864', 'country_code3': 'GBR', 'geonameid': '11591955', 'place_name': 'London', 'feature_class': 'L', 'feature_code': 'RGN'}}
{'word': 'Berlin', 'spans': [{'start': 0, 'end': 6}], 'country_predicted': 'DEU', 'country_conf': 0.957188, 'geo': {'admin1': 'Berlin', 'lat': '52.5233', 'lon': '13.41377', 'country_code3': 'DEU', 'geonameid': '6547383', 'place_name': 'Berlin, Stadt', 'feature_class': 'A', 'feature_code': 'ADM3'}}
{'word': 'goethites', 'spans': [{'start': 0, 'end': 9}], 'country_predicted': 'CAN', 'country_conf': 0.9528109, 'geo': {'admin1': 'British Columbia', 'lat': '50.90269', 'lon': '-117.27163', 'country_code3': 'CAN', 'geonameid': '5960589', 'place_name': 'Geothite Peak', 'feature_class': 'T', 'feature_code': 'PK'}}
{'word': 'Ozkan', 'spans': [{'start': 0, 'end': 5}], 'country_predicted': 'TUR', 'country_conf': 0.9528109, 'geo': {'admin1': 'Afyonkarahisar', 'lat': '39.00369', 'lon': '31.64181', 'country_code3': 'TUR', 'geonameid': '8235672', 'place_name': 'zhan', 'feature_class': 'P', 'feature_code': 'PPL'}}
{'word': 'Brunswick', 'spans': [{'start': 0, 'end': 9}], 'country_predicted': 'CAN', 'country_conf': 0.87992215, 'geo': {'admin1': 'New Brunswick', 'lat': '46.5001', 'lon': '-65.99878', 'country_code3': 'CAN', 'geonameid': '6087430', 'place_name': 'New Brunswick/Nouveau-Brunswick', 'feature_class': 'A', 'feature_code': 'ADM1'}}
{'word': 'Australia', 'spans': [{'start': 0, 'end': 9}], 'country_predicted': 'AUS', 'country_conf': 0.9516948, 'geo': {'admin1': 'NA', 'lat': '-25', 'lon': '135', 'country_code3': 'AUS', 'geonameid': '2077456', 'place_name': 'Commonwealth of Australia', 'feature_class': 'A', 'feature_code': 'PCLI'}}
{'word': 'Soc', 'spans': [{'start': 0, 'end': 3}], 'country_predicted': 'VNM', 'country_conf': 0.87992215, 'geo': {'admin1': 'Sc Trng', 'lat': '9.59995', 'lon': '105.97193', 'country_code3': 'VNM', 'geonameid': '1567788', 'place_name': 'Sc Trng', 'feature_class': 'P', 'feature_code': 'PPLA'}}
{'word': 'Aust', 'spans': [{'start': 0, 'end': 4}], 'country_predicted': 'IDN', 'country_conf': 0.28365934}
{'word': 'Berlin', 'spans': [{'start': 0, 'end': 6}], 'country_predicted': 'DEU', 'country_conf': 0.957188, 'geo': {'admin1': 'Berlin', 'lat': '52.5233', 'lon': '13.41377', 'country_code3': 'DEU', 'geonameid': '6547383', 'place_name': 'Berlin, Stadt', 'feature_class': 'A', 'feature_code': 'ADM3'}}
{'word': 'Perthshire', 'spans': [{'start': 0, 'end': 10}], 'country_predicted': 'GBR', 'country_conf': 0.96374094, 'geo': {'admin1': 'Scotland', 'lat': '56.41942', 'lon': '-3.40507', 'country_code3': 'GBR', 'geonameid': '2641577', 'place_name': 'Scone', 'feature_class': 'P', 'feature_code': 'PPL'}}
{'word': 'Hajek', 'spans': [{'start': 0, 'end': 5}], 'country_predicted': 'CZE', 'country_conf': 0.9528109, 'geo': {'admin1': 'Karlovarsk', 'lat': '50.28314', 'lon': '12.9197', 'country_code3': 'CZE', 'geonameid': '3076013', 'place_name': 'Hjek', 'feature_class': 'P', 'feature_code': 'PPL'}}
{'word': 'Soc', 'spans': [{'start': 0, 'end': 3}], 'country_predicted': 'VNM', 'country_conf': 0.87992215, 'geo': {'admin1': 'Sc Trng', 'lat': '9.59995', 'lon': '105.97193', 'country_code3': 'VNM', 'geonameid': '1567788', 'place_name': 'Sc Trng', 'feature_class': 'P', 'feature_code': 'PPLA'}}
{'word': 'Wisc', 'spans': [{'start': 0, 'end': 4}], 'country_predicted': 'USA', 'country_conf': 0.96374094, 'geo': {'admin1': 'Wisconsin', 'lat': '43.03111', 'lon': '-89.50512', 'country_code3': 'USA', 'geonameid': '5277437', 'place_name': 'WISC-TV (Madison)', 'feature_class': 'S', 'feature_code': 'TOWR'}}
{'word': 'Soc', 'spans': [{'start': 0, 'end': 3}], 'country_predicted': 'VNM', 'country_conf': 0.87992215, 'geo': {'admin1': 'Sc Trng', 'lat': '9.59995', 'lon': '105.97193', 'country_code3': 'VNM', 'geonameid': '1567788', 'place_name': 'Sc Trng', 'feature_class': 'P', 'feature_code': 'PPLA'}}
{'word': 'Norwich', 'spans': [{'start': 0, 'end': 7}], 'country_predicted': 'GBR', 'country_conf': 0.87992215, 'geo': {'admin1': 'England', 'lat': '52.62783', 'lon': '1.29834', 'country_code3': 'GBR', 'geonameid': '2641181', 'place_name': 'Norwich', 'feature_class': 'P', 'feature_code': 'PPLA2'}}
{'word': 'Galilee', 'spans': [{'start': 0, 'end': 7}], 'country_predicted': 'USA', 'country_conf': 0.28365934}
{'word': 'Israel', 'spans': [{'start': 0, 'end': 6}], 'country_predicted': 'ISR', 'country_conf': 0.9516948, 'geo': {'admin1': 'NA', 'lat': '31.5', 'lon': '34.75', 'country_code3': 'ISR', 'geonameid': '294640', 'place_name': 'State of Israel', 'feature_class': 'A', 'feature_code': 'PCLI'}}
{'word': 'pseudorutile', 'spans': [{'start': 0, 'end': 12}], 'country_predicted': '', 'country_conf': 0}
{'word': 'Mn', 'spans': [{'start': 0, 'end': 2}], 'country_predicted': 'USA', 'country_conf': 0.96374094, 'geo': {'admin1': 'Minnesota', 'lat': '44.98043', 'lon': '-93.46116', 'country_code3': 'USA', 'geonameid': '10942549', 'place_name': 'Country Inn & Suites By Carlson, Minneapolis West, MN', 'feature_class': 'S', 'feature_code': 'HTL'}}
