{'word': 'Amsterdam', 'spans': [{'start': 0, 'end': 9}], 'country_predicted': 'NLD', 'country_conf': 0.957188, 'geo': {'admin1': 'North Holland', 'lat': '52.37302', 'lon': '4.89856', 'country_code3': 'NLD', 'geonameid': '2759793', 'place_name': 'Gemeente Amsterdam', 'feature_class': 'A', 'feature_code': 'ADM2'}}
{'word': 'Netherlands', 'spans': [{'start': 0, 'end': 11}], 'country_predicted': 'NLD', 'country_conf': 0.6948644, 'geo': {'admin1': 'NA', 'lat': '52.25', 'lon': '5.75', 'country_code3': 'NLD', 'geonameid': '2750405', 'place_name': 'Kingdom of the Netherlands', 'feature_class': 'A', 'feature_code': 'PCLI'}}
{'word': 'QUEBEC', 'spans': [{'start': 0, 'end': 6}], 'country_predicted': 'CAN', 'country_conf': 0.87992215, 'geo': {'admin1': 'Quebec', 'lat': '52.00017', 'lon': '-71.99907', 'country_code3': 'CAN', 'geonameid': '6115047', 'place_name': 'Qubec', 'feature_class': 'A', 'feature_code': 'ADM1'}}
{'word': 'France', 'spans': [{'start': 1, 'end': 7}], 'country_predicted': 'FRA', 'country_conf': 0.9516948, 'geo': {'admin1': 'NA', 'lat': '46', 'lon': '2', 'country_code3': 'FRA', 'geonameid': '3017382', 'place_name': 'Republic of France', 'feature_class': 'A', 'feature_code': 'PCLI'}}
{'word': 'Canada', 'spans': [{'start': 0, 'end': 6}], 'country_predicted': 'CAN', 'country_conf': 0.9516948, 'geo': {'admin1': 'NA', 'lat': '60.10867', 'lon': '-113.64258', 'country_code3': 'CAN', 'geonameid': '6251999', 'place_name': 'Canada', 'feature_class': 'A', 'feature_code': 'PCLI'}}
{'word': 'Quebec', 'spans': [{'start': 0, 'end': 6}], 'country_predicted': 'CAN', 'country_conf': 0.87992215, 'geo': {'admin1': 'Quebec', 'lat': '52.00017', 'lon': '-71.99907', 'country_code3': 'CAN', 'geonameid': '6115047', 'place_name': 'Qubec', 'feature_class': 'A', 'feature_code': 'ADM1'}}
{'word': 'Canada', 'spans': [{'start': 1, 'end': 7}], 'country_predicted': 'CAN', 'country_conf': 0.9516948, 'geo': {'admin1': 'NA', 'lat': '60.10867', 'lon': '-113.64258', 'country_code3': 'CAN', 'geonameid': '6251999', 'place_name': 'Canada', 'feature_class': 'A', 'feature_code': 'PCLI'}}
{'word': 'Quebec', 'spans': [{'start': 0, 'end': 6}], 'country_predicted': 'CAN', 'country_conf': 0.87992215, 'geo': {'admin1': 'Quebec', 'lat': '52.00017', 'lon': '-71.99907', 'country_code3': 'CAN', 'geonameid': '6115047', 'place_name': 'Qubec', 'feature_class': 'A', 'feature_code': 'ADM1'}}
{'word': 'Canada', 'spans': [{'start': 1, 'end': 7}], 'country_predicted': 'CAN', 'country_conf': 0.9516948, 'geo': {'admin1': 'NA', 'lat': '60.10867', 'lon': '-113.64258', 'country_code3': 'CAN', 'geonameid': '6251999', 'place_name': 'Canada', 'feature_class': 'A', 'feature_code': 'PCLI'}}
{'word': 'Canada', 'spans': [{'start': 1, 'end': 7}], 'country_predicted': 'CAN', 'country_conf': 0.9516948, 'geo': {'admin1': 'NA', 'lat': '60.10867', 'lon': '-113.64258', 'country_code3': 'CAN', 'geonameid': '6251999', 'place_name': 'Canada', 'feature_class': 'A', 'feature_code': 'PCLI'}}
{'word': 'mars', 'spans': [{'start': 0, 'end': 4}], 'country_predicted': 'USA', 'country_conf': 0.28365934}
{'word': 'Quebec', 'spans': [{'start': 0, 'end': 6}], 'country_predicted': 'CAN', 'country_conf': 0.87992215, 'geo': {'admin1': 'Quebec', 'lat': '52.00017', 'lon': '-71.99907', 'country_code3': 'CAN', 'geonameid': '6115047', 'place_name': 'Qubec', 'feature_class': 'A', 'feature_code': 'ADM1'}}
{'word': 'Quebec', 'spans': [{'start': 0, 'end': 6}], 'country_predicted': 'CAN', 'country_conf': 0.87992215, 'geo': {'admin1': 'Quebec', 'lat': '52.00017', 'lon': '-71.99907', 'country_code3': 'CAN', 'geonameid': '6115047', 'place_name': 'Qubec', 'feature_class': 'A', 'feature_code': 'ADM1'}}
{'word': 'Quebec', 'spans': [{'start': 0, 'end': 6}], 'country_predicted': 'CAN', 'country_conf': 0.87992215, 'geo': {'admin1': 'Quebec', 'lat': '52.00017', 'lon': '-71.99907', 'country_code3': 'CAN', 'geonameid': '6115047', 'place_name': 'Qubec', 'feature_class': 'A', 'feature_code': 'ADM1'}}
{'word': 'Quebec', 'spans': [{'start': 0, 'end': 6}], 'country_predicted': 'CAN', 'country_conf': 0.87992215, 'geo': {'admin1': 'Quebec', 'lat': '52.00017', 'lon': '-71.99907', 'country_code3': 'CAN', 'geonameid': '6115047', 'place_name': 'Qubec', 'feature_class': 'A', 'feature_code': 'ADM1'}}
{'word': 'il', 'spans': [{'start': 0, 'end': 2}], 'country_predicted': 'ITA', 'country_conf': 0.28365934}
{'word': 'Quebec', 'spans': [{'start': 0, 'end': 6}], 'country_predicted': 'CAN', 'country_conf': 0.87992215, 'geo': {'admin1': 'Quebec', 'lat': '52.00017', 'lon': '-71.99907', 'country_code3': 'CAN', 'geonameid': '6115047', 'place_name': 'Qubec', 'feature_class': 'A', 'feature_code': 'ADM1'}}
{'word': 'al.', 'spans': [{'start': 0, 'end': 3}], 'country_predicted': 'IRQ', 'country_conf': 0.28365934}
{'word': 'il', 'spans': [{'start': 0, 'end': 2}], 'country_predicted': 'ITA', 'country_conf': 0.28365934}
{'word': 'al.', 'spans': [{'start': 0, 'end': 3}], 'country_predicted': 'IRQ', 'country_conf': 0.28365934}
{'word': 'Kimpe', 'spans': [{'start': 0, 'end': 5}], 'country_predicted': 'COD', 'country_conf': 0.9528109, 'geo': {'admin1': 'NA', 'lat': '-12.03497', 'lon': '27.88143', 'country_code3': 'COD', 'geonameid': '10275659', 'place_name': 'Kimpe-Sud-Occidental', 'feature_class': 'S', 'feature_code': 'TRIG'}}
{'word': 'al.', 'spans': [{'start': 0, 'end': 3}], 'country_predicted': 'IRQ', 'country_conf': 0.28365934}
{'word': 'Quebec', 'spans': [{'start': 0, 'end': 6}], 'country_predicted': 'CAN', 'country_conf': 0.87992215, 'geo': {'admin1': 'Quebec', 'lat': '52.00017', 'lon': '-71.99907', 'country_code3': 'CAN', 'geonameid': '6115047', 'place_name': 'Qubec', 'feature_class': 'A', 'feature_code': 'ADM1'}}
{'word': 'al.', 'spans': [{'start': 0, 'end': 3}], 'country_predicted': 'IRQ', 'country_conf': 0.28365934}
{'word': 'al.', 'spans': [{'start': 0, 'end': 3}], 'country_predicted': 'IRQ', 'country_conf': 0.28365934}
{'word': 'laurentidiennes', 'spans': [{'start': 0, 'end': 15}], 'country_predicted': '', 'country_conf': 0}
{'word': 'schistes', 'spans': [{'start': 0, 'end': 8}], 'country_predicted': 'CAN', 'country_conf': 0.9528109, 'geo': {'admin1': 'Quebec', 'lat': '56.74447', 'lon': '-69.01789', 'country_code3': 'CAN', 'geonameid': '5922284', 'place_name': 'Chute aux Schistes', 'feature_class': 'H', 'feature_code': 'OVF'}}
{'word': "d'ann", 'spans': [{'start': 0, 'end': 5}], 'country_predicted': 'MMR', 'country_conf': 0.9528109, 'geo': {'admin1': 'Rakhine', 'lat': '19.77157', 'lon': '94.02654', 'country_code3': 'MMR', 'geonameid': '8435631', 'place_name': 'Ann Airport', 'feature_class': 'S', 'feature_code': 'AIRP'}}
{'word': 'CaCI2', 'spans': [{'start': 0, 'end': 5}], 'country_predicted': 'PRT', 'country_conf': 0.5339668}
{'word': 'subang', 'spans': [{'start': 0, 'end': 6}], 'country_predicted': 'IDN', 'country_conf': 0.28365934}
{'word': 'subang', 'spans': [{'start': 0, 'end': 6}], 'country_predicted': 'IDN', 'country_conf': 0.28365934}
{'word': 'subang', 'spans': [{'start': 0, 'end': 6}], 'country_predicted': 'IDN', 'country_conf': 0.28365934}
{'word': 'poly', 'spans': [{'start': 0, 'end': 4}], 'country_predicted': 'HTI', 'country_conf': 0.28868946}
{'word': 'particuli', 'spans': [{'start': 0, 'end': 9}], 'country_predicted': '', 'country_conf': 0}
{'word': 'Quebec', 'spans': [{'start': 0, 'end': 6}], 'country_predicted': 'CAN', 'country_conf': 0.87992215, 'geo': {'admin1': 'Quebec', 'lat': '52.00017', 'lon': '-71.99907', 'country_code3': 'CAN', 'geonameid': '6115047', 'place_name': 'Qubec', 'feature_class': 'A', 'feature_code': 'ADM1'}}
{'word': 'il', 'spans': [{'start': 0, 'end': 2}], 'country_predicted': 'ITA', 'country_conf': 0.28365934}
{'word': 'Kimpe', 'spans': [{'start': 0, 'end': 5}], 'country_predicted': 'COD', 'country_conf': 0.9528109, 'geo': {'admin1': 'NA', 'lat': '-12.03497', 'lon': '27.88143', 'country_code3': 'COD', 'geonameid': '10275659', 'place_name': 'Kimpe-Sud-Occidental', 'feature_class': 'S', 'feature_code': 'TRIG'}}
{'word': 'al.', 'spans': [{'start': 0, 'end': 3}], 'country_predicted': 'IRQ', 'country_conf': 0.28365934}
{'word': 'atiques', 'spans': [{'start': 4, 'end': 11}], 'country_predicted': 'BRA', 'country_conf': 0.5714737}
{'word': 'Kimpe', 'spans': [{'start': 0, 'end': 5}], 'country_predicted': 'COD', 'country_conf': 0.9528109, 'geo': {'admin1': 'NA', 'lat': '-12.03497', 'lon': '27.88143', 'country_code3': 'COD', 'geonameid': '10275659', 'place_name': 'Kimpe-Sud-Occidental', 'feature_class': 'S', 'feature_code': 'TRIG'}}
{'word': 'al.', 'spans': [{'start': 0, 'end': 3}], 'country_predicted': 'IRQ', 'country_conf': 0.28365934}
{'word': 'Mehuys', 'spans': [{'start': 0, 'end': 6}], 'country_predicted': 'IND', 'country_conf': 0.5714737}
{'word': 'abondantes', 'spans': [{'start': 0, 'end': 10}], 'country_predicted': '', 'country_conf': 0}
{'word': 'polymorphe', 'spans': [{'start': 0, 'end': 10}], 'country_predicted': '', 'country_conf': 0}
{'word': 'limon', 'spans': [{'start': 0, 'end': 5}], 'country_predicted': 'CRI', 'country_conf': 0.87992215, 'geo': {'admin1': 'Limn', 'lat': '10', 'lon': '-83.21667', 'country_code3': 'CRI', 'geonameid': '3623064', 'place_name': 'Provincia de Limn', 'feature_class': 'A', 'feature_code': 'ADM1'}}
{'word': 'vfig6taux', 'spans': [{'start': 0, 'end': 9}], 'country_predicted': '', 'country_conf': 0}
{'word': 'limon', 'spans': [{'start': 0, 'end': 5}], 'country_predicted': 'CRI', 'country_conf': 0.87992215, 'geo': {'admin1': 'Limn', 'lat': '10', 'lon': '-83.21667', 'country_code3': 'CRI', 'geonameid': '3623064', 'place_name': 'Provincia de Limn', 'feature_class': 'A', 'feature_code': 'ADM1'}}
{'word': 'centim', 'spans': [{'start': 0, 'end': 6}], 'country_predicted': 'ITA', 'country_conf': 0.92213035, 'geo': {'admin1': 'Emilia-Romagna', 'lat': '44.73099', 'lon': '11.28716', 'country_code3': 'ITA', 'geonameid': '3179162', 'place_name': 'Cento', 'feature_class': 'P', 'feature_code': 'PPLA3'}}
{'word': 'limons', 'spans': [{'start': 0, 'end': 6}], 'country_predicted': 'USA', 'country_conf': 0.92213035, 'geo': {'admin1': 'Colorado', 'lat': '39.26388', 'lon': '-103.69217', 'country_code3': 'USA', 'geonameid': '5428504', 'place_name': 'Limon', 'feature_class': 'P', 'feature_code': 'PPL'}}
{'word': 'limons', 'spans': [{'start': 0, 'end': 6}], 'country_predicted': 'USA', 'country_conf': 0.92213035, 'geo': {'admin1': 'Colorado', 'lat': '39.26388', 'lon': '-103.69217', 'country_code3': 'USA', 'geonameid': '5428504', 'place_name': 'Limon', 'feature_class': 'P', 'feature_code': 'PPL'}}
{'word': 'limon', 'spans': [{'start': 0, 'end': 5}], 'country_predicted': 'CRI', 'country_conf': 0.87992215, 'geo': {'admin1': 'Limn', 'lat': '10', 'lon': '-83.21667', 'country_code3': 'CRI', 'geonameid': '3623064', 'place_name': 'Provincia de Limn', 'feature_class': 'A', 'feature_code': 'ADM1'}}
{'word': 'parsemant', 'spans': [{'start': 0, 'end': 9}], 'country_predicted': '', 'country_conf': 0}
{'word': 'al.', 'spans': [{'start': 0, 'end': 3}], 'country_predicted': 'IRQ', 'country_conf': 0.28365934}
{'word': 'il', 'spans': [{'start': 0, 'end': 2}], 'country_predicted': 'ITA', 'country_conf': 0.28365934}
{'word': 'il', 'spans': [{'start': 0, 'end': 2}], 'country_predicted': 'ITA', 'country_conf': 0.28365934}
{'word': 'al.', 'spans': [{'start': 0, 'end': 3}], 'country_predicted': 'IRQ', 'country_conf': 0.28365934}
{'word': 'al.', 'spans': [{'start': 0, 'end': 3}], 'country_predicted': 'IRQ', 'country_conf': 0.28365934}
{'word': 'cliverses', 'spans': [{'start': 0, 'end': 9}], 'country_predicted': '', 'country_conf': 0}
{'word': 'bacle', 'spans': [{'start': 0, 'end': 5}], 'country_predicted': 'FRA', 'country_conf': 0.92213035, 'geo': {'admin1': 'le-de-France', 'lat': '48.72556', 'lon': '2.12583', 'country_code3': 'FRA', 'geonameid': '6446229', 'place_name': 'Villiers-le-Bcle', 'feature_class': 'A', 'feature_code': 'ADM4'}}
{'word': 'France', 'spans': [{'start': 0, 'end': 6}], 'country_predicted': 'FRA', 'country_conf': 0.9516948, 'geo': {'admin1': 'NA', 'lat': '46', 'lon': '2', 'country_code3': 'FRA', 'geonameid': '3017382', 'place_name': 'Republic of France', 'feature_class': 'A', 'feature_code': 'PCLI'}}
{'word': 'Quebec', 'spans': [{'start': 0, 'end': 6}], 'country_predicted': 'CAN', 'country_conf': 0.87992215, 'geo': {'admin1': 'Quebec', 'lat': '52.00017', 'lon': '-71.99907', 'country_code3': 'CAN', 'geonameid': '6115047', 'place_name': 'Qubec', 'feature_class': 'A', 'feature_code': 'ADM1'}}
{'word': 'France', 'spans': [{'start': 0, 'end': 6}], 'country_predicted': 'FRA', 'country_conf': 0.9516948, 'geo': {'admin1': 'NA', 'lat': '46', 'lon': '2', 'country_code3': 'FRA', 'geonameid': '3017382', 'place_name': 'Republic of France', 'feature_class': 'A', 'feature_code': 'PCLI'}}
{'word': 'limons', 'spans': [{'start': 0, 'end': 6}], 'country_predicted': 'USA', 'country_conf': 0.92213035, 'geo': {'admin1': 'Colorado', 'lat': '39.26388', 'lon': '-103.69217', 'country_code3': 'USA', 'geonameid': '5428504', 'place_name': 'Limon', 'feature_class': 'P', 'feature_code': 'PPL'}}
{'word': 'loameux', 'spans': [{'start': 0, 'end': 7}], 'country_predicted': 'VUT', 'country_conf': 0.9528109, 'geo': {'admin1': 'Torba', 'lat': '-13.6132', 'lon': '167.53377', 'country_code3': 'VUT', 'geonameid': '2135861', 'place_name': 'Lomeur Island', 'feature_class': 'T', 'feature_code': 'ISL'}}
{'word': 'organiques', 'spans': [{'start': 0, 'end': 10}], 'country_predicted': '', 'country_conf': 0}
{'word': 'il', 'spans': [{'start': 0, 'end': 2}], 'country_predicted': 'ITA', 'country_conf': 0.28365934}
{'word': 'Quebec', 'spans': [{'start': 0, 'end': 6}], 'country_predicted': 'CAN', 'country_conf': 0.87992215, 'geo': {'admin1': 'Quebec', 'lat': '52.00017', 'lon': '-71.99907', 'country_code3': 'CAN', 'geonameid': '6115047', 'place_name': 'Qubec', 'feature_class': 'A', 'feature_code': 'ADM1'}}
{'word': 'loameux', 'spans': [{'start': 0, 'end': 7}], 'country_predicted': 'VUT', 'country_conf': 0.9528109, 'geo': {'admin1': 'Torba', 'lat': '-13.6132', 'lon': '167.53377', 'country_code3': 'VUT', 'geonameid': '2135861', 'place_name': 'Lomeur Island', 'feature_class': 'T', 'feature_code': 'ISL'}}
{'word': 'il', 'spans': [{'start': 0, 'end': 2}], 'country_predicted': 'ITA', 'country_conf': 0.28365934}
{'word': 'localement', 'spans': [{'start': 0, 'end': 10}], 'country_predicted': '', 'country_conf': 0}
{'word': 'al.', 'spans': [{'start': 0, 'end': 3}], 'country_predicted': 'IRQ', 'country_conf': 0.28365934}
{'word': 'soit', 'spans': [{'start': 0, 'end': 4}], 'country_predicted': 'KEN', 'country_conf': 0.9048774, 'geo': {'admin1': 'Narok', 'lat': '-1.29987', 'lon': '34.95212', 'country_code3': 'KEN', 'geonameid': '180002', 'place_name': 'Esoit Oloololo Escarpment', 'feature_class': 'T', 'feature_code': 'SCRP'}}
{'word': 'liant', 'spans': [{'start': 0, 'end': 5}], 'country_predicted': 'THA', 'country_conf': 0.9528109, 'geo': {'admin1': 'Chon Buri', 'lat': '12.59497', 'lon': '100.96227', 'country_code3': 'THA', 'geonameid': '1606733', 'place_name': 'Laem Samae San', 'feature_class': 'T', 'feature_code': 'PT'}}
{'word': 'al.', 'spans': [{'start': 0, 'end': 3}], 'country_predicted': 'IRQ', 'country_conf': 0.28365934}
{'word': 'al.', 'spans': [{'start': 0, 'end': 3}], 'country_predicted': 'IRQ', 'country_conf': 0.28365934}
{'word': 'texturale', 'spans': [{'start': 0, 'end': 9}], 'country_predicted': '', 'country_conf': 0}
{'word': 'ind', 'spans': [{'start': 0, 'end': 3}], 'country_predicted': 'IND', 'country_conf': 0.28868946}
{'word': 'sup', 'spans': [{'start': 0, 'end': 3}], 'country_predicted': 'ITA', 'country_conf': 0.28365934}
{'word': 'appauvris', 'spans': [{'start': 0, 'end': 9}], 'country_predicted': '', 'country_conf': 0}
{'word': 'Quebec', 'spans': [{'start': 0, 'end': 6}], 'country_predicted': 'CAN', 'country_conf': 0.87992215, 'geo': {'admin1': 'Quebec', 'lat': '52.00017', 'lon': '-71.99907', 'country_code3': 'CAN', 'geonameid': '6115047', 'place_name': 'Qubec', 'feature_class': 'A', 'feature_code': 'ADM1'}}
{'word': 'simultan', 'spans': [{'start': 0, 'end': 8}], 'country_predicted': 'BGD', 'country_conf': 0.9528109, 'geo': {'admin1': 'Khulna', 'lat': '23.91693', 'lon': '89.00535', 'country_code3': 'BGD', 'geonameid': '1187850', 'place_name': 'Simulia Phulbria', 'feature_class': 'P', 'feature_code': 'PPL'}}
{'word': 'rieur', 'spans': [{'start': 4, 'end': 9}], 'country_predicted': 'VUT', 'country_conf': 0.9528109, 'geo': {'admin1': 'Torba', 'lat': '-13.42994', 'lon': '166.68051', 'country_code3': 'VUT', 'geonameid': '2134999', 'place_name': 'Baie Rieur', 'feature_class': 'H', 'feature_code': 'BGHT'}}
{'word': 'Quebec', 'spans': [{'start': 0, 'end': 6}], 'country_predicted': 'CAN', 'country_conf': 0.87992215, 'geo': {'admin1': 'Quebec', 'lat': '52.00017', 'lon': '-71.99907', 'country_code3': 'CAN', 'geonameid': '6115047', 'place_name': 'Qubec', 'feature_class': 'A', 'feature_code': 'ADM1'}}
{'word': 'Acton', 'spans': [{'start': 0, 'end': 5}], 'country_predicted': 'GBR', 'country_conf': 0.87992215, 'geo': {'admin1': 'England', 'lat': '51.50901', 'lon': '-0.2762', 'country_code3': 'GBR', 'geonameid': '2657697', 'place_name': 'Acton', 'feature_class': 'P', 'feature_code': 'PPL'}}
{'word': 'J.I.', 'spans': [{'start': 0, 'end': 4}], 'country_predicted': 'USA', 'country_conf': 0.9528109, 'geo': {'admin1': 'Florida', 'lat': '25.91265', 'lon': '-80.32856', 'country_code3': 'USA', 'geonameid': '10228963', 'place_name': 'J.I. Kislak Foundation', 'feature_class': 'S', 'feature_code': 'MUS'}}
{'word': 'Canada', 'spans': [{'start': 0, 'end': 6}], 'country_predicted': 'CAN', 'country_conf': 0.9516948, 'geo': {'admin1': 'NA', 'lat': '60.10867', 'lon': '-113.64258', 'country_code3': 'CAN', 'geonameid': '6251999', 'place_name': 'Canada', 'feature_class': 'A', 'feature_code': 'PCLI'}}
{'word': 'Edmonton', 'spans': [{'start': 0, 'end': 8}], 'country_predicted': 'CAN', 'country_conf': 0.87992215, 'geo': {'admin1': 'Alberta', 'lat': '53.53713', 'lon': '-113.49488', 'country_code3': 'CAN', 'geonameid': '11807182', 'place_name': 'Edmonton', 'feature_class': 'A', 'feature_code': 'ADM2'}}
{'word': 'Canada', 'spans': [{'start': 0, 'end': 6}], 'country_predicted': 'CAN', 'country_conf': 0.9516948, 'geo': {'admin1': 'NA', 'lat': '60.10867', 'lon': '-113.64258', 'country_code3': 'CAN', 'geonameid': '6251999', 'place_name': 'Canada', 'feature_class': 'A', 'feature_code': 'PCLI'}}
{'word': 'podzolized', 'spans': [{'start': 0, 'end': 10}], 'country_predicted': '', 'country_conf': 0}
{'word': 'Sweden', 'spans': [{'start': 0, 'end': 6}], 'country_predicted': 'SWE', 'country_conf': 0.9516948, 'geo': {'admin1': 'NA', 'lat': '62', 'lon': '15', 'country_code3': 'SWE', 'geonameid': '2661886', 'place_name': 'Kingdom of Sweden', 'feature_class': 'A', 'feature_code': 'PCLI'}}
{'word': 'Canada', 'spans': [{'start': 0, 'end': 6}], 'country_predicted': 'CAN', 'country_conf': 0.9516948, 'geo': {'admin1': 'NA', 'lat': '60.10867', 'lon': '-113.64258', 'country_code3': 'CAN', 'geonameid': '6251999', 'place_name': 'Canada', 'feature_class': 'A', 'feature_code': 'PCLI'}}
{'word': 'lake', 'spans': [{'start': 0, 'end': 4}], 'country_predicted': 'USA', 'country_conf': 0.7178229, 'geo': {'admin1': 'Michigan', 'lat': '43.17956', 'lon': '-83.3123', 'country_code3': 'USA', 'geonameid': '7259538', 'place_name': 'Barnes Lake-Millers Lake', 'feature_class': 'P', 'feature_code': 'PPL'}}
{'word': 'Canada', 'spans': [{'start': 0, 'end': 6}], 'country_predicted': 'CAN', 'country_conf': 0.9516948, 'geo': {'admin1': 'NA', 'lat': '60.10867', 'lon': '-113.64258', 'country_code3': 'CAN', 'geonameid': '6251999', 'place_name': 'Canada', 'feature_class': 'A', 'feature_code': 'PCLI'}}
{'word': 'Canada', 'spans': [{'start': 0, 'end': 6}], 'country_predicted': 'CAN', 'country_conf': 0.9516948, 'geo': {'admin1': 'NA', 'lat': '60.10867', 'lon': '-113.64258', 'country_code3': 'CAN', 'geonameid': '6251999', 'place_name': 'Canada', 'feature_class': 'A', 'feature_code': 'PCLI'}}
{'word': 'Kimpe', 'spans': [{'start': 0, 'end': 5}], 'country_predicted': 'COD', 'country_conf': 0.9528109, 'geo': {'admin1': 'NA', 'lat': '-12.03497', 'lon': '27.88143', 'country_code3': 'COD', 'geonameid': '10275659', 'place_name': 'Kimpe-Sud-Occidental', 'feature_class': 'S', 'feature_code': 'TRIG'}}
{'word': 'Quebec', 'spans': [{'start': 0, 'end': 6}], 'country_predicted': 'CAN', 'country_conf': 0.87992215, 'geo': {'admin1': 'Quebec', 'lat': '52.00017', 'lon': '-71.99907', 'country_code3': 'CAN', 'geonameid': '6115047', 'place_name': 'Qubec', 'feature_class': 'A', 'feature_code': 'ADM1'}}
{'word': 'France', 'spans': [{'start': 0, 'end': 6}], 'country_predicted': 'FRA', 'country_conf': 0.9516948, 'geo': {'admin1': 'NA', 'lat': '46', 'lon': '2', 'country_code3': 'FRA', 'geonameid': '3017382', 'place_name': 'Republic of France', 'feature_class': 'A', 'feature_code': 'PCLI'}}
{'word': 'Granada', 'spans': [{'start': 0, 'end': 7}], 'country_predicted': 'ESP', 'country_conf': 0.957188, 'geo': {'admin1': 'Andalusia', 'lat': '37.25', 'lon': '-3.25', 'country_code3': 'ESP', 'geonameid': '2517115', 'place_name': 'Provincia de Granada', 'feature_class': 'A', 'feature_code': 'ADM2'}}
{'word': 'Acton', 'spans': [{'start': 0, 'end': 5}], 'country_predicted': 'GBR', 'country_conf': 0.87992215, 'geo': {'admin1': 'England', 'lat': '51.50901', 'lon': '-0.2762', 'country_code3': 'GBR', 'geonameid': '2657697', 'place_name': 'Acton', 'feature_class': 'P', 'feature_code': 'PPL'}}
{'word': 'Canada', 'spans': [{'start': 0, 'end': 6}], 'country_predicted': 'CAN', 'country_conf': 0.9516948, 'geo': {'admin1': 'NA', 'lat': '60.10867', 'lon': '-113.64258', 'country_code3': 'CAN', 'geonameid': '6251999', 'place_name': 'Canada', 'feature_class': 'A', 'feature_code': 'PCLI'}}
{'word': 'Kimpe', 'spans': [{'start': 0, 'end': 5}], 'country_predicted': 'COD', 'country_conf': 0.9528109, 'geo': {'admin1': 'NA', 'lat': '-12.03497', 'lon': '27.88143', 'country_code3': 'COD', 'geonameid': '10275659', 'place_name': 'Kimpe-Sud-Occidental', 'feature_class': 'S', 'feature_code': 'TRIG'}}
{'word': 'Kimpe', 'spans': [{'start': 0, 'end': 5}], 'country_predicted': 'COD', 'country_conf': 0.9528109, 'geo': {'admin1': 'NA', 'lat': '-12.03497', 'lon': '27.88143', 'country_code3': 'COD', 'geonameid': '10275659', 'place_name': 'Kimpe-Sud-Occidental', 'feature_class': 'S', 'feature_code': 'TRIG'}}
{'word': 'Quebec', 'spans': [{'start': 0, 'end': 6}], 'country_predicted': 'CAN', 'country_conf': 0.87992215, 'geo': {'admin1': 'Quebec', 'lat': '52.00017', 'lon': '-71.99907', 'country_code3': 'CAN', 'geonameid': '6115047', 'place_name': 'Qubec', 'feature_class': 'A', 'feature_code': 'ADM1'}}
{'word': 'Kimpe', 'spans': [{'start': 0, 'end': 5}], 'country_predicted': 'COD', 'country_conf': 0.9528109, 'geo': {'admin1': 'NA', 'lat': '-12.03497', 'lon': '27.88143', 'country_code3': 'COD', 'geonameid': '10275659', 'place_name': 'Kimpe-Sud-Occidental', 'feature_class': 'S', 'feature_code': 'TRIG'}}
{'word': 'Quebec', 'spans': [{'start': 0, 'end': 6}], 'country_predicted': 'CAN', 'country_conf': 0.87992215, 'geo': {'admin1': 'Quebec', 'lat': '52.00017', 'lon': '-71.99907', 'country_code3': 'CAN', 'geonameid': '6115047', 'place_name': 'Qubec', 'feature_class': 'A', 'feature_code': 'ADM1'}}
{'word': 'Quebec', 'spans': [{'start': 0, 'end': 6}], 'country_predicted': 'CAN', 'country_conf': 0.87992215, 'geo': {'admin1': 'Quebec', 'lat': '52.00017', 'lon': '-71.99907', 'country_code3': 'CAN', 'geonameid': '6115047', 'place_name': 'Qubec', 'feature_class': 'A', 'feature_code': 'ADM1'}}
{'word': 'Quebec', 'spans': [{'start': 0, 'end': 6}], 'country_predicted': 'CAN', 'country_conf': 0.87992215, 'geo': {'admin1': 'Quebec', 'lat': '52.00017', 'lon': '-71.99907', 'country_code3': 'CAN', 'geonameid': '6115047', 'place_name': 'Qubec', 'feature_class': 'A', 'feature_code': 'ADM1'}}
{'word': 'vols.', 'spans': [{'start': 0, 'end': 5}], 'country_predicted': 'NLD', 'country_conf': 0.28365934}
{'word': 'Isles', 'spans': [{'start': 0, 'end': 5}], 'country_predicted': 'USA', 'country_conf': 0.28365934}
{'word': 'Washington', 'spans': [{'start': 0, 'end': 10}], 'country_predicted': 'USA', 'country_conf': 0.69099617, 'geo': {'admin1': 'Washington', 'lat': '47.50012', 'lon': '-120.50147', 'country_code3': 'USA', 'geonameid': '5815135', 'place_name': 'Washington', 'feature_class': 'A', 'feature_code': 'ADM1'}}
{'word': 'D.C.', 'spans': [{'start': 0, 'end': 4}], 'country_predicted': 'COL', 'country_conf': 0.28868946}
{'word': 'Paris', 'spans': [{'start': 0, 'end': 5}], 'country_predicted': 'FRA', 'country_conf': 0.957188, 'geo': {'admin1': 'le-de-France', 'lat': '48.85339', 'lon': '2.34864', 'country_code3': 'FRA', 'geonameid': '2988506', 'place_name': 'Paris', 'feature_class': 'A', 'feature_code': 'ADM3'}}
{'word': 'Scotia', 'spans': [{'start': 0, 'end': 6}], 'country_predicted': 'CAN', 'country_conf': 0.87992215, 'geo': {'admin1': 'Nova Scotia', 'lat': '45.00015', 'lon': '-62.99865', 'country_code3': 'CAN', 'geonameid': '6091530', 'place_name': 'Nova Scotia', 'feature_class': 'A', 'feature_code': 'ADM1'}}
{'word': 'Quebec', 'spans': [{'start': 0, 'end': 6}], 'country_predicted': 'CAN', 'country_conf': 0.87992215, 'geo': {'admin1': 'Quebec', 'lat': '52.00017', 'lon': '-71.99907', 'country_code3': 'CAN', 'geonameid': '6115047', 'place_name': 'Qubec', 'feature_class': 'A', 'feature_code': 'ADM1'}}
