{'word': 'Amsterdam', 'spans': [{'start': 0, 'end': 9}], 'country_predicted': 'NLD', 'country_conf': 0.957188, 'geo': {'admin1': 'North Holland', 'lat': '52.37302', 'lon': '4.89856', 'country_code3': 'NLD', 'geonameid': '2759793', 'place_name': 'Gemeente Amsterdam', 'feature_class': 'A', 'feature_code': 'ADM2'}}
{'word': 'Netherlands', 'spans': [{'start': 0, 'end': 11}], 'country_predicted': 'NLD', 'country_conf': 0.6948644, 'geo': {'admin1': 'NA', 'lat': '52.25', 'lon': '5.75', 'country_code3': 'NLD', 'geonameid': '2750405', 'place_name': 'Kingdom of the Netherlands', 'feature_class': 'A', 'feature_code': 'PCLI'}}
{'word': 'Ohio', 'spans': [{'start': 0, 'end': 4}], 'country_predicted': 'USA', 'country_conf': 0.9634983, 'geo': {'admin1': 'Ohio', 'lat': '40.25034', 'lon': '-83.00018', 'country_code3': 'USA', 'geonameid': '5165418', 'place_name': 'Ohio', 'feature_class': 'A', 'feature_code': 'ADM1'}}
{'word': 'Columbus', 'spans': [{'start': 0, 'end': 8}], 'country_predicted': 'USA', 'country_conf': 0.957188, 'geo': {'admin1': 'Ohio', 'lat': '39.96118', 'lon': '-82.99879', 'country_code3': 'USA', 'geonameid': '4509177', 'place_name': 'Columbus', 'feature_class': 'P', 'feature_code': 'PPLA'}}
{'word': 'Ohio', 'spans': [{'start': 0, 'end': 4}], 'country_predicted': 'USA', 'country_conf': 0.9634983, 'geo': {'admin1': 'Ohio', 'lat': '40.25034', 'lon': '-83.00018', 'country_code3': 'USA', 'geonameid': '5165418', 'place_name': 'Ohio', 'feature_class': 'A', 'feature_code': 'ADM1'}}
{'word': 'U.S.A', 'spans': [{'start': 1, 'end': 6}], 'country_predicted': 'USA', 'country_conf': 0.87992215, 'geo': {'admin1': 'NA', 'lat': '39.76', 'lon': '-98.5', 'country_code3': 'USA', 'geonameid': '6252001', 'place_name': 'United States', 'feature_class': 'A', 'feature_code': 'PCLI'}}
{'word': 'America', 'spans': [{'start': 0, 'end': 7}], 'country_predicted': 'USA', 'country_conf': 0.9516948, 'geo': {'admin1': 'Wyoming', 'lat': '41.54357', 'lon': '-109.85903', 'country_code3': 'USA', 'geonameid': '5830444', 'place_name': 'Little America', 'feature_class': 'P', 'feature_code': 'PPL'}}
{'word': 'Atlanta', 'spans': [{'start': 0, 'end': 7}], 'country_predicted': 'USA', 'country_conf': 0.87992215, 'geo': {'admin1': 'Georgia', 'lat': '33.749', 'lon': '-84.38798', 'country_code3': 'USA', 'geonameid': '4180439', 'place_name': 'Atlanta', 'feature_class': 'P', 'feature_code': 'PPLA'}}
{'word': 'Amsterdam', 'spans': [{'start': 0, 'end': 9}], 'country_predicted': 'NLD', 'country_conf': 0.957188, 'geo': {'admin1': 'North Holland', 'lat': '52.37302', 'lon': '4.89856', 'country_code3': 'NLD', 'geonameid': '2759793', 'place_name': 'Gemeente Amsterdam', 'feature_class': 'A', 'feature_code': 'ADM2'}}
{'word': 'Le.', 'spans': [{'start': 1, 'end': 4}], 'country_predicted': 'FRA', 'country_conf': 0.957188, 'geo': {'admin1': 'le-de-France', 'lat': '48.93825', 'lon': '2.12554', 'country_code3': 'FRA', 'geonameid': '3003375', 'place_name': 'Le Mesnil-le-Roi', 'feature_class': 'P', 'feature_code': 'PPL'}}
{'word': 'dlspersmn', 'spans': [{'start': 0, 'end': 9}], 'country_predicted': '', 'country_conf': 0}
{'word': 'Cambridge', 'spans': [{'start': 0, 'end': 9}], 'country_predicted': 'GBR', 'country_conf': 0.87992215, 'geo': {'admin1': 'England', 'lat': '52.33333', 'lon': '0.08333', 'country_code3': 'GBR', 'geonameid': '2653940', 'place_name': 'Cambridgeshire', 'feature_class': 'A', 'feature_code': 'ADM2'}}
{'word': 'Cambridge', 'spans': [{'start': 0, 'end': 9}], 'country_predicted': 'GBR', 'country_conf': 0.87992215, 'geo': {'admin1': 'England', 'lat': '52.33333', 'lon': '0.08333', 'country_code3': 'GBR', 'geonameid': '2653940', 'place_name': 'Cambridgeshire', 'feature_class': 'A', 'feature_code': 'ADM2'}}
{'word': 'loess', 'spans': [{'start': 0, 'end': 5}], 'country_predicted': 'USA', 'country_conf': 0.28868946}
{'word': 'Carlisle', 'spans': [{'start': 0, 'end': 8}], 'country_predicted': 'GBR', 'country_conf': 0.87992215, 'geo': {'admin1': 'England', 'lat': '54.9825', 'lon': '-2.83114', 'country_code3': 'GBR', 'geonameid': '7290664', 'place_name': 'Carlisle District', 'feature_class': 'A', 'feature_code': 'ADM3'}}
{'word': 'Huntington', 'spans': [{'start': 0, 'end': 10}], 'country_predicted': 'USA', 'country_conf': 0.957188, 'geo': {'admin1': 'California', 'lat': '33.6603', 'lon': '-117.99923', 'country_code3': 'USA', 'geonameid': '5358705', 'place_name': 'Huntington Beach', 'feature_class': 'P', 'feature_code': 'PPL'}}
{'word': 'N.Y.', 'spans': [{'start': 0, 'end': 4}], 'country_predicted': 'FRA', 'country_conf': 0.28365934}
{'word': 'Carlisle', 'spans': [{'start': 0, 'end': 8}], 'country_predicted': 'GBR', 'country_conf': 0.87992215, 'geo': {'admin1': 'England', 'lat': '54.9825', 'lon': '-2.83114', 'country_code3': 'GBR', 'geonameid': '7290664', 'place_name': 'Carlisle District', 'feature_class': 'A', 'feature_code': 'ADM3'}}
{'word': 'R.P.', 'spans': [{'start': 0, 'end': 4}], 'country_predicted': 'ARG', 'country_conf': 0.9528109, 'geo': {'admin1': 'Buenos Aires', 'lat': '-33.7682', 'lon': '-60.55177', 'country_code3': 'ARG', 'geonameid': '3838539', 'place_name': 'Convento R.P. Redentoristas', 'feature_class': 'S', 'feature_code': 'CVNT'}}
{'word': 'Soc', 'spans': [{'start': 0, 'end': 3}], 'country_predicted': 'VNM', 'country_conf': 0.87992215, 'geo': {'admin1': 'Sc Trng', 'lat': '9.59995', 'lon': '105.97193', 'country_code3': 'VNM', 'geonameid': '1567788', 'place_name': 'Sc Trng', 'feature_class': 'P', 'feature_code': 'PPLA'}}
{'word': 'Pubhshing', 'spans': [{'start': 0, 'end': 9}], 'country_predicted': '', 'country_conf': 0}
{'word': 'Brunswick', 'spans': [{'start': 0, 'end': 9}], 'country_predicted': 'CAN', 'country_conf': 0.87992215, 'geo': {'admin1': 'New Brunswick', 'lat': '46.5001', 'lon': '-65.99878', 'country_code3': 'CAN', 'geonameid': '6087430', 'place_name': 'New Brunswick/Nouveau-Brunswick', 'feature_class': 'A', 'feature_code': 'ADM1'}}
{'word': 'Scotia', 'spans': [{'start': 0, 'end': 6}], 'country_predicted': 'CAN', 'country_conf': 0.87992215, 'geo': {'admin1': 'Nova Scotia', 'lat': '45.00015', 'lon': '-62.99865', 'country_code3': 'CAN', 'geonameid': '6091530', 'place_name': 'Nova Scotia', 'feature_class': 'A', 'feature_code': 'ADM1'}}
{'word': 'Canada', 'spans': [{'start': 0, 'end': 6}], 'country_predicted': 'CAN', 'country_conf': 0.9516948, 'geo': {'admin1': 'NA', 'lat': '60.10867', 'lon': '-113.64258', 'country_code3': 'CAN', 'geonameid': '6251999', 'place_name': 'Canada', 'feature_class': 'A', 'feature_code': 'PCLI'}}
{'word': 'Ohio', 'spans': [{'start': 0, 'end': 4}], 'country_predicted': 'USA', 'country_conf': 0.9634983, 'geo': {'admin1': 'Ohio', 'lat': '40.25034', 'lon': '-83.00018', 'country_code3': 'USA', 'geonameid': '5165418', 'place_name': 'Ohio', 'feature_class': 'A', 'feature_code': 'ADM1'}}
{'word': 'Ohio', 'spans': [{'start': 0, 'end': 4}], 'country_predicted': 'USA', 'country_conf': 0.9634983, 'geo': {'admin1': 'Ohio', 'lat': '40.25034', 'lon': '-83.00018', 'country_code3': 'USA', 'geonameid': '5165418', 'place_name': 'Ohio', 'feature_class': 'A', 'feature_code': 'ADM1'}}
{'word': 'Columbus', 'spans': [{'start': 0, 'end': 8}], 'country_predicted': 'USA', 'country_conf': 0.957188, 'geo': {'admin1': 'Ohio', 'lat': '39.96118', 'lon': '-82.99879', 'country_code3': 'USA', 'geonameid': '4509177', 'place_name': 'Columbus', 'feature_class': 'P', 'feature_code': 'PPLA'}}
{'word': 'Ohio', 'spans': [{'start': 0, 'end': 4}], 'country_predicted': 'USA', 'country_conf': 0.9634983, 'geo': {'admin1': 'Ohio', 'lat': '40.25034', 'lon': '-83.00018', 'country_code3': 'USA', 'geonameid': '5165418', 'place_name': 'Ohio', 'feature_class': 'A', 'feature_code': 'ADM1'}}
{'word': 'Dep', 'spans': [{'start': 0, 'end': 3}], 'country_predicted': 'IRN', 'country_conf': 0.28868946}
{'word': 'Washington', 'spans': [{'start': 0, 'end': 10}], 'country_predicted': 'USA', 'country_conf': 0.69099617, 'geo': {'admin1': 'Washington', 'lat': '47.50012', 'lon': '-120.50147', 'country_code3': 'USA', 'geonameid': '5815135', 'place_name': 'Washington', 'feature_class': 'A', 'feature_code': 'ADM1'}}
