{'word': 'Amsterdam', 'spans': [{'start': 0, 'end': 9}], 'country_predicted': 'NLD', 'country_conf': 0.957188, 'geo': {'admin1': 'North Holland', 'lat': '52.37302', 'lon': '4.89856', 'country_code3': 'NLD', 'geonameid': '2759793', 'place_name': 'Gemeente Amsterdam', 'feature_class': 'A', 'feature_code': 'ADM2'}}
{'word': 'Netherlands', 'spans': [{'start': 0, 'end': 11}], 'country_predicted': 'NLD', 'country_conf': 0.6948644, 'geo': {'admin1': 'NA', 'lat': '52.25', 'lon': '5.75', 'country_code3': 'NLD', 'geonameid': '2750405', 'place_name': 'Kingdom of the Netherlands', 'feature_class': 'A', 'feature_code': 'PCLI'}}
{'word': 'P.O', 'spans': [{'start': 0, 'end': 3}], 'country_predicted': 'AUS', 'country_conf': 0.9048774, 'geo': {'admin1': 'Queensland', 'lat': '-24.64335', 'lon': '149.44263', 'country_code3': 'AUS', 'geonameid': '8634021', 'place_name': 'Oombabeer P.O.', 'feature_class': 'S', 'feature_code': 'HMSD'}}
{'word': 'Netherlands', 'spans': [{'start': 0, 'end': 11}], 'country_predicted': 'NLD', 'country_conf': 0.6948644, 'geo': {'admin1': 'NA', 'lat': '52.25', 'lon': '5.75', 'country_code3': 'NLD', 'geonameid': '2750405', 'place_name': 'Kingdom of the Netherlands', 'feature_class': 'A', 'feature_code': 'PCLI'}}
{'word': 'Netherlands', 'spans': [{'start': 0, 'end': 11}], 'country_predicted': 'NLD', 'country_conf': 0.6948644, 'geo': {'admin1': 'NA', 'lat': '52.25', 'lon': '5.75', 'country_code3': 'NLD', 'geonameid': '2750405', 'place_name': 'Kingdom of the Netherlands', 'feature_class': 'A', 'feature_code': 'PCLI'}}
{'word': 'Eindhoven', 'spans': [{'start': 0, 'end': 9}], 'country_predicted': 'NLD', 'country_conf': 0.96374094, 'geo': {'admin1': 'North Brabant', 'lat': '51.45037', 'lon': '5.45279', 'country_code3': 'NLD', 'geonameid': '2756252', 'place_name': 'Gemeente Eindhoven', 'feature_class': 'A', 'feature_code': 'ADM2'}}
{'word': 'Netherlands', 'spans': [{'start': 0, 'end': 11}], 'country_predicted': 'NLD', 'country_conf': 0.6948644, 'geo': {'admin1': 'NA', 'lat': '52.25', 'lon': '5.75', 'country_code3': 'NLD', 'geonameid': '2750405', 'place_name': 'Kingdom of the Netherlands', 'feature_class': 'A', 'feature_code': 'PCLI'}}
{'word': 'B_P.', 'spans': [{'start': 0, 'end': 4}], 'country_predicted': 'IND', 'country_conf': 0.5714737}
{'word': 'France', 'spans': [{'start': 1, 'end': 7}], 'country_predicted': 'FRA', 'country_conf': 0.9516948, 'geo': {'admin1': 'NA', 'lat': '46', 'lon': '2', 'country_code3': 'FRA', 'geonameid': '3017382', 'place_name': 'Republic of France', 'feature_class': 'A', 'feature_code': 'PCLI'}}
{'word': 'Paris', 'spans': [{'start': 0, 'end': 5}], 'country_predicted': 'FRA', 'country_conf': 0.957188, 'geo': {'admin1': 'le-de-France', 'lat': '48.85339', 'lon': '2.34864', 'country_code3': 'FRA', 'geonameid': '2988506', 'place_name': 'Paris', 'feature_class': 'A', 'feature_code': 'ADM3'}}
{'word': 'chrept', 'spans': [{'start': 0, 'end': 6}], 'country_predicted': 'GRC', 'country_conf': 0.92213035, 'geo': {'admin1': 'Crete', 'lat': '35.15585', 'lon': '24.89502', 'country_code3': 'GRC', 'geonameid': '6697802', 'place_name': 'Crete', 'feature_class': 'A', 'feature_code': 'ADM1'}}
{'word': 'al.', 'spans': [{'start': 0, 'end': 3}], 'country_predicted': 'IRQ', 'country_conf': 0.28365934}
{'word': 'al.', 'spans': [{'start': 0, 'end': 3}], 'country_predicted': 'IRQ', 'country_conf': 0.28365934}
{'word': 'al.', 'spans': [{'start': 0, 'end': 3}], 'country_predicted': 'IRQ', 'country_conf': 0.28365934}
{'word': 'LAMMA', 'spans': [{'start': 0, 'end': 5}], 'country_predicted': 'IDN', 'country_conf': 0.28868946}
{'word': 'Paris', 'spans': [{'start': 0, 'end': 5}], 'country_predicted': 'FRA', 'country_conf': 0.957188, 'geo': {'admin1': 'le-de-France', 'lat': '48.85339', 'lon': '2.34864', 'country_code3': 'FRA', 'geonameid': '2988506', 'place_name': 'Paris', 'feature_class': 'A', 'feature_code': 'ADM3'}}
{'word': 'France', 'spans': [{'start': 0, 'end': 6}], 'country_predicted': 'FRA', 'country_conf': 0.9516948, 'geo': {'admin1': 'NA', 'lat': '46', 'lon': '2', 'country_code3': 'FRA', 'geonameid': '3017382', 'place_name': 'Republic of France', 'feature_class': 'A', 'feature_code': 'PCLI'}}
{'word': 'al.', 'spans': [{'start': 0, 'end': 3}], 'country_predicted': 'IRQ', 'country_conf': 0.28365934}
{'word': 'Paris', 'spans': [{'start': 0, 'end': 5}], 'country_predicted': 'FRA', 'country_conf': 0.957188, 'geo': {'admin1': 'le-de-France', 'lat': '48.85339', 'lon': '2.34864', 'country_code3': 'FRA', 'geonameid': '2988506', 'place_name': 'Paris', 'feature_class': 'A', 'feature_code': 'ADM3'}}
{'word': 'al.', 'spans': [{'start': 0, 'end': 3}], 'country_predicted': 'IRQ', 'country_conf': 0.28365934}
{'word': 'al.', 'spans': [{'start': 0, 'end': 3}], 'country_predicted': 'IRQ', 'country_conf': 0.28365934}
{'word': 'kTi', 'spans': [{'start': 7, 'end': 10}], 'country_predicted': 'KHM', 'country_conf': 0.5339668}
{'word': 'al.', 'spans': [{'start': 0, 'end': 3}], 'country_predicted': 'IRQ', 'country_conf': 0.28365934}
{'word': 'ficantly', 'spans': [{'start': 0, 'end': 8}], 'country_predicted': '', 'country_conf': 0}
{'word': 'palygorskite', 'spans': [{'start': 0, 'end': 12}], 'country_predicted': '', 'country_conf': 0}
{'word': 'Positwe', 'spans': [{'start': 0, 'end': 7}], 'country_predicted': '', 'country_conf': 0}
{'word': 'prehmmary', 'spans': [{'start': 0, 'end': 9}], 'country_predicted': '', 'country_conf': 0}
{'word': 'LAMMA', 'spans': [{'start': 0, 'end': 5}], 'country_predicted': 'IDN', 'country_conf': 0.28868946}
{'word': 'LAMMA', 'spans': [{'start': 0, 'end': 5}], 'country_predicted': 'IDN', 'country_conf': 0.28868946}
{'word': 'Rutherford', 'spans': [{'start': 0, 'end': 10}], 'country_predicted': 'USA', 'country_conf': 0.87992215, 'geo': {'admin1': 'New Jersey', 'lat': '40.82649', 'lon': '-74.10681', 'country_code3': 'USA', 'geonameid': '5103580', 'place_name': 'Rutherford', 'feature_class': 'P', 'feature_code': 'PPL'}}
{'word': 'nm', 'spans': [{'start': 0, 'end': 2}], 'country_predicted': 'ESP', 'country_conf': 0.9048774, 'geo': {'admin1': 'Catalonia', 'lat': '41.80772', 'lon': '3.06392', 'country_code3': 'ESP', 'geonameid': '7147462', 'place_name': 'NM SUITES Hotel', 'feature_class': 'S', 'feature_code': 'HTL'}}
{'word': 'LAMMA', 'spans': [{'start': 0, 'end': 5}], 'country_predicted': 'IDN', 'country_conf': 0.28868946}
{'word': 'nm', 'spans': [{'start': 0, 'end': 2}], 'country_predicted': 'ESP', 'country_conf': 0.9048774, 'geo': {'admin1': 'Catalonia', 'lat': '41.80772', 'lon': '3.06392', 'country_code3': 'ESP', 'geonameid': '7147462', 'place_name': 'NM SUITES Hotel', 'feature_class': 'S', 'feature_code': 'HTL'}}
{'word': 'LAMMA', 'spans': [{'start': 0, 'end': 5}], 'country_predicted': 'IDN', 'country_conf': 0.28868946}
{'word': 'nm', 'spans': [{'start': 0, 'end': 2}], 'country_predicted': 'ESP', 'country_conf': 0.9048774, 'geo': {'admin1': 'Catalonia', 'lat': '41.80772', 'lon': '3.06392', 'country_code3': 'ESP', 'geonameid': '7147462', 'place_name': 'NM SUITES Hotel', 'feature_class': 'S', 'feature_code': 'HTL'}}
{'word': 'nm', 'spans': [{'start': 0, 'end': 2}], 'country_predicted': 'ESP', 'country_conf': 0.9048774, 'geo': {'admin1': 'Catalonia', 'lat': '41.80772', 'lon': '3.06392', 'country_code3': 'ESP', 'geonameid': '7147462', 'place_name': 'NM SUITES Hotel', 'feature_class': 'S', 'feature_code': 'HTL'}}
{'word': 'ysis', 'spans': [{'start': 0, 'end': 4}], 'country_predicted': 'ZAF', 'country_conf': 0.9528109, 'geo': {'admin1': 'Northern Cape', 'lat': '-29.72062', 'lon': '19.93429', 'country_code3': 'ZAF', 'geonameid': '3358997', 'place_name': 'Ysies', 'feature_class': 'S', 'feature_code': 'FRM'}}
{'word': 'Hague', 'spans': [{'start': 0, 'end': 5}], 'country_predicted': 'NLD', 'country_conf': 0.957188, 'geo': {'admin1': 'South Holland', 'lat': '52.07667', 'lon': '4.29861', 'country_code3': 'NLD', 'geonameid': '2747373', 'place_name': 'The Hague', 'feature_class': 'P', 'feature_code': 'PPLG'}}
{'word': 'Leiden', 'spans': [{'start': 0, 'end': 6}], 'country_predicted': 'NLD', 'country_conf': 0.96374094, 'geo': {'admin1': 'South Holland', 'lat': '52.15274', 'lon': '4.4836', 'country_code3': 'NLD', 'geonameid': '2751772', 'place_name': 'Gemeente Leiden', 'feature_class': 'A', 'feature_code': 'ADM2'}}
{'word': 'Heintzberger', 'spans': [{'start': 0, 'end': 12}], 'country_predicted': '', 'country_conf': 0}
{'word': 'Hague', 'spans': [{'start': 0, 'end': 5}], 'country_predicted': 'NLD', 'country_conf': 0.957188, 'geo': {'admin1': 'South Holland', 'lat': '52.07667', 'lon': '4.29861', 'country_code3': 'NLD', 'geonameid': '2747373', 'place_name': 'The Hague', 'feature_class': 'P', 'feature_code': 'PPLG'}}
{'word': 'Leiden', 'spans': [{'start': 0, 'end': 6}], 'country_predicted': 'NLD', 'country_conf': 0.96374094, 'geo': {'admin1': 'South Holland', 'lat': '52.15274', 'lon': '4.4836', 'country_code3': 'NLD', 'geonameid': '2751772', 'place_name': 'Gemeente Leiden', 'feature_class': 'A', 'feature_code': 'ADM2'}}
{'word': 'Berlin', 'spans': [{'start': 0, 'end': 6}], 'country_predicted': 'DEU', 'country_conf': 0.957188, 'geo': {'admin1': 'Berlin', 'lat': '52.5233', 'lon': '13.41377', 'country_code3': 'DEU', 'geonameid': '6547383', 'place_name': 'Berlin, Stadt', 'feature_class': 'A', 'feature_code': 'ADM3'}}
{'word': 'Paris', 'spans': [{'start': 0, 'end': 5}], 'country_predicted': 'FRA', 'country_conf': 0.957188, 'geo': {'admin1': 'le-de-France', 'lat': '48.85339', 'lon': '2.34864', 'country_code3': 'FRA', 'geonameid': '2988506', 'place_name': 'Paris', 'feature_class': 'A', 'feature_code': 'ADM3'}}
