{'word': 'Amsterdam', 'spans': [{'start': 0, 'end': 9}], 'country_predicted': 'NLD', 'country_conf': 0.957188, 'geo': {'admin1': 'North Holland', 'lat': '52.37302', 'lon': '4.89856', 'country_code3': 'NLD', 'geonameid': '2759793', 'place_name': 'Gemeente Amsterdam', 'feature_class': 'A', 'feature_code': 'ADM2'}}
{'word': 'Netherlands', 'spans': [{'start': 0, 'end': 11}], 'country_predicted': 'NLD', 'country_conf': 0.6948644, 'geo': {'admin1': 'NA', 'lat': '52.25', 'lon': '5.75', 'country_code3': 'NLD', 'geonameid': '2750405', 'place_name': 'Kingdom of the Netherlands', 'feature_class': 'A', 'feature_code': 'PCLI'}}
{'word': 'CANADA', 'spans': [{'start': 0, 'end': 6}], 'country_predicted': 'CAN', 'country_conf': 0.957188, 'geo': {'admin1': 'NA', 'lat': '60.10867', 'lon': '-113.64258', 'country_code3': 'CAN', 'geonameid': '6251999', 'place_name': 'Canada', 'feature_class': 'A', 'feature_code': 'PCLI'}}
{'word': 'Burnaby', 'spans': [{'start': 0, 'end': 7}], 'country_predicted': 'CAN', 'country_conf': 0.87992215, 'geo': {'admin1': 'British Columbia', 'lat': '49.26636', 'lon': '-122.95263', 'country_code3': 'CAN', 'geonameid': '5911606', 'place_name': 'Burnaby', 'feature_class': 'P', 'feature_code': 'PPLA3'}}
{'word': 'Canada', 'spans': [{'start': 1, 'end': 7}], 'country_predicted': 'CAN', 'country_conf': 0.9516948, 'geo': {'admin1': 'NA', 'lat': '60.10867', 'lon': '-113.64258', 'country_code3': 'CAN', 'geonameid': '6251999', 'place_name': 'Canada', 'feature_class': 'A', 'feature_code': 'PCLI'}}
{'word': 'Canada', 'spans': [{'start': 0, 'end': 6}], 'country_predicted': 'CAN', 'country_conf': 0.9516948, 'geo': {'admin1': 'NA', 'lat': '60.10867', 'lon': '-113.64258', 'country_code3': 'CAN', 'geonameid': '6251999', 'place_name': 'Canada', 'feature_class': 'A', 'feature_code': 'PCLI'}}
{'word': 'Burnaby', 'spans': [{'start': 0, 'end': 7}], 'country_predicted': 'CAN', 'country_conf': 0.87992215, 'geo': {'admin1': 'British Columbia', 'lat': '49.26636', 'lon': '-122.95263', 'country_code3': 'CAN', 'geonameid': '5911606', 'place_name': 'Burnaby', 'feature_class': 'P', 'feature_code': 'PPLA3'}}
{'word': 'podzolized', 'spans': [{'start': 0, 'end': 10}], 'country_predicted': '', 'country_conf': 0}
{'word': 'podzolized', 'spans': [{'start': 0, 'end': 10}], 'country_predicted': '', 'country_conf': 0}
{'word': 'Burnaby', 'spans': [{'start': 0, 'end': 7}], 'country_predicted': 'CAN', 'country_conf': 0.87992215, 'geo': {'admin1': 'British Columbia', 'lat': '49.26636', 'lon': '-122.95263', 'country_code3': 'CAN', 'geonameid': '5911606', 'place_name': 'Burnaby', 'feature_class': 'P', 'feature_code': 'PPLA3'}}
{'word': 'podzolized', 'spans': [{'start': 0, 'end': 10}], 'country_predicted': '', 'country_conf': 0}
{'word': 'Canada', 'spans': [{'start': 1, 'end': 7}], 'country_predicted': 'CAN', 'country_conf': 0.9516948, 'geo': {'admin1': 'NA', 'lat': '60.10867', 'lon': '-113.64258', 'country_code3': 'CAN', 'geonameid': '6251999', 'place_name': 'Canada', 'feature_class': 'A', 'feature_code': 'PCLI'}}
{'word': 'Pursh', 'spans': [{'start': 0, 'end': 5}], 'country_predicted': 'RUS', 'country_conf': 0.9528109, 'geo': {'admin1': 'Sakhalin', 'lat': '50.66244', 'lon': '143.69682', 'country_code3': 'RUS', 'geonameid': '2121763', 'place_name': 'Pursh-Pursh', 'feature_class': 'H', 'feature_code': 'STM'}}
{'word': 'cedar', 'spans': [{'start': 0, 'end': 5}], 'country_predicted': 'JAM', 'country_conf': 0.28365934}
{'word': 'poplar', 'spans': [{'start': 0, 'end': 6}], 'country_predicted': 'USA', 'country_conf': 0.957188, 'geo': {'admin1': 'Montana', 'lat': '48.11307', 'lon': '-105.19831', 'country_code3': 'USA', 'geonameid': '5672096', 'place_name': 'Poplar', 'feature_class': 'P', 'feature_code': 'PPL'}}
{'word': 'Burnaby', 'spans': [{'start': 0, 'end': 7}], 'country_predicted': 'CAN', 'country_conf': 0.87992215, 'geo': {'admin1': 'British Columbia', 'lat': '49.26636', 'lon': '-122.95263', 'country_code3': 'CAN', 'geonameid': '5911606', 'place_name': 'Burnaby', 'feature_class': 'P', 'feature_code': 'PPLA3'}}
{'word': 'Burnaby', 'spans': [{'start': 0, 'end': 7}], 'country_predicted': 'CAN', 'country_conf': 0.87992215, 'geo': {'admin1': 'British Columbia', 'lat': '49.26636', 'lon': '-122.95263', 'country_code3': 'CAN', 'geonameid': '5911606', 'place_name': 'Burnaby', 'feature_class': 'P', 'feature_code': 'PPLA3'}}
{'word': 'Zealand', 'spans': [{'start': 0, 'end': 7}], 'country_predicted': 'NA', 'country_conf': 0.28365934}
{'word': 'Burnaby', 'spans': [{'start': 0, 'end': 7}], 'country_predicted': 'CAN', 'country_conf': 0.87992215, 'geo': {'admin1': 'British Columbia', 'lat': '49.26636', 'lon': '-122.95263', 'country_code3': 'CAN', 'geonameid': '5911606', 'place_name': 'Burnaby', 'feature_class': 'P', 'feature_code': 'PPLA3'}}
{'word': 'Burnaby', 'spans': [{'start': 0, 'end': 7}], 'country_predicted': 'CAN', 'country_conf': 0.87992215, 'geo': {'admin1': 'British Columbia', 'lat': '49.26636', 'lon': '-122.95263', 'country_code3': 'CAN', 'geonameid': '5911606', 'place_name': 'Burnaby', 'feature_class': 'P', 'feature_code': 'PPLA3'}}
{'word': 'Burnaby', 'spans': [{'start': 0, 'end': 7}], 'country_predicted': 'CAN', 'country_conf': 0.87992215, 'geo': {'admin1': 'British Columbia', 'lat': '49.26636', 'lon': '-122.95263', 'country_code3': 'CAN', 'geonameid': '5911606', 'place_name': 'Burnaby', 'feature_class': 'P', 'feature_code': 'PPLA3'}}
{'word': 'podzolized', 'spans': [{'start': 0, 'end': 10}], 'country_predicted': '', 'country_conf': 0}
{'word': 'Canada', 'spans': [{'start': 0, 'end': 6}], 'country_predicted': 'CAN', 'country_conf': 0.9516948, 'geo': {'admin1': 'NA', 'lat': '60.10867', 'lon': '-113.64258', 'country_code3': 'CAN', 'geonameid': '6251999', 'place_name': 'Canada', 'feature_class': 'A', 'feature_code': 'PCLI'}}
{'word': 'Canada', 'spans': [{'start': 0, 'end': 6}], 'country_predicted': 'CAN', 'country_conf': 0.9516948, 'geo': {'admin1': 'NA', 'lat': '60.10867', 'lon': '-113.64258', 'country_code3': 'CAN', 'geonameid': '6251999', 'place_name': 'Canada', 'feature_class': 'A', 'feature_code': 'PCLI'}}
{'word': 'Paris', 'spans': [{'start': 0, 'end': 5}], 'country_predicted': 'FRA', 'country_conf': 0.957188, 'geo': {'admin1': 'le-de-France', 'lat': '48.85339', 'lon': '2.34864', 'country_code3': 'FRA', 'geonameid': '2988506', 'place_name': 'Paris', 'feature_class': 'A', 'feature_code': 'ADM3'}}
{'word': 'H.S.', 'spans': [{'start': 0, 'end': 4}], 'country_predicted': 'CHN', 'country_conf': 0.28868946}
{'word': 'Zealand', 'spans': [{'start': 0, 'end': 7}], 'country_predicted': 'NA', 'country_conf': 0.28365934}
{'word': 'Wellington', 'spans': [{'start': 0, 'end': 10}], 'country_predicted': 'NZL', 'country_conf': 0.87992215, 'geo': {'admin1': 'Wellington', 'lat': '-41.28333', 'lon': '174.76667', 'country_code3': 'NZL', 'geonameid': '2179538', 'place_name': 'Wellington', 'feature_class': 'A', 'feature_code': 'ADM1'}}
{'word': 'M.K.', 'spans': [{'start': 0, 'end': 4}], 'country_predicted': 'USA', 'country_conf': 0.5714737}
{'word': 'Burnaby', 'spans': [{'start': 0, 'end': 7}], 'country_predicted': 'CAN', 'country_conf': 0.87992215, 'geo': {'admin1': 'British Columbia', 'lat': '49.26636', 'lon': '-122.95263', 'country_code3': 'CAN', 'geonameid': '5911606', 'place_name': 'Burnaby', 'feature_class': 'P', 'feature_code': 'PPLA3'}}
