{'word': 'France', 'spans': [{'start': 0, 'end': 6}], 'country_predicted': 'FRA', 'country_conf': 0.9516948, 'geo': {'admin1': 'NA', 'lat': '46', 'lon': '2', 'country_code3': 'FRA', 'geonameid': '3017382', 'place_name': 'Republic of France', 'feature_class': 'A', 'feature_code': 'PCLI'}}
{'word': 'Atlanta', 'spans': [{'start': 0, 'end': 7}], 'country_predicted': 'USA', 'country_conf': 0.87992215, 'geo': {'admin1': 'Georgia', 'lat': '33.749', 'lon': '-84.38798', 'country_code3': 'USA', 'geonameid': '4180439', 'place_name': 'Atlanta', 'feature_class': 'P', 'feature_code': 'PPLA'}}
{'word': 'Georgia', 'spans': [{'start': 0, 'end': 7}], 'country_predicted': 'GEO', 'country_conf': 0.9516948, 'geo': {'admin1': 'NA', 'lat': '41.99998', 'lon': '43.4999', 'country_code3': 'GEO', 'geonameid': '614540', 'place_name': 'Georgia', 'feature_class': 'A', 'feature_code': 'PCLI'}}
{'word': 'U.S.A.', 'spans': [{'start': 0, 'end': 6}], 'country_predicted': 'USA', 'country_conf': 0.87992215, 'geo': {'admin1': 'NA', 'lat': '39.76', 'lon': '-98.5', 'country_code3': 'USA', 'geonameid': '6252001', 'place_name': 'United States', 'feature_class': 'A', 'feature_code': 'PCLI'}}
{'word': 'America', 'spans': [{'start': 0, 'end': 7}], 'country_predicted': 'USA', 'country_conf': 0.9516948, 'geo': {'admin1': 'Wyoming', 'lat': '41.54357', 'lon': '-109.85903', 'country_code3': 'USA', 'geonameid': '5830444', 'place_name': 'Little America', 'feature_class': 'P', 'feature_code': 'PPL'}}
{'word': 'Netherlands', 'spans': [{'start': 0, 'end': 11}], 'country_predicted': 'NLD', 'country_conf': 0.6948644, 'geo': {'admin1': 'NA', 'lat': '52.25', 'lon': '5.75', 'country_code3': 'NLD', 'geonameid': '2750405', 'place_name': 'Kingdom of the Netherlands', 'feature_class': 'A', 'feature_code': 'PCLI'}}
{'word': 'Netherlands', 'spans': [{'start': 0, 'end': 11}], 'country_predicted': 'NLD', 'country_conf': 0.6948644, 'geo': {'admin1': 'NA', 'lat': '52.25', 'lon': '5.75', 'country_code3': 'NLD', 'geonameid': '2750405', 'place_name': 'Kingdom of the Netherlands', 'feature_class': 'A', 'feature_code': 'PCLI'}}
{'word': 'Zeeland', 'spans': [{'start': 0, 'end': 7}], 'country_predicted': 'NZL', 'country_conf': 0.87992215, 'geo': {'admin1': 'NA', 'lat': '-42', 'lon': '174', 'country_code3': 'NZL', 'geonameid': '2186224', 'place_name': 'New Zealand', 'feature_class': 'A', 'feature_code': 'PCLI'}}
{'word': 'Canada', 'spans': [{'start': 1, 'end': 7}], 'country_predicted': 'CAN', 'country_conf': 0.9516948, 'geo': {'admin1': 'NA', 'lat': '60.10867', 'lon': '-113.64258', 'country_code3': 'CAN', 'geonameid': '6251999', 'place_name': 'Canada', 'feature_class': 'A', 'feature_code': 'PCLI'}}
{'word': 'USA', 'spans': [{'start': 0, 'end': 3}], 'country_predicted': 'USA', 'country_conf': 0.9516948, 'geo': {'admin1': 'Louisiana', 'lat': '29.2605', 'lon': '-89.35478', 'country_code3': 'USA', 'geonameid': '4319780', 'place_name': 'Chevron USA Incorporated Seaplane Base', 'feature_class': 'S', 'feature_code': 'AIRP'}}
{'word': 'America', 'spans': [{'start': 0, 'end': 7}], 'country_predicted': 'USA', 'country_conf': 0.9516948, 'geo': {'admin1': 'Wyoming', 'lat': '41.54357', 'lon': '-109.85903', 'country_code3': 'USA', 'geonameid': '5830444', 'place_name': 'Little America', 'feature_class': 'P', 'feature_code': 'PPL'}}
{'word': 'Netherlands', 'spans': [{'start': 0, 'end': 11}], 'country_predicted': 'NLD', 'country_conf': 0.6948644, 'geo': {'admin1': 'NA', 'lat': '52.25', 'lon': '5.75', 'country_code3': 'NLD', 'geonameid': '2750405', 'place_name': 'Kingdom of the Netherlands', 'feature_class': 'A', 'feature_code': 'PCLI'}}
{'word': 'Netherlands', 'spans': [{'start': 0, 'end': 11}], 'country_predicted': 'NLD', 'country_conf': 0.6948644, 'geo': {'admin1': 'NA', 'lat': '52.25', 'lon': '5.75', 'country_code3': 'NLD', 'geonameid': '2750405', 'place_name': 'Kingdom of the Netherlands', 'feature_class': 'A', 'feature_code': 'PCLI'}}
{'word': 'Rennes', 'spans': [{'start': 1, 'end': 7}], 'country_predicted': 'FRA', 'country_conf': 0.9048774, 'geo': {'admin1': 'Brittany', 'lat': '48.14788', 'lon': '-1.77939', 'country_code3': 'FRA', 'geonameid': '2983989', 'place_name': 'Arrondissement de Rennes', 'feature_class': 'A', 'feature_code': 'ADM3'}}
{'word': 'France', 'spans': [{'start': 0, 'end': 6}], 'country_predicted': 'FRA', 'country_conf': 0.9516948, 'geo': {'admin1': 'NA', 'lat': '46', 'lon': '2', 'country_code3': 'FRA', 'geonameid': '3017382', 'place_name': 'Republic of France', 'feature_class': 'A', 'feature_code': 'PCLI'}}
{'word': 'Netherlands', 'spans': [{'start': 0, 'end': 11}], 'country_predicted': 'NLD', 'country_conf': 0.6948644, 'geo': {'admin1': 'NA', 'lat': '52.25', 'lon': '5.75', 'country_code3': 'NLD', 'geonameid': '2750405', 'place_name': 'Kingdom of the Netherlands', 'feature_class': 'A', 'feature_code': 'PCLI'}}
{'word': 'Netherlands', 'spans': [{'start': 0, 'end': 11}], 'country_predicted': 'NLD', 'country_conf': 0.6948644, 'geo': {'admin1': 'NA', 'lat': '52.25', 'lon': '5.75', 'country_code3': 'NLD', 'geonameid': '2750405', 'place_name': 'Kingdom of the Netherlands', 'feature_class': 'A', 'feature_code': 'PCLI'}}
{'word': 'Netherlands', 'spans': [{'start': 0, 'end': 11}], 'country_predicted': 'NLD', 'country_conf': 0.6948644, 'geo': {'admin1': 'NA', 'lat': '52.25', 'lon': '5.75', 'country_code3': 'NLD', 'geonameid': '2750405', 'place_name': 'Kingdom of the Netherlands', 'feature_class': 'A', 'feature_code': 'PCLI'}}
{'word': 'Eindhoven', 'spans': [{'start': 1, 'end': 10}], 'country_predicted': 'NLD', 'country_conf': 0.96374094, 'geo': {'admin1': 'North Brabant', 'lat': '51.45037', 'lon': '5.45279', 'country_code3': 'NLD', 'geonameid': '2756252', 'place_name': 'Gemeente Eindhoven', 'feature_class': 'A', 'feature_code': 'ADM2'}}
{'word': 'Netherlands', 'spans': [{'start': 0, 'end': 11}], 'country_predicted': 'NLD', 'country_conf': 0.6948644, 'geo': {'admin1': 'NA', 'lat': '52.25', 'lon': '5.75', 'country_code3': 'NLD', 'geonameid': '2750405', 'place_name': 'Kingdom of the Netherlands', 'feature_class': 'A', 'feature_code': 'PCLI'}}
{'word': 'Australia', 'spans': [{'start': 0, 'end': 9}], 'country_predicted': 'AUS', 'country_conf': 0.9516948, 'geo': {'admin1': 'NA', 'lat': '-25', 'lon': '135', 'country_code3': 'AUS', 'geonameid': '2077456', 'place_name': 'Commonwealth of Australia', 'feature_class': 'A', 'feature_code': 'PCLI'}}
{'word': 'Argentina', 'spans': [{'start': 0, 'end': 9}], 'country_predicted': 'ARG', 'country_conf': 0.9516948, 'geo': {'admin1': 'Santa Fe Province', 'lat': '-32.92616', 'lon': '-60.73918', 'country_code3': 'ARG', 'geonameid': '6269145', 'place_name': 'Centro Cultural Antrtida Argentina', 'feature_class': 'S', 'feature_code': 'RSTNQ'}}
{'word': 'Bonn', 'spans': [{'start': 1, 'end': 5}], 'country_predicted': 'DEU', 'country_conf': 0.96374094, 'geo': {'admin1': 'North Rhine-Westphalia', 'lat': '50.71583', 'lon': '7.11139', 'country_code3': 'DEU', 'geonameid': '3247450', 'place_name': 'Kreisfreie Stadt Bonn', 'feature_class': 'A', 'feature_code': 'ADM3'}}
{'word': 'Germany', 'spans': [{'start': 0, 'end': 7}], 'country_predicted': 'DEU', 'country_conf': 0.9516948, 'geo': {'admin1': 'NA', 'lat': '51.5', 'lon': '10.5', 'country_code3': 'DEU', 'geonameid': '2921044', 'place_name': 'Federal Republic of Germany', 'feature_class': 'A', 'feature_code': 'PCLI'}}
{'word': 'Versailles', 'spans': [{'start': 1, 'end': 11}], 'country_predicted': 'FRA', 'country_conf': 0.957188, 'geo': {'admin1': 'le-de-France', 'lat': '48.80216', 'lon': '2.13236', 'country_code3': 'FRA', 'geonameid': '2969678', 'place_name': 'Arrondissement de Versailles', 'feature_class': 'A', 'feature_code': 'ADM3'}}
{'word': 'France', 'spans': [{'start': 0, 'end': 6}], 'country_predicted': 'FRA', 'country_conf': 0.9516948, 'geo': {'admin1': 'NA', 'lat': '46', 'lon': '2', 'country_code3': 'FRA', 'geonameid': '3017382', 'place_name': 'Republic of France', 'feature_class': 'A', 'feature_code': 'PCLI'}}
{'word': 'Argentina', 'spans': [{'start': 0, 'end': 9}], 'country_predicted': 'ARG', 'country_conf': 0.9516948, 'geo': {'admin1': 'Santa Fe Province', 'lat': '-32.92616', 'lon': '-60.73918', 'country_code3': 'ARG', 'geonameid': '6269145', 'place_name': 'Centro Cultural Antrtida Argentina', 'feature_class': 'S', 'feature_code': 'RSTNQ'}}
{'word': 'France', 'spans': [{'start': 0, 'end': 6}], 'country_predicted': 'FRA', 'country_conf': 0.9516948, 'geo': {'admin1': 'NA', 'lat': '46', 'lon': '2', 'country_code3': 'FRA', 'geonameid': '3017382', 'place_name': 'Republic of France', 'feature_class': 'A', 'feature_code': 'PCLI'}}
{'word': 'Netherlands', 'spans': [{'start': 0, 'end': 11}], 'country_predicted': 'NLD', 'country_conf': 0.6948644, 'geo': {'admin1': 'NA', 'lat': '52.25', 'lon': '5.75', 'country_code3': 'NLD', 'geonameid': '2750405', 'place_name': 'Kingdom of the Netherlands', 'feature_class': 'A', 'feature_code': 'PCLI'}}
{'word': 'Hamburg', 'spans': [{'start': 1, 'end': 8}], 'country_predicted': 'DEU', 'country_conf': 0.957188, 'geo': {'admin1': 'Hamburg', 'lat': '53.55073', 'lon': '9.99302', 'country_code3': 'DEU', 'geonameid': '2911298', 'place_name': 'Hamburg', 'feature_class': 'P', 'feature_code': 'PPLA'}}
{'word': 'Germany', 'spans': [{'start': 0, 'end': 7}], 'country_predicted': 'DEU', 'country_conf': 0.9516948, 'geo': {'admin1': 'NA', 'lat': '51.5', 'lon': '10.5', 'country_code3': 'DEU', 'geonameid': '2921044', 'place_name': 'Federal Republic of Germany', 'feature_class': 'A', 'feature_code': 'PCLI'}}
{'word': 'Italy', 'spans': [{'start': 0, 'end': 5}], 'country_predicted': 'ITA', 'country_conf': 0.9516948, 'geo': {'admin1': 'NA', 'lat': '42.83333', 'lon': '12.83333', 'country_code3': 'ITA', 'geonameid': '3175395', 'place_name': 'Italian Republic', 'feature_class': 'A', 'feature_code': 'PCLI'}}
{'word': 'Pisa', 'spans': [{'start': 1, 'end': 5}], 'country_predicted': 'ITA', 'country_conf': 0.96374094, 'geo': {'admin1': 'Tuscany', 'lat': '43.41667', 'lon': '10.71667', 'country_code3': 'ITA', 'geonameid': '3170646', 'place_name': 'Province of Pisa', 'feature_class': 'A', 'feature_code': 'ADM2'}}
{'word': 'Italy', 'spans': [{'start': 0, 'end': 5}], 'country_predicted': 'ITA', 'country_conf': 0.9516948, 'geo': {'admin1': 'NA', 'lat': '42.83333', 'lon': '12.83333', 'country_code3': 'ITA', 'geonameid': '3175395', 'place_name': 'Italian Republic', 'feature_class': 'A', 'feature_code': 'PCLI'}}
{'word': 'Netherlands', 'spans': [{'start': 0, 'end': 11}], 'country_predicted': 'NLD', 'country_conf': 0.6948644, 'geo': {'admin1': 'NA', 'lat': '52.25', 'lon': '5.75', 'country_code3': 'NLD', 'geonameid': '2750405', 'place_name': 'Kingdom of the Netherlands', 'feature_class': 'A', 'feature_code': 'PCLI'}}
{'word': 'Uppsala', 'spans': [{'start': 1, 'end': 8}], 'country_predicted': 'SWE', 'country_conf': 0.96374094, 'geo': {'admin1': 'Uppsala', 'lat': '60', 'lon': '17.75', 'country_code3': 'SWE', 'geonameid': '2666218', 'place_name': 'Uppsala County', 'feature_class': 'A', 'feature_code': 'ADM1'}}
{'word': 'Sweden', 'spans': [{'start': 0, 'end': 6}], 'country_predicted': 'SWE', 'country_conf': 0.9516948, 'geo': {'admin1': 'NA', 'lat': '62', 'lon': '15', 'country_code3': 'SWE', 'geonameid': '2661886', 'place_name': 'Kingdom of Sweden', 'feature_class': 'A', 'feature_code': 'PCLI'}}
{'word': 'Columbus', 'spans': [{'start': 1, 'end': 9}], 'country_predicted': 'USA', 'country_conf': 0.957188, 'geo': {'admin1': 'Ohio', 'lat': '39.96118', 'lon': '-82.99879', 'country_code3': 'USA', 'geonameid': '4509177', 'place_name': 'Columbus', 'feature_class': 'P', 'feature_code': 'PPLA'}}
{'word': 'Ohio', 'spans': [{'start': 0, 'end': 4}], 'country_predicted': 'USA', 'country_conf': 0.9634983, 'geo': {'admin1': 'Ohio', 'lat': '40.25034', 'lon': '-83.00018', 'country_code3': 'USA', 'geonameid': '5165418', 'place_name': 'Ohio', 'feature_class': 'A', 'feature_code': 'ADM1'}}
{'word': 'U.S.A.', 'spans': [{'start': 0, 'end': 6}], 'country_predicted': 'USA', 'country_conf': 0.87992215, 'geo': {'admin1': 'NA', 'lat': '39.76', 'lon': '-98.5', 'country_code3': 'USA', 'geonameid': '6252001', 'place_name': 'United States', 'feature_class': 'A', 'feature_code': 'PCLI'}}
{'word': 'Texas', 'spans': [{'start': 0, 'end': 5}], 'country_predicted': 'USA', 'country_conf': 0.9634983, 'geo': {'admin1': 'Texas', 'lat': '31.25044', 'lon': '-99.25061', 'country_code3': 'USA', 'geonameid': '4736286', 'place_name': 'Texas', 'feature_class': 'A', 'feature_code': 'ADM1'}}
{'word': 'U.S.A.', 'spans': [{'start': 0, 'end': 6}], 'country_predicted': 'USA', 'country_conf': 0.87992215, 'geo': {'admin1': 'NA', 'lat': '39.76', 'lon': '-98.5', 'country_code3': 'USA', 'geonameid': '6252001', 'place_name': 'United States', 'feature_class': 'A', 'feature_code': 'PCLI'}}
{'word': 'Netherlands', 'spans': [{'start': 0, 'end': 11}], 'country_predicted': 'NLD', 'country_conf': 0.6948644, 'geo': {'admin1': 'NA', 'lat': '52.25', 'lon': '5.75', 'country_code3': 'NLD', 'geonameid': '2750405', 'place_name': 'Kingdom of the Netherlands', 'feature_class': 'A', 'feature_code': 'PCLI'}}
{'word': 'Netherlands', 'spans': [{'start': 0, 'end': 11}], 'country_predicted': 'NLD', 'country_conf': 0.6948644, 'geo': {'admin1': 'NA', 'lat': '52.25', 'lon': '5.75', 'country_code3': 'NLD', 'geonameid': '2750405', 'place_name': 'Kingdom of the Netherlands', 'feature_class': 'A', 'feature_code': 'PCLI'}}
{'word': 'Netherlands', 'spans': [{'start': 0, 'end': 11}], 'country_predicted': 'NLD', 'country_conf': 0.6948644, 'geo': {'admin1': 'NA', 'lat': '52.25', 'lon': '5.75', 'country_code3': 'NLD', 'geonameid': '2750405', 'place_name': 'Kingdom of the Netherlands', 'feature_class': 'A', 'feature_code': 'PCLI'}}
{'word': 'Eindhoven', 'spans': [{'start': 1, 'end': 10}], 'country_predicted': 'NLD', 'country_conf': 0.96374094, 'geo': {'admin1': 'North Brabant', 'lat': '51.45037', 'lon': '5.45279', 'country_code3': 'NLD', 'geonameid': '2756252', 'place_name': 'Gemeente Eindhoven', 'feature_class': 'A', 'feature_code': 'ADM2'}}
{'word': 'Netherlands', 'spans': [{'start': 0, 'end': 11}], 'country_predicted': 'NLD', 'country_conf': 0.6948644, 'geo': {'admin1': 'NA', 'lat': '52.25', 'lon': '5.75', 'country_code3': 'NLD', 'geonameid': '2750405', 'place_name': 'Kingdom of the Netherlands', 'feature_class': 'A', 'feature_code': 'PCLI'}}
{'word': 'Netherlands', 'spans': [{'start': 0, 'end': 11}], 'country_predicted': 'NLD', 'country_conf': 0.6948644, 'geo': {'admin1': 'NA', 'lat': '52.25', 'lon': '5.75', 'country_code3': 'NLD', 'geonameid': '2750405', 'place_name': 'Kingdom of the Netherlands', 'feature_class': 'A', 'feature_code': 'PCLI'}}
{'word': 'Netherlands', 'spans': [{'start': 0, 'end': 11}], 'country_predicted': 'NLD', 'country_conf': 0.6948644, 'geo': {'admin1': 'NA', 'lat': '52.25', 'lon': '5.75', 'country_code3': 'NLD', 'geonameid': '2750405', 'place_name': 'Kingdom of the Netherlands', 'feature_class': 'A', 'feature_code': 'PCLI'}}
{'word': 'France', 'spans': [{'start': 0, 'end': 6}], 'country_predicted': 'FRA', 'country_conf': 0.9516948, 'geo': {'admin1': 'NA', 'lat': '46', 'lon': '2', 'country_code3': 'FRA', 'geonameid': '3017382', 'place_name': 'Republic of France', 'feature_class': 'A', 'feature_code': 'PCLI'}}
{'word': 'Israel', 'spans': [{'start': 0, 'end': 6}], 'country_predicted': 'ISR', 'country_conf': 0.9516948, 'geo': {'admin1': 'NA', 'lat': '31.5', 'lon': '34.75', 'country_code3': 'ISR', 'geonameid': '294640', 'place_name': 'State of Israel', 'feature_class': 'A', 'feature_code': 'PCLI'}}
{'word': 'India', 'spans': [{'start': 1, 'end': 6}], 'country_predicted': 'IND', 'country_conf': 0.68758196, 'geo': {'admin1': 'NA', 'lat': '22', 'lon': '79', 'country_code3': 'IND', 'geonameid': '1269750', 'place_name': 'Republic of India', 'feature_class': 'A', 'feature_code': 'PCLI'}}
{'word': 'Netherlands', 'spans': [{'start': 0, 'end': 11}], 'country_predicted': 'NLD', 'country_conf': 0.6948644, 'geo': {'admin1': 'NA', 'lat': '52.25', 'lon': '5.75', 'country_code3': 'NLD', 'geonameid': '2750405', 'place_name': 'Kingdom of the Netherlands', 'feature_class': 'A', 'feature_code': 'PCLI'}}
{'word': 'Aberdeen', 'spans': [{'start': 1, 'end': 9}], 'country_predicted': 'GBR', 'country_conf': 0.957188, 'geo': {'admin1': 'Scotland', 'lat': '57.16667', 'lon': '-2.16667', 'country_code3': 'GBR', 'geonameid': '3333224', 'place_name': 'Aberdeen City', 'feature_class': 'A', 'feature_code': 'ADM2'}}
{'word': 'Britain', 'spans': [{'start': 0, 'end': 7}], 'country_predicted': 'GBR', 'country_conf': 0.9516948, 'geo': {'admin1': 'NA', 'lat': '54.75844', 'lon': '-2.69531', 'country_code3': 'GBR', 'geonameid': '2635167', 'place_name': 'United Kingdom of Great Britain and Northern Ireland', 'feature_class': 'A', 'feature_code': 'PCLI'}}
{'word': 'Ontario', 'spans': [{'start': 0, 'end': 7}], 'country_predicted': 'CAN', 'country_conf': 0.87992215, 'geo': {'admin1': 'Ontario', 'lat': '49.25014', 'lon': '-84.49983', 'country_code3': 'CAN', 'geonameid': '6093943', 'place_name': 'Ontario', 'feature_class': 'A', 'feature_code': 'ADM1'}}
{'word': 'Canada', 'spans': [{'start': 0, 'end': 6}], 'country_predicted': 'CAN', 'country_conf': 0.9516948, 'geo': {'admin1': 'NA', 'lat': '60.10867', 'lon': '-113.64258', 'country_code3': 'CAN', 'geonameid': '6251999', 'place_name': 'Canada', 'feature_class': 'A', 'feature_code': 'PCLI'}}
{'word': 'Guelph', 'spans': [{'start': 1, 'end': 7}], 'country_predicted': 'CAN', 'country_conf': 0.9048774, 'geo': {'admin1': 'Ontario', 'lat': '43.54594', 'lon': '-80.25599', 'country_code3': 'CAN', 'geonameid': '5967629', 'place_name': 'Guelph', 'feature_class': 'P', 'feature_code': 'PPL'}}
{'word': 'Ontario', 'spans': [{'start': 0, 'end': 7}], 'country_predicted': 'CAN', 'country_conf': 0.87992215, 'geo': {'admin1': 'Ontario', 'lat': '49.25014', 'lon': '-84.49983', 'country_code3': 'CAN', 'geonameid': '6093943', 'place_name': 'Ontario', 'feature_class': 'A', 'feature_code': 'ADM1'}}
{'word': 'Canada', 'spans': [{'start': 0, 'end': 6}], 'country_predicted': 'CAN', 'country_conf': 0.9516948, 'geo': {'admin1': 'NA', 'lat': '60.10867', 'lon': '-113.64258', 'country_code3': 'CAN', 'geonameid': '6251999', 'place_name': 'Canada', 'feature_class': 'A', 'feature_code': 'PCLI'}}
{'word': 'Belgium', 'spans': [{'start': 0, 'end': 7}], 'country_predicted': 'BEL', 'country_conf': 0.9516948, 'geo': {'admin1': 'NA', 'lat': '50.75', 'lon': '4.5', 'country_code3': 'BEL', 'geonameid': '2802361', 'place_name': 'Kingdom of Belgium', 'feature_class': 'A', 'feature_code': 'PCLI'}}
{'word': 'characterisatlon', 'spans': [{'start': 0, 'end': 16}], 'country_predicted': '', 'country_conf': 0}
{'word': 'Argentina', 'spans': [{'start': 1, 'end': 10}], 'country_predicted': 'ARG', 'country_conf': 0.9516948, 'geo': {'admin1': 'Santa Fe Province', 'lat': '-32.92616', 'lon': '-60.73918', 'country_code3': 'ARG', 'geonameid': '6269145', 'place_name': 'Centro Cultural Antrtida Argentina', 'feature_class': 'S', 'feature_code': 'RSTNQ'}}
{'word': 'Argentina', 'spans': [{'start': 0, 'end': 9}], 'country_predicted': 'ARG', 'country_conf': 0.9516948, 'geo': {'admin1': 'Santa Fe Province', 'lat': '-32.92616', 'lon': '-60.73918', 'country_code3': 'ARG', 'geonameid': '6269145', 'place_name': 'Centro Cultural Antrtida Argentina', 'feature_class': 'S', 'feature_code': 'RSTNQ'}}
{'word': 'Amsterdam', 'spans': [{'start': 1, 'end': 10}], 'country_predicted': 'NLD', 'country_conf': 0.957188, 'geo': {'admin1': 'North Holland', 'lat': '52.37302', 'lon': '4.89856', 'country_code3': 'NLD', 'geonameid': '2759793', 'place_name': 'Gemeente Amsterdam', 'feature_class': 'A', 'feature_code': 'ADM2'}}
{'word': 'Netherlands', 'spans': [{'start': 0, 'end': 11}], 'country_predicted': 'NLD', 'country_conf': 0.6948644, 'geo': {'admin1': 'NA', 'lat': '52.25', 'lon': '5.75', 'country_code3': 'NLD', 'geonameid': '2750405', 'place_name': 'Kingdom of the Netherlands', 'feature_class': 'A', 'feature_code': 'PCLI'}}
{'word': 'Malaysia', 'spans': [{'start': 0, 'end': 8}], 'country_predicted': 'MYS', 'country_conf': 0.9516948, 'geo': {'admin1': 'NA', 'lat': '2.5', 'lon': '112.5', 'country_code3': 'MYS', 'geonameid': '1733045', 'place_name': 'Malaysia', 'feature_class': 'A', 'feature_code': 'PCLI'}}
{'word': 'Selangor', 'spans': [{'start': 0, 'end': 8}], 'country_predicted': 'MYS', 'country_conf': 0.96374094, 'geo': {'admin1': 'Selangor', 'lat': '3.16667', 'lon': '101.5', 'country_code3': 'MYS', 'geonameid': '1733037', 'place_name': 'Selangor', 'feature_class': 'A', 'feature_code': 'ADM1'}}
{'word': 'Malaysia', 'spans': [{'start': 0, 'end': 8}], 'country_predicted': 'MYS', 'country_conf': 0.9516948, 'geo': {'admin1': 'NA', 'lat': '2.5', 'lon': '112.5', 'country_code3': 'MYS', 'geonameid': '1733045', 'place_name': 'Malaysia', 'feature_class': 'A', 'feature_code': 'PCLI'}}
{'word': 'Netherlands', 'spans': [{'start': 0, 'end': 11}], 'country_predicted': 'NLD', 'country_conf': 0.6948644, 'geo': {'admin1': 'NA', 'lat': '52.25', 'lon': '5.75', 'country_code3': 'NLD', 'geonameid': '2750405', 'place_name': 'Kingdom of the Netherlands', 'feature_class': 'A', 'feature_code': 'PCLI'}}
{'word': 'Alberta', 'spans': [{'start': 0, 'end': 7}], 'country_predicted': 'CAN', 'country_conf': 0.87992215, 'geo': {'admin1': 'Alberta', 'lat': '52.28333', 'lon': '-117.469', 'country_code3': 'CAN', 'geonameid': '5883102', 'place_name': 'Alberta', 'feature_class': 'A', 'feature_code': 'ADM1'}}
{'word': 'Canada', 'spans': [{'start': 0, 'end': 6}], 'country_predicted': 'CAN', 'country_conf': 0.9516948, 'geo': {'admin1': 'NA', 'lat': '60.10867', 'lon': '-113.64258', 'country_code3': 'CAN', 'geonameid': '6251999', 'place_name': 'Canada', 'feature_class': 'A', 'feature_code': 'PCLI'}}
{'word': 'Glasgow', 'spans': [{'start': 1, 'end': 8}], 'country_predicted': 'GBR', 'country_conf': 0.957188, 'geo': {'admin1': 'Scotland', 'lat': '55.85723', 'lon': '-4.30535', 'country_code3': 'GBR', 'geonameid': '11592155', 'place_name': 'Greater Glasgow', 'feature_class': 'L', 'feature_code': 'RGN'}}
{'word': 'Britain', 'spans': [{'start': 0, 'end': 7}], 'country_predicted': 'GBR', 'country_conf': 0.9516948, 'geo': {'admin1': 'NA', 'lat': '54.75844', 'lon': '-2.69531', 'country_code3': 'GBR', 'geonameid': '2635167', 'place_name': 'United Kingdom of Great Britain and Northern Ireland', 'feature_class': 'A', 'feature_code': 'PCLI'}}
{'word': 'Netherlands', 'spans': [{'start': 0, 'end': 11}], 'country_predicted': 'NLD', 'country_conf': 0.6948644, 'geo': {'admin1': 'NA', 'lat': '52.25', 'lon': '5.75', 'country_code3': 'NLD', 'geonameid': '2750405', 'place_name': 'Kingdom of the Netherlands', 'feature_class': 'A', 'feature_code': 'PCLI'}}
{'word': 'Netherlands', 'spans': [{'start': 0, 'end': 11}], 'country_predicted': 'NLD', 'country_conf': 0.6948644, 'geo': {'admin1': 'NA', 'lat': '52.25', 'lon': '5.75', 'country_code3': 'NLD', 'geonameid': '2750405', 'place_name': 'Kingdom of the Netherlands', 'feature_class': 'A', 'feature_code': 'PCLI'}}
{'word': 'Netherlands', 'spans': [{'start': 0, 'end': 11}], 'country_predicted': 'NLD', 'country_conf': 0.6948644, 'geo': {'admin1': 'NA', 'lat': '52.25', 'lon': '5.75', 'country_code3': 'NLD', 'geonameid': '2750405', 'place_name': 'Kingdom of the Netherlands', 'feature_class': 'A', 'feature_code': 'PCLI'}}
{'word': 'France', 'spans': [{'start': 0, 'end': 6}], 'country_predicted': 'FRA', 'country_conf': 0.9516948, 'geo': {'admin1': 'NA', 'lat': '46', 'lon': '2', 'country_code3': 'FRA', 'geonameid': '3017382', 'place_name': 'Republic of France', 'feature_class': 'A', 'feature_code': 'PCLI'}}
{'word': 'Netherlands', 'spans': [{'start': 0, 'end': 11}], 'country_predicted': 'NLD', 'country_conf': 0.6948644, 'geo': {'admin1': 'NA', 'lat': '52.25', 'lon': '5.75', 'country_code3': 'NLD', 'geonameid': '2750405', 'place_name': 'Kingdom of the Netherlands', 'feature_class': 'A', 'feature_code': 'PCLI'}}
{'word': 'Netherlands', 'spans': [{'start': 0, 'end': 11}], 'country_predicted': 'NLD', 'country_conf': 0.6948644, 'geo': {'admin1': 'NA', 'lat': '52.25', 'lon': '5.75', 'country_code3': 'NLD', 'geonameid': '2750405', 'place_name': 'Kingdom of the Netherlands', 'feature_class': 'A', 'feature_code': 'PCLI'}}
{'word': 'Netherlands', 'spans': [{'start': 0, 'end': 11}], 'country_predicted': 'NLD', 'country_conf': 0.6948644, 'geo': {'admin1': 'NA', 'lat': '52.25', 'lon': '5.75', 'country_code3': 'NLD', 'geonameid': '2750405', 'place_name': 'Kingdom of the Netherlands', 'feature_class': 'A', 'feature_code': 'PCLI'}}
{'word': 'Haarlem', 'spans': [{'start': 1, 'end': 8}], 'country_predicted': 'NLD', 'country_conf': 0.957188, 'geo': {'admin1': 'North Holland', 'lat': '52.38074', 'lon': '4.644', 'country_code3': 'NLD', 'geonameid': '2755002', 'place_name': 'Gemeente Haarlem', 'feature_class': 'A', 'feature_code': 'ADM2'}}
{'word': 'Netherlands', 'spans': [{'start': 0, 'end': 11}], 'country_predicted': 'NLD', 'country_conf': 0.6948644, 'geo': {'admin1': 'NA', 'lat': '52.25', 'lon': '5.75', 'country_code3': 'NLD', 'geonameid': '2750405', 'place_name': 'Kingdom of the Netherlands', 'feature_class': 'A', 'feature_code': 'PCLI'}}
{'word': 'Heintzberger', 'spans': [{'start': 0, 'end': 12}], 'country_predicted': '', 'country_conf': 0}
{'word': 'Netherlands', 'spans': [{'start': 0, 'end': 11}], 'country_predicted': 'NLD', 'country_conf': 0.6948644, 'geo': {'admin1': 'NA', 'lat': '52.25', 'lon': '5.75', 'country_code3': 'NLD', 'geonameid': '2750405', 'place_name': 'Kingdom of the Netherlands', 'feature_class': 'A', 'feature_code': 'PCLI'}}
