{'word': 'Amsterdam', 'spans': [{'start': 0, 'end': 9}], 'country_predicted': 'NLD', 'country_conf': 0.957188, 'geo': {'admin1': 'North Holland', 'lat': '52.37302', 'lon': '4.89856', 'country_code3': 'NLD', 'geonameid': '2759793', 'place_name': 'Gemeente Amsterdam', 'feature_class': 'A', 'feature_code': 'ADM2'}}
{'word': 'Netherlands', 'spans': [{'start': 0, 'end': 11}], 'country_predicted': 'NLD', 'country_conf': 0.6948644, 'geo': {'admin1': 'NA', 'lat': '52.25', 'lon': '5.75', 'country_code3': 'NLD', 'geonameid': '2750405', 'place_name': 'Kingdom of the Netherlands', 'feature_class': 'A', 'feature_code': 'PCLI'}}
{'word': 'Illinois', 'spans': [{'start': 0, 'end': 8}], 'country_predicted': 'USA', 'country_conf': 0.9634983, 'geo': {'admin1': 'Illinois', 'lat': '40.00032', 'lon': '-89.25037', 'country_code3': 'USA', 'geonameid': '4896861', 'place_name': 'Illinois', 'feature_class': 'A', 'feature_code': 'ADM1'}}
{'word': 'U.S.A.', 'spans': [{'start': 1, 'end': 7}], 'country_predicted': 'USA', 'country_conf': 0.87992215, 'geo': {'admin1': 'NA', 'lat': '39.76', 'lon': '-98.5', 'country_code3': 'USA', 'geonameid': '6252001', 'place_name': 'United States', 'feature_class': 'A', 'feature_code': 'PCLI'}}
{'word': 'al.', 'spans': [{'start': 0, 'end': 3}], 'country_predicted': 'IRQ', 'country_conf': 0.28365934}
{'word': 'Ohio', 'spans': [{'start': 0, 'end': 4}], 'country_predicted': 'USA', 'country_conf': 0.9634983, 'geo': {'admin1': 'Ohio', 'lat': '40.25034', 'lon': '-83.00018', 'country_code3': 'USA', 'geonameid': '5165418', 'place_name': 'Ohio', 'feature_class': 'A', 'feature_code': 'ADM1'}}
{'word': 'Illinois', 'spans': [{'start': 0, 'end': 8}], 'country_predicted': 'USA', 'country_conf': 0.9634983, 'geo': {'admin1': 'Illinois', 'lat': '40.00032', 'lon': '-89.25037', 'country_code3': 'USA', 'geonameid': '4896861', 'place_name': 'Illinois', 'feature_class': 'A', 'feature_code': 'ADM1'}}
{'word': 'dialyzed', 'spans': [{'start': 0, 'end': 8}], 'country_predicted': '', 'country_conf': 0}
{'word': 'il', 'spans': [{'start': 0, 'end': 2}], 'country_predicted': 'ITA', 'country_conf': 0.28365934}
{'word': 'al.', 'spans': [{'start': 0, 'end': 3}], 'country_predicted': 'IRQ', 'country_conf': 0.28365934}
{'word': 'Soc', 'spans': [{'start': 0, 'end': 3}], 'country_predicted': 'VNM', 'country_conf': 0.87992215, 'geo': {'admin1': 'Sc Trng', 'lat': '9.59995', 'lon': '105.97193', 'country_code3': 'VNM', 'geonameid': '1567788', 'place_name': 'Sc Trng', 'feature_class': 'P', 'feature_code': 'PPLA'}}
{'word': 'York', 'spans': [{'start': 0, 'end': 4}], 'country_predicted': 'CAN', 'country_conf': 0.28868946}
{'word': 'NY', 'spans': [{'start': 0, 'end': 2}], 'country_predicted': 'SWE', 'country_conf': 0.28365934}
{'word': 'York', 'spans': [{'start': 0, 'end': 4}], 'country_predicted': 'CAN', 'country_conf': 0.28868946}
{'word': 'NY', 'spans': [{'start': 0, 'end': 2}], 'country_predicted': 'SWE', 'country_conf': 0.28365934}
{'word': 'Soc', 'spans': [{'start': 0, 'end': 3}], 'country_predicted': 'VNM', 'country_conf': 0.87992215, 'geo': {'admin1': 'Sc Trng', 'lat': '9.59995', 'lon': '105.97193', 'country_code3': 'VNM', 'geonameid': '1567788', 'place_name': 'Sc Trng', 'feature_class': 'P', 'feature_code': 'PPLA'}}
{'word': 'York', 'spans': [{'start': 0, 'end': 4}], 'country_predicted': 'CAN', 'country_conf': 0.28868946}
{'word': 'NY', 'spans': [{'start': 0, 'end': 2}], 'country_predicted': 'SWE', 'country_conf': 0.28365934}
{'word': 'K.M.', 'spans': [{'start': 0, 'end': 4}], 'country_predicted': 'THA', 'country_conf': 0.9048774, 'geo': {'admin1': 'Bangkok', 'lat': '13.89834', 'lon': '100.589', 'country_code3': 'THA', 'geonameid': '8224809', 'place_name': 'Sathani Khan Keha Khomo Sip-Kao', 'feature_class': 'S', 'feature_code': 'RSTP'}}
{'word': 'K.M.', 'spans': [{'start': 0, 'end': 4}], 'country_predicted': 'THA', 'country_conf': 0.9048774, 'geo': {'admin1': 'Bangkok', 'lat': '13.89834', 'lon': '100.589', 'country_code3': 'THA', 'geonameid': '8224809', 'place_name': 'Sathani Khan Keha Khomo Sip-Kao', 'feature_class': 'S', 'feature_code': 'RSTP'}}
{'word': 'K.M.', 'spans': [{'start': 0, 'end': 4}], 'country_predicted': 'THA', 'country_conf': 0.9048774, 'geo': {'admin1': 'Bangkok', 'lat': '13.89834', 'lon': '100.589', 'country_code3': 'THA', 'geonameid': '8224809', 'place_name': 'Sathani Khan Keha Khomo Sip-Kao', 'feature_class': 'S', 'feature_code': 'RSTP'}}
{'word': 'K.H.', 'spans': [{'start': 0, 'end': 4}], 'country_predicted': 'VNM', 'country_conf': 0.5714737}
{'word': 'K.H.', 'spans': [{'start': 0, 'end': 4}], 'country_predicted': 'VNM', 'country_conf': 0.5714737}
{'word': 'Soc', 'spans': [{'start': 0, 'end': 3}], 'country_predicted': 'VNM', 'country_conf': 0.87992215, 'geo': {'admin1': 'Sc Trng', 'lat': '9.59995', 'lon': '105.97193', 'country_code3': 'VNM', 'geonameid': '1567788', 'place_name': 'Sc Trng', 'feature_class': 'P', 'feature_code': 'PPLA'}}
