{'word': 'Amsterdam', 'spans': [{'start': 0, 'end': 9}], 'country_predicted': 'NLD', 'country_conf': 0.957188, 'geo': {'admin1': 'North Holland', 'lat': '52.37302', 'lon': '4.89856', 'country_code3': 'NLD', 'geonameid': '2759793', 'place_name': 'Gemeente Amsterdam', 'feature_class': 'A', 'feature_code': 'ADM2'}}
{'word': 'Netherlands', 'spans': [{'start': 0, 'end': 11}], 'country_predicted': 'NLD', 'country_conf': 0.6948644, 'geo': {'admin1': 'NA', 'lat': '52.25', 'lon': '5.75', 'country_code3': 'NLD', 'geonameid': '2750405', 'place_name': 'Kingdom of the Netherlands', 'feature_class': 'A', 'feature_code': 'PCLI'}}
{'word': 'Guelph', 'spans': [{'start': 0, 'end': 6}], 'country_predicted': 'CAN', 'country_conf': 0.9048774, 'geo': {'admin1': 'Ontario', 'lat': '43.54594', 'lon': '-80.25599', 'country_code3': 'CAN', 'geonameid': '5967629', 'place_name': 'Guelph', 'feature_class': 'P', 'feature_code': 'PPL'}}
{'word': 'Guelph', 'spans': [{'start': 0, 'end': 6}], 'country_predicted': 'CAN', 'country_conf': 0.9048774, 'geo': {'admin1': 'Ontario', 'lat': '43.54594', 'lon': '-80.25599', 'country_code3': 'CAN', 'geonameid': '5967629', 'place_name': 'Guelph', 'feature_class': 'P', 'feature_code': 'PPL'}}
{'word': 'Ontario', 'spans': [{'start': 0, 'end': 7}], 'country_predicted': 'CAN', 'country_conf': 0.87992215, 'geo': {'admin1': 'Ontario', 'lat': '49.25014', 'lon': '-84.49983', 'country_code3': 'CAN', 'geonameid': '6093943', 'place_name': 'Ontario', 'feature_class': 'A', 'feature_code': 'ADM1'}}
{'word': 'Canada', 'spans': [{'start': 1, 'end': 7}], 'country_predicted': 'CAN', 'country_conf': 0.9516948, 'geo': {'admin1': 'NA', 'lat': '60.10867', 'lon': '-113.64258', 'country_code3': 'CAN', 'geonameid': '6251999', 'place_name': 'Canada', 'feature_class': 'A', 'feature_code': 'PCLI'}}
{'word': 'P.H.', 'spans': [{'start': 0, 'end': 4}], 'country_predicted': 'IND', 'country_conf': 0.9048774, 'geo': {'admin1': 'West Bengal', 'lat': '22.0963', 'lon': '87.85057', 'country_code3': 'IND', 'geonameid': '11860343', 'place_name': 'Lavan Satyagraha Smarak P.H', 'feature_class': 'S', 'feature_code': 'RSTN'}}
{'word': 'al.', 'spans': [{'start': 0, 'end': 3}], 'country_predicted': 'IRQ', 'country_conf': 0.28365934}
{'word': 'al.', 'spans': [{'start': 0, 'end': 3}], 'country_predicted': 'IRQ', 'country_conf': 0.28365934}
{'word': 'al.', 'spans': [{'start': 0, 'end': 3}], 'country_predicted': 'IRQ', 'country_conf': 0.28365934}
{'word': 'al.', 'spans': [{'start': 0, 'end': 3}], 'country_predicted': 'IRQ', 'country_conf': 0.28365934}
{'word': 'al.', 'spans': [{'start': 0, 'end': 3}], 'country_predicted': 'IRQ', 'country_conf': 0.28365934}
{'word': 'al.', 'spans': [{'start': 0, 'end': 3}], 'country_predicted': 'IRQ', 'country_conf': 0.28365934}
{'word': 'K/(10', 'spans': [{'start': 0, 'end': 5}], 'country_predicted': 'USA', 'country_conf': 0.5714737}
{'word': 'il', 'spans': [{'start': 0, 'end': 2}], 'country_predicted': 'ITA', 'country_conf': 0.28365934}
{'word': 'Canada', 'spans': [{'start': 0, 'end': 6}], 'country_predicted': 'CAN', 'country_conf': 0.9516948, 'geo': {'admin1': 'NA', 'lat': '60.10867', 'lon': '-113.64258', 'country_code3': 'CAN', 'geonameid': '6251999', 'place_name': 'Canada', 'feature_class': 'A', 'feature_code': 'PCLI'}}
{'word': 'Soc', 'spans': [{'start': 0, 'end': 3}], 'country_predicted': 'VNM', 'country_conf': 0.87992215, 'geo': {'admin1': 'Sc Trng', 'lat': '9.59995', 'lon': '105.97193', 'country_code3': 'VNM', 'geonameid': '1567788', 'place_name': 'Sc Trng', 'feature_class': 'P', 'feature_code': 'PPLA'}}
{'word': 'B.C.', 'spans': [{'start': 0, 'end': 4}], 'country_predicted': 'CAN', 'country_conf': 0.9048774, 'geo': {'admin1': 'British Columbia', 'lat': '49.27676', 'lon': '-123.11189', 'country_code3': 'CAN', 'geonameid': '6931033', 'place_name': 'BC Place Stadium', 'feature_class': 'S', 'feature_code': 'STDM'}}
{'word': 'B.C.', 'spans': [{'start': 0, 'end': 4}], 'country_predicted': 'CAN', 'country_conf': 0.9048774, 'geo': {'admin1': 'British Columbia', 'lat': '49.27676', 'lon': '-123.11189', 'country_code3': 'CAN', 'geonameid': '6931033', 'place_name': 'BC Place Stadium', 'feature_class': 'S', 'feature_code': 'STDM'}}
{'word': 'B.C.', 'spans': [{'start': 0, 'end': 4}], 'country_predicted': 'CAN', 'country_conf': 0.9048774, 'geo': {'admin1': 'British Columbia', 'lat': '49.27676', 'lon': '-123.11189', 'country_code3': 'CAN', 'geonameid': '6931033', 'place_name': 'BC Place Stadium', 'feature_class': 'S', 'feature_code': 'STDM'}}
{'word': 'Burford', 'spans': [{'start': 0, 'end': 7}], 'country_predicted': 'CAN', 'country_conf': 0.28365934}
{'word': 'Aust', 'spans': [{'start': 0, 'end': 4}], 'country_predicted': 'IDN', 'country_conf': 0.28365934}
{'word': 'Soc', 'spans': [{'start': 0, 'end': 3}], 'country_predicted': 'VNM', 'country_conf': 0.87992215, 'geo': {'admin1': 'Sc Trng', 'lat': '9.59995', 'lon': '105.97193', 'country_code3': 'VNM', 'geonameid': '1567788', 'place_name': 'Sc Trng', 'feature_class': 'P', 'feature_code': 'PPLA'}}
{'word': 'Soc', 'spans': [{'start': 0, 'end': 3}], 'country_predicted': 'VNM', 'country_conf': 0.87992215, 'geo': {'admin1': 'Sc Trng', 'lat': '9.59995', 'lon': '105.97193', 'country_code3': 'VNM', 'geonameid': '1567788', 'place_name': 'Sc Trng', 'feature_class': 'P', 'feature_code': 'PPLA'}}
{'word': 'Ariz.', 'spans': [{'start': 0, 'end': 5}], 'country_predicted': 'PRT', 'country_conf': 0.28365934}
{'word': 'Aust', 'spans': [{'start': 0, 'end': 4}], 'country_predicted': 'IDN', 'country_conf': 0.28365934}
{'word': 'B.W.', 'spans': [{'start': 0, 'end': 4}], 'country_predicted': 'AUS', 'country_conf': 0.9048774, 'geo': {'admin1': 'Victoria', 'lat': '-38.1356', 'lon': '144.35229', 'country_code3': 'AUS', 'geonameid': '10099315', 'place_name': 'B.W Geelong Motor Inn & Serviced Apartments', 'feature_class': 'S', 'feature_code': 'HTL'}}
{'word': 'England', 'spans': [{'start': 0, 'end': 7}], 'country_predicted': 'GBR', 'country_conf': 0.3105929}
{'word': 'Aust', 'spans': [{'start': 0, 'end': 4}], 'country_predicted': 'IDN', 'country_conf': 0.28365934}
{'word': 'York', 'spans': [{'start': 0, 'end': 4}], 'country_predicted': 'CAN', 'country_conf': 0.28868946}
{'word': 'N.Y.', 'spans': [{'start': 0, 'end': 4}], 'country_predicted': 'FRA', 'country_conf': 0.28365934}
{'word': 'Soc', 'spans': [{'start': 0, 'end': 3}], 'country_predicted': 'VNM', 'country_conf': 0.87992215, 'geo': {'admin1': 'Sc Trng', 'lat': '9.59995', 'lon': '105.97193', 'country_code3': 'VNM', 'geonameid': '1567788', 'place_name': 'Sc Trng', 'feature_class': 'P', 'feature_code': 'PPLA'}}
{'word': 'Stafford', 'spans': [{'start': 0, 'end': 8}], 'country_predicted': 'GBR', 'country_conf': 0.87992215, 'geo': {'admin1': 'England', 'lat': '52.83333', 'lon': '-2', 'country_code3': 'GBR', 'geonameid': '2637141', 'place_name': 'Staffordshire', 'feature_class': 'A', 'feature_code': 'ADM2'}}
{'word': 'Soc', 'spans': [{'start': 0, 'end': 3}], 'country_predicted': 'VNM', 'country_conf': 0.87992215, 'geo': {'admin1': 'Sc Trng', 'lat': '9.59995', 'lon': '105.97193', 'country_code3': 'VNM', 'geonameid': '1567788', 'place_name': 'Sc Trng', 'feature_class': 'P', 'feature_code': 'PPLA'}}
{'word': 'London', 'spans': [{'start': 0, 'end': 6}], 'country_predicted': 'GBR', 'country_conf': 0.957188, 'geo': {'admin1': 'England', 'lat': '51.49227', 'lon': '-0.30864', 'country_code3': 'GBR', 'geonameid': '11591955', 'place_name': 'London', 'feature_class': 'L', 'feature_code': 'RGN'}}
{'word': 'Soc', 'spans': [{'start': 0, 'end': 3}], 'country_predicted': 'VNM', 'country_conf': 0.87992215, 'geo': {'admin1': 'Sc Trng', 'lat': '9.59995', 'lon': '105.97193', 'country_code3': 'VNM', 'geonameid': '1567788', 'place_name': 'Sc Trng', 'feature_class': 'P', 'feature_code': 'PPLA'}}
