{'word': 'Amsterdam', 'spans': [{'start': 0, 'end': 9}], 'country_predicted': 'NLD', 'country_conf': 0.957188, 'geo': {'admin1': 'North Holland', 'lat': '52.37302', 'lon': '4.89856', 'country_code3': 'NLD', 'geonameid': '2759793', 'place_name': 'Gemeente Amsterdam', 'feature_class': 'A', 'feature_code': 'ADM2'}}
{'word': 'Netherlands', 'spans': [{'start': 0, 'end': 11}], 'country_predicted': 'NLD', 'country_conf': 0.6948644, 'geo': {'admin1': 'NA', 'lat': '52.25', 'lon': '5.75', 'country_code3': 'NLD', 'geonameid': '2750405', 'place_name': 'Kingdom of the Netherlands', 'feature_class': 'A', 'feature_code': 'PCLI'}}
{'word': 'Amsterdam', 'spans': [{'start': 0, 'end': 9}], 'country_predicted': 'NLD', 'country_conf': 0.957188, 'geo': {'admin1': 'North Holland', 'lat': '52.37302', 'lon': '4.89856', 'country_code3': 'NLD', 'geonameid': '2759793', 'place_name': 'Gemeente Amsterdam', 'feature_class': 'A', 'feature_code': 'ADM2'}}
{'word': 'Amsterdam', 'spans': [{'start': 0, 'end': 9}], 'country_predicted': 'NLD', 'country_conf': 0.957188, 'geo': {'admin1': 'North Holland', 'lat': '52.37302', 'lon': '4.89856', 'country_code3': 'NLD', 'geonameid': '2759793', 'place_name': 'Gemeente Amsterdam', 'feature_class': 'A', 'feature_code': 'ADM2'}}
{'word': 'Netherlands', 'spans': [{'start': 0, 'end': 11}], 'country_predicted': 'NLD', 'country_conf': 0.6948644, 'geo': {'admin1': 'NA', 'lat': '52.25', 'lon': '5.75', 'country_code3': 'NLD', 'geonameid': '2750405', 'place_name': 'Kingdom of the Netherlands', 'feature_class': 'A', 'feature_code': 'PCLI'}}
{'word': 'Netherlands', 'spans': [{'start': 0, 'end': 11}], 'country_predicted': 'NLD', 'country_conf': 0.6948644, 'geo': {'admin1': 'NA', 'lat': '52.25', 'lon': '5.75', 'country_code3': 'NLD', 'geonameid': '2750405', 'place_name': 'Kingdom of the Netherlands', 'feature_class': 'A', 'feature_code': 'PCLI'}}
{'word': 'Amsterdam', 'spans': [{'start': 0, 'end': 9}], 'country_predicted': 'NLD', 'country_conf': 0.957188, 'geo': {'admin1': 'North Holland', 'lat': '52.37302', 'lon': '4.89856', 'country_code3': 'NLD', 'geonameid': '2759793', 'place_name': 'Gemeente Amsterdam', 'feature_class': 'A', 'feature_code': 'ADM2'}}
{'word': 'Netherlands', 'spans': [{'start': 0, 'end': 11}], 'country_predicted': 'NLD', 'country_conf': 0.6948644, 'geo': {'admin1': 'NA', 'lat': '52.25', 'lon': '5.75', 'country_code3': 'NLD', 'geonameid': '2750405', 'place_name': 'Kingdom of the Netherlands', 'feature_class': 'A', 'feature_code': 'PCLI'}}
{'word': 'Colombia', 'spans': [{'start': 1, 'end': 9}], 'country_predicted': 'COL', 'country_conf': 0.9516948, 'geo': {'admin1': 'Atlntico', 'lat': '11.00854', 'lon': '-74.90887', 'country_code3': 'COL', 'geonameid': '3671506', 'place_name': 'Puerto Colombia', 'feature_class': 'A', 'feature_code': 'ADM2'}}
{'word': 'Bogota', 'spans': [{'start': 0, 'end': 6}], 'country_predicted': 'COL', 'country_conf': 0.957188, 'geo': {'admin1': 'Bogota D.C.', 'lat': '4.60971', 'lon': '-74.08175', 'country_code3': 'COL', 'geonameid': '3688689', 'place_name': 'Bogot', 'feature_class': 'P', 'feature_code': 'PPLC'}}
{'word': 'al.', 'spans': [{'start': 0, 'end': 3}], 'country_predicted': 'IRQ', 'country_conf': 0.28365934}
{'word': 'Bogota', 'spans': [{'start': 2, 'end': 8}], 'country_predicted': 'COL', 'country_conf': 0.957188, 'geo': {'admin1': 'Bogota D.C.', 'lat': '4.60971', 'lon': '-74.08175', 'country_code3': 'COL', 'geonameid': '3688689', 'place_name': 'Bogot', 'feature_class': 'P', 'feature_code': 'PPLC'}}
{'word': 'Bogota', 'spans': [{'start': 0, 'end': 6}], 'country_predicted': 'COL', 'country_conf': 0.957188, 'geo': {'admin1': 'Bogota D.C.', 'lat': '4.60971', 'lon': '-74.08175', 'country_code3': 'COL', 'geonameid': '3688689', 'place_name': 'Bogot', 'feature_class': 'P', 'feature_code': 'PPLC'}}
{'word': 'Valley', 'spans': [{'start': 0, 'end': 6}], 'country_predicted': 'USA', 'country_conf': 0.957188, 'geo': {'admin1': 'Alabama', 'lat': '32.81874', 'lon': '-85.17939', 'country_code3': 'USA', 'geonameid': '4095186', 'place_name': 'Valley', 'feature_class': 'P', 'feature_code': 'PPL'}}
{'word': 'Valley', 'spans': [{'start': 0, 'end': 6}], 'country_predicted': 'USA', 'country_conf': 0.957188, 'geo': {'admin1': 'Alabama', 'lat': '32.81874', 'lon': '-85.17939', 'country_code3': 'USA', 'geonameid': '4095186', 'place_name': 'Valley', 'feature_class': 'P', 'feature_code': 'PPL'}}
{'word': 'Cambridge', 'spans': [{'start': 0, 'end': 9}], 'country_predicted': 'GBR', 'country_conf': 0.87992215, 'geo': {'admin1': 'England', 'lat': '52.33333', 'lon': '0.08333', 'country_code3': 'GBR', 'geonameid': '2653940', 'place_name': 'Cambridgeshire', 'feature_class': 'A', 'feature_code': 'ADM2'}}
{'word': 'Kc', 'spans': [{'start': 0, 'end': 2}], 'country_predicted': 'USA', 'country_conf': 0.7178229, 'geo': {'admin1': 'Texas', 'lat': '30.161', 'lon': '-97.23473', 'country_code3': 'USA', 'geonameid': '7316034', 'place_name': 'Circle D-KC Estates', 'feature_class': 'P', 'feature_code': 'PPL'}}
{'word': 'al.', 'spans': [{'start': 0, 'end': 3}], 'country_predicted': 'IRQ', 'country_conf': 0.28365934}
{'word': 'Cambridge', 'spans': [{'start': 0, 'end': 9}], 'country_predicted': 'GBR', 'country_conf': 0.87992215, 'geo': {'admin1': 'England', 'lat': '52.33333', 'lon': '0.08333', 'country_code3': 'GBR', 'geonameid': '2653940', 'place_name': 'Cambridgeshire', 'feature_class': 'A', 'feature_code': 'ADM2'}}
{'word': 'Cambridge', 'spans': [{'start': 0, 'end': 9}], 'country_predicted': 'GBR', 'country_conf': 0.87992215, 'geo': {'admin1': 'England', 'lat': '52.33333', 'lon': '0.08333', 'country_code3': 'GBR', 'geonameid': '2653940', 'place_name': 'Cambridgeshire', 'feature_class': 'A', 'feature_code': 'ADM2'}}
{'word': 'Colombia', 'spans': [{'start': 0, 'end': 8}], 'country_predicted': 'COL', 'country_conf': 0.9516948, 'geo': {'admin1': 'Atlntico', 'lat': '11.00854', 'lon': '-74.90887', 'country_code3': 'COL', 'geonameid': '3671506', 'place_name': 'Puerto Colombia', 'feature_class': 'A', 'feature_code': 'ADM2'}}
{'word': 'Cambridge', 'spans': [{'start': 0, 'end': 9}], 'country_predicted': 'GBR', 'country_conf': 0.87992215, 'geo': {'admin1': 'England', 'lat': '52.33333', 'lon': '0.08333', 'country_code3': 'GBR', 'geonameid': '2653940', 'place_name': 'Cambridgeshire', 'feature_class': 'A', 'feature_code': 'ADM2'}}
{'word': 'Greenland', 'spans': [{'start': 0, 'end': 9}], 'country_predicted': 'GRL', 'country_conf': 0.3105929}
{'word': 'Greenland', 'spans': [{'start': 0, 'end': 9}], 'country_predicted': 'GRL', 'country_conf': 0.3105929}
{'word': 'al.', 'spans': [{'start': 0, 'end': 3}], 'country_predicted': 'IRQ', 'country_conf': 0.28365934}
{'word': 'peptizatlon', 'spans': [{'start': 0, 'end': 11}], 'country_predicted': '', 'country_conf': 0}
{'word': 'Netherlands', 'spans': [{'start': 0, 'end': 11}], 'country_predicted': 'NLD', 'country_conf': 0.6948644, 'geo': {'admin1': 'NA', 'lat': '52.25', 'lon': '5.75', 'country_code3': 'NLD', 'geonameid': '2750405', 'place_name': 'Kingdom of the Netherlands', 'feature_class': 'A', 'feature_code': 'PCLI'}}
{'word': 'Amsterdam', 'spans': [{'start': 0, 'end': 9}], 'country_predicted': 'NLD', 'country_conf': 0.957188, 'geo': {'admin1': 'North Holland', 'lat': '52.37302', 'lon': '4.89856', 'country_code3': 'NLD', 'geonameid': '2759793', 'place_name': 'Gemeente Amsterdam', 'feature_class': 'A', 'feature_code': 'ADM2'}}
{'word': 'Netherlands', 'spans': [{'start': 0, 'end': 11}], 'country_predicted': 'NLD', 'country_conf': 0.6948644, 'geo': {'admin1': 'NA', 'lat': '52.25', 'lon': '5.75', 'country_code3': 'NLD', 'geonameid': '2750405', 'place_name': 'Kingdom of the Netherlands', 'feature_class': 'A', 'feature_code': 'PCLI'}}
{'word': 'C.G.', 'spans': [{'start': 0, 'end': 4}], 'country_predicted': 'PAK', 'country_conf': 0.9048774, 'geo': {'admin1': 'Punjab', 'lat': '31.5385', 'lon': '74.3507', 'country_code3': 'PAK', 'geonameid': '7033439', 'place_name': 'C.G. Office', 'feature_class': 'S', 'feature_code': 'BLDG'}}
{'word': 'Colombia', 'spans': [{'start': 0, 'end': 8}], 'country_predicted': 'COL', 'country_conf': 0.9516948, 'geo': {'admin1': 'Atlntico', 'lat': '11.00854', 'lon': '-74.90887', 'country_code3': 'COL', 'geonameid': '3671506', 'place_name': 'Puerto Colombia', 'feature_class': 'A', 'feature_code': 'ADM2'}}
{'word': 'Colombia', 'spans': [{'start': 1, 'end': 9}], 'country_predicted': 'COL', 'country_conf': 0.9516948, 'geo': {'admin1': 'Atlntico', 'lat': '11.00854', 'lon': '-74.90887', 'country_code3': 'COL', 'geonameid': '3671506', 'place_name': 'Puerto Colombia', 'feature_class': 'A', 'feature_code': 'ADM2'}}
{'word': 'Enschede', 'spans': [{'start': 0, 'end': 8}], 'country_predicted': 'NLD', 'country_conf': 0.96374094, 'geo': {'admin1': 'Overijssel', 'lat': '52.21909', 'lon': '6.88041', 'country_code3': 'NLD', 'geonameid': '2756070', 'place_name': 'Gemeente Enschede', 'feature_class': 'A', 'feature_code': 'ADM2'}}
{'word': 'los', 'spans': [{'start': 0, 'end': 3}], 'country_predicted': 'MEX', 'country_conf': 0.7178229, 'geo': {'admin1': 'Jalisco', 'lat': '20.42278', 'lon': '-103.18306', 'country_code3': 'MEX', 'geonameid': '8860783', 'place_name': 'Los Freseros (Los Sabinos)', 'feature_class': 'P', 'feature_code': 'PPL'}}
{'word': 'Soc', 'spans': [{'start': 0, 'end': 3}], 'country_predicted': 'VNM', 'country_conf': 0.87992215, 'geo': {'admin1': 'Sc Trng', 'lat': '9.59995', 'lon': '105.97193', 'country_code3': 'VNM', 'geonameid': '1567788', 'place_name': 'Sc Trng', 'feature_class': 'P', 'feature_code': 'PPLA'}}
{'word': 'los', 'spans': [{'start': 0, 'end': 3}], 'country_predicted': 'MEX', 'country_conf': 0.7178229, 'geo': {'admin1': 'Jalisco', 'lat': '20.42278', 'lon': '-103.18306', 'country_code3': 'MEX', 'geonameid': '8860783', 'place_name': 'Los Freseros (Los Sabinos)', 'feature_class': 'P', 'feature_code': 'PPL'}}
{'word': 'seccion', 'spans': [{'start': 0, 'end': 7}], 'country_predicted': 'MEX', 'country_conf': 0.28365934}
{'word': 'Bogota', 'spans': [{'start': 0, 'end': 6}], 'country_predicted': 'COL', 'country_conf': 0.957188, 'geo': {'admin1': 'Bogota D.C.', 'lat': '4.60971', 'lon': '-74.08175', 'country_code3': 'COL', 'geonameid': '3688689', 'place_name': 'Bogot', 'feature_class': 'P', 'feature_code': 'PPLC'}}
{'word': 'Caldasia', 'spans': [{'start': 0, 'end': 8}], 'country_predicted': 'ITA', 'country_conf': 0.5714737}
{'word': 'Greenland', 'spans': [{'start': 0, 'end': 9}], 'country_predicted': 'GRL', 'country_conf': 0.3105929}
{'word': 'Australia', 'spans': [{'start': 0, 'end': 9}], 'country_predicted': 'AUS', 'country_conf': 0.9516948, 'geo': {'admin1': 'NA', 'lat': '-25', 'lon': '135', 'country_code3': 'AUS', 'geonameid': '2077456', 'place_name': 'Commonwealth of Australia', 'feature_class': 'A', 'feature_code': 'PCLI'}}
{'word': 'Hague', 'spans': [{'start': 0, 'end': 5}], 'country_predicted': 'NLD', 'country_conf': 0.957188, 'geo': {'admin1': 'South Holland', 'lat': '52.07667', 'lon': '4.29861', 'country_code3': 'NLD', 'geonameid': '2747373', 'place_name': 'The Hague', 'feature_class': 'P', 'feature_code': 'PPLG'}}
{'word': 'Bandung', 'spans': [{'start': 0, 'end': 7}], 'country_predicted': 'IDN', 'country_conf': 0.96374094, 'geo': {'admin1': 'West Java', 'lat': '-6.92222', 'lon': '107.60694', 'country_code3': 'IDN', 'geonameid': '1650357', 'place_name': 'Bandung', 'feature_class': 'P', 'feature_code': 'PPLA'}}
{'word': 'London', 'spans': [{'start': 0, 'end': 6}], 'country_predicted': 'GBR', 'country_conf': 0.957188, 'geo': {'admin1': 'England', 'lat': '51.49227', 'lon': '-0.30864', 'country_code3': 'GBR', 'geonameid': '11591955', 'place_name': 'London', 'feature_class': 'L', 'feature_code': 'RGN'}}
{'word': 'York', 'spans': [{'start': 0, 'end': 4}], 'country_predicted': 'CAN', 'country_conf': 0.28868946}
{'word': 'Zealand', 'spans': [{'start': 0, 'end': 7}], 'country_predicted': 'NA', 'country_conf': 0.28365934}
{'word': 'Colombia', 'spans': [{'start': 0, 'end': 8}], 'country_predicted': 'COL', 'country_conf': 0.9516948, 'geo': {'admin1': 'Atlntico', 'lat': '11.00854', 'lon': '-74.90887', 'country_code3': 'COL', 'geonameid': '3671506', 'place_name': 'Puerto Colombia', 'feature_class': 'A', 'feature_code': 'ADM2'}}
{'word': 'Colombia', 'spans': [{'start': 0, 'end': 8}], 'country_predicted': 'COL', 'country_conf': 0.9516948, 'geo': {'admin1': 'Atlntico', 'lat': '11.00854', 'lon': '-74.90887', 'country_code3': 'COL', 'geonameid': '3671506', 'place_name': 'Puerto Colombia', 'feature_class': 'A', 'feature_code': 'ADM2'}}
{'word': 'china', 'spans': [{'start': 0, 'end': 5}], 'country_predicted': 'MEX', 'country_conf': 0.28365934}
{'word': 'Bogota', 'spans': [{'start': 0, 'end': 6}], 'country_predicted': 'COL', 'country_conf': 0.957188, 'geo': {'admin1': 'Bogota D.C.', 'lat': '4.60971', 'lon': '-74.08175', 'country_code3': 'COL', 'geonameid': '3688689', 'place_name': 'Bogot', 'feature_class': 'P', 'feature_code': 'PPLC'}}
{'word': 'Colombia', 'spans': [{'start': 1, 'end': 9}], 'country_predicted': 'COL', 'country_conf': 0.9516948, 'geo': {'admin1': 'Atlntico', 'lat': '11.00854', 'lon': '-74.90887', 'country_code3': 'COL', 'geonameid': '3671506', 'place_name': 'Puerto Colombia', 'feature_class': 'A', 'feature_code': 'ADM2'}}
{'word': 'Andes', 'spans': [{'start': 0, 'end': 5}], 'country_predicted': 'COL', 'country_conf': 0.87992215, 'geo': {'admin1': 'Antioquia', 'lat': '5.66974', 'lon': '-75.89905', 'country_code3': 'COL', 'geonameid': '3689900', 'place_name': 'Andes', 'feature_class': 'A', 'feature_code': 'ADM2'}}
{'word': 'Greenland', 'spans': [{'start': 0, 'end': 9}], 'country_predicted': 'GRL', 'country_conf': 0.3105929}
{'word': 'Hawaii', 'spans': [{'start': 0, 'end': 6}], 'country_predicted': 'USA', 'country_conf': 0.9634983, 'geo': {'admin1': 'Hawaii', 'lat': '20.78785', 'lon': '-156.38612', 'country_code3': 'USA', 'geonameid': '5855797', 'place_name': 'Hawaii', 'feature_class': 'A', 'feature_code': 'ADM1'}}
{'word': 'Colombia', 'spans': [{'start': 1, 'end': 9}], 'country_predicted': 'COL', 'country_conf': 0.9516948, 'geo': {'admin1': 'Atlntico', 'lat': '11.00854', 'lon': '-74.90887', 'country_code3': 'COL', 'geonameid': '3671506', 'place_name': 'Puerto Colombia', 'feature_class': 'A', 'feature_code': 'ADM2'}}
