{'word': 'Amsterdam', 'spans': [{'start': 0, 'end': 9}], 'country_predicted': 'NLD', 'country_conf': 0.957188, 'geo': {'admin1': 'North Holland', 'lat': '52.37302', 'lon': '4.89856', 'country_code3': 'NLD', 'geonameid': '2759793', 'place_name': 'Gemeente Amsterdam', 'feature_class': 'A', 'feature_code': 'ADM2'}}
{'word': 'Netherlands', 'spans': [{'start': 0, 'end': 11}], 'country_predicted': 'NLD', 'country_conf': 0.6948644, 'geo': {'admin1': 'NA', 'lat': '52.25', 'lon': '5.75', 'country_code3': 'NLD', 'geonameid': '2750405', 'place_name': 'Kingdom of the Netherlands', 'feature_class': 'A', 'feature_code': 'PCLI'}}
{'word': 'WALES', 'spans': [{'start': 0, 'end': 5}], 'country_predicted': 'GBR', 'country_conf': 0.957188, 'geo': {'admin1': 'Wales', 'lat': '52.5', 'lon': '-3.5', 'country_code3': 'GBR', 'geonameid': '2634895', 'place_name': 'Wales', 'feature_class': 'A', 'feature_code': 'ADM1'}}
{'word': 'R.I.', 'spans': [{'start': 0, 'end': 4}], 'country_predicted': 'PRY', 'country_conf': 0.9048774, 'geo': {'admin1': 'Alto Paran', 'lat': '-25.41284', 'lon': '-55.32948', 'country_code3': 'PRY', 'geonameid': '11850330', 'place_name': 'Calle R.I. 14 Cerro Cora', 'feature_class': 'A', 'feature_code': 'ADM3'}}
{'word': 'England', 'spans': [{'start': 0, 'end': 7}], 'country_predicted': 'GBR', 'country_conf': 0.3105929}
{'word': 'Wales', 'spans': [{'start': 0, 'end': 5}], 'country_predicted': 'GBR', 'country_conf': 0.3105929}
{'word': 'Harrogate', 'spans': [{'start': 0, 'end': 9}], 'country_predicted': 'GBR', 'country_conf': 0.96374094, 'geo': {'admin1': 'England', 'lat': '54.07632', 'lon': '-1.58821', 'country_code3': 'GBR', 'geonameid': '7290608', 'place_name': 'Harrogate District', 'feature_class': 'A', 'feature_code': 'ADM3'}}
{'word': 'Britain', 'spans': [{'start': 0, 'end': 7}], 'country_predicted': 'GBR', 'country_conf': 0.9516948, 'geo': {'admin1': 'NA', 'lat': '54.75844', 'lon': '-2.69531', 'country_code3': 'GBR', 'geonameid': '2635167', 'place_name': 'United Kingdom of Great Britain and Northern Ireland', 'feature_class': 'A', 'feature_code': 'PCLI'}}
{'word': 'R.I.', 'spans': [{'start': 0, 'end': 4}], 'country_predicted': 'PRY', 'country_conf': 0.9048774, 'geo': {'admin1': 'Alto Paran', 'lat': '-25.41284', 'lon': '-55.32948', 'country_code3': 'PRY', 'geonameid': '11850330', 'place_name': 'Calle R.I. 14 Cerro Cora', 'feature_class': 'A', 'feature_code': 'ADM3'}}
{'word': 'Wales', 'spans': [{'start': 0, 'end': 5}], 'country_predicted': 'GBR', 'country_conf': 0.3105929}
{'word': 'Wales', 'spans': [{'start': 0, 'end': 5}], 'country_predicted': 'GBR', 'country_conf': 0.3105929}
{'word': 'Palaeozoic', 'spans': [{'start': 0, 'end': 10}], 'country_predicted': '', 'country_conf': 0}
{'word': 'Palaeozoic', 'spans': [{'start': 0, 'end': 10}], 'country_predicted': '', 'country_conf': 0}
{'word': 'Wales', 'spans': [{'start': 0, 'end': 5}], 'country_predicted': 'GBR', 'country_conf': 0.3105929}
{'word': 'Pembrokeshire', 'spans': [{'start': 0, 'end': 13}], 'country_predicted': 'GBR', 'country_conf': 0.96374094, 'geo': {'admin1': 'Wales', 'lat': '51.83333', 'lon': '-4.91667', 'country_code3': 'GBR', 'geonameid': '2640500', 'place_name': 'Pembrokeshire', 'feature_class': 'A', 'feature_code': 'ADM2'}}
{'word': 'al.', 'spans': [{'start': 0, 'end': 3}], 'country_predicted': 'IRQ', 'country_conf': 0.28365934}
{'word': 'Palaeozoic', 'spans': [{'start': 0, 'end': 10}], 'country_predicted': '', 'country_conf': 0}
{'word': 'Newcastle', 'spans': [{'start': 0, 'end': 9}], 'country_predicted': 'ZAF', 'country_conf': 0.28365934}
{'word': 'Emlyn', 'spans': [{'start': 0, 'end': 5}], 'country_predicted': 'GBR', 'country_conf': 0.87992215, 'geo': {'admin1': 'Wales', 'lat': '52.04056', 'lon': '-4.4667', 'country_code3': 'GBR', 'geonameid': '2641676', 'place_name': 'Newcastle Emlyn', 'feature_class': 'P', 'feature_code': 'PPL'}}
{'word': 'Wales', 'spans': [{'start': 0, 'end': 5}], 'country_predicted': 'GBR', 'country_conf': 0.3105929}
{'word': 'al.', 'spans': [{'start': 0, 'end': 3}], 'country_predicted': 'IRQ', 'country_conf': 0.28365934}
{'word': 'al.', 'spans': [{'start': 0, 'end': 3}], 'country_predicted': 'IRQ', 'country_conf': 0.28365934}
{'word': 'Derbyshire', 'spans': [{'start': 0, 'end': 10}], 'country_predicted': 'GBR', 'country_conf': 0.96374094, 'geo': {'admin1': 'England', 'lat': '53.13543', 'lon': '-1.61125', 'country_code3': 'GBR', 'geonameid': '11609031', 'place_name': 'Derbyshire', 'feature_class': 'L', 'feature_code': 'RGN'}}
{'word': 'al.', 'spans': [{'start': 0, 'end': 3}], 'country_predicted': 'IRQ', 'country_conf': 0.28365934}
{'word': 'Wales', 'spans': [{'start': 0, 'end': 5}], 'country_predicted': 'GBR', 'country_conf': 0.3105929}
{'word': 'Pembrokeshire', 'spans': [{'start': 0, 'end': 13}], 'country_predicted': 'GBR', 'country_conf': 0.96374094, 'geo': {'admin1': 'Wales', 'lat': '51.83333', 'lon': '-4.91667', 'country_code3': 'GBR', 'geonameid': '2640500', 'place_name': 'Pembrokeshire', 'feature_class': 'A', 'feature_code': 'ADM2'}}
{'word': 'Pembrokeshire', 'spans': [{'start': 0, 'end': 13}], 'country_predicted': 'GBR', 'country_conf': 0.96374094, 'geo': {'admin1': 'Wales', 'lat': '51.83333', 'lon': '-4.91667', 'country_code3': 'GBR', 'geonameid': '2640500', 'place_name': 'Pembrokeshire', 'feature_class': 'A', 'feature_code': 'ADM2'}}
{'word': 'Wales', 'spans': [{'start': 0, 'end': 5}], 'country_predicted': 'GBR', 'country_conf': 0.3105929}
{'word': 'Palaeozoic', 'spans': [{'start': 0, 'end': 10}], 'country_predicted': '', 'country_conf': 0}
{'word': 'al.', 'spans': [{'start': 0, 'end': 3}], 'country_predicted': 'IRQ', 'country_conf': 0.28365934}
{'word': 'Palaeozoic', 'spans': [{'start': 0, 'end': 10}], 'country_predicted': '', 'country_conf': 0}
{'word': 'al.', 'spans': [{'start': 0, 'end': 3}], 'country_predicted': 'IRQ', 'country_conf': 0.28365934}
{'word': 'Derbyshire', 'spans': [{'start': 0, 'end': 10}], 'country_predicted': 'GBR', 'country_conf': 0.96374094, 'geo': {'admin1': 'England', 'lat': '53.13543', 'lon': '-1.61125', 'country_code3': 'GBR', 'geonameid': '11609031', 'place_name': 'Derbyshire', 'feature_class': 'L', 'feature_code': 'RGN'}}
{'word': 'al.', 'spans': [{'start': 0, 'end': 3}], 'country_predicted': 'IRQ', 'country_conf': 0.28365934}
{'word': 'Canada', 'spans': [{'start': 0, 'end': 6}], 'country_predicted': 'CAN', 'country_conf': 0.9516948, 'geo': {'admin1': 'NA', 'lat': '60.10867', 'lon': '-113.64258', 'country_code3': 'CAN', 'geonameid': '6251999', 'place_name': 'Canada', 'feature_class': 'A', 'feature_code': 'PCLI'}}
{'word': 'al.', 'spans': [{'start': 0, 'end': 3}], 'country_predicted': 'IRQ', 'country_conf': 0.28365934}
{'word': 'al.', 'spans': [{'start': 0, 'end': 3}], 'country_predicted': 'IRQ', 'country_conf': 0.28365934}
{'word': 'America', 'spans': [{'start': 0, 'end': 7}], 'country_predicted': 'USA', 'country_conf': 0.9516948, 'geo': {'admin1': 'Wyoming', 'lat': '41.54357', 'lon': '-109.85903', 'country_code3': 'USA', 'geonameid': '5830444', 'place_name': 'Little America', 'feature_class': 'P', 'feature_code': 'PPL'}}
{'word': 'Britain', 'spans': [{'start': 0, 'end': 7}], 'country_predicted': 'GBR', 'country_conf': 0.9516948, 'geo': {'admin1': 'NA', 'lat': '54.75844', 'lon': '-2.69531', 'country_code3': 'GBR', 'geonameid': '2635167', 'place_name': 'United Kingdom of Great Britain and Northern Ireland', 'feature_class': 'A', 'feature_code': 'PCLI'}}
{'word': 'America', 'spans': [{'start': 0, 'end': 7}], 'country_predicted': 'USA', 'country_conf': 0.9516948, 'geo': {'admin1': 'Wyoming', 'lat': '41.54357', 'lon': '-109.85903', 'country_code3': 'USA', 'geonameid': '5830444', 'place_name': 'Little America', 'feature_class': 'P', 'feature_code': 'PPL'}}
{'word': 'aOO', 'spans': [{'start': 0, 'end': 3}], 'country_predicted': 'USA', 'country_conf': 0.9528109, 'geo': {'admin1': 'Pennsylvania', 'lat': '40.31119', 'lon': '-78.32418', 'country_code3': 'USA', 'geonameid': '5200055', 'place_name': 'Martinsburg', 'feature_class': 'P', 'feature_code': 'PPL'}}
{'word': 'Wales', 'spans': [{'start': 0, 'end': 5}], 'country_predicted': 'GBR', 'country_conf': 0.3105929}
{'word': 'Alloway', 'spans': [{'start': 0, 'end': 7}], 'country_predicted': 'USA', 'country_conf': 0.87992215, 'geo': {'admin1': 'New Jersey', 'lat': '39.56095', 'lon': '-75.36242', 'country_code3': 'USA', 'geonameid': '4500491', 'place_name': 'Alloway', 'feature_class': 'P', 'feature_code': 'PPL'}}
{'word': 'Wales', 'spans': [{'start': 0, 'end': 5}], 'country_predicted': 'GBR', 'country_conf': 0.3105929}
{'word': 'B.W.', 'spans': [{'start': 0, 'end': 4}], 'country_predicted': 'AUS', 'country_conf': 0.9048774, 'geo': {'admin1': 'Victoria', 'lat': '-38.1356', 'lon': '144.35229', 'country_code3': 'AUS', 'geonameid': '10099315', 'place_name': 'B.W Geelong Motor Inn & Serviced Apartments', 'feature_class': 'S', 'feature_code': 'HTL'}}
{'word': 'England', 'spans': [{'start': 0, 'end': 7}], 'country_predicted': 'GBR', 'country_conf': 0.3105929}
{'word': 'Wales', 'spans': [{'start': 0, 'end': 5}], 'country_predicted': 'GBR', 'country_conf': 0.3105929}
{'word': 'R.I.', 'spans': [{'start': 0, 'end': 4}], 'country_predicted': 'PRY', 'country_conf': 0.9048774, 'geo': {'admin1': 'Alto Paran', 'lat': '-25.41284', 'lon': '-55.32948', 'country_code3': 'PRY', 'geonameid': '11850330', 'place_name': 'Calle R.I. 14 Cerro Cora', 'feature_class': 'A', 'feature_code': 'ADM3'}}
{'word': 'R.I.', 'spans': [{'start': 0, 'end': 4}], 'country_predicted': 'PRY', 'country_conf': 0.9048774, 'geo': {'admin1': 'Alto Paran', 'lat': '-25.41284', 'lon': '-55.32948', 'country_code3': 'PRY', 'geonameid': '11850330', 'place_name': 'Calle R.I. 14 Cerro Cora', 'feature_class': 'A', 'feature_code': 'ADM3'}}
{'word': 'Pembrokeshire', 'spans': [{'start': 0, 'end': 13}], 'country_predicted': 'GBR', 'country_conf': 0.96374094, 'geo': {'admin1': 'Wales', 'lat': '51.83333', 'lon': '-4.91667', 'country_code3': 'GBR', 'geonameid': '2640500', 'place_name': 'Pembrokeshire', 'feature_class': 'A', 'feature_code': 'ADM2'}}
{'word': 'Birmingham', 'spans': [{'start': 0, 'end': 10}], 'country_predicted': 'GBR', 'country_conf': 0.87992215, 'geo': {'admin1': 'England', 'lat': '52.48142', 'lon': '-1.89983', 'country_code3': 'GBR', 'geonameid': '2655603', 'place_name': 'Birmingham', 'feature_class': 'P', 'feature_code': 'PPLA2'}}
{'word': 'England', 'spans': [{'start': 0, 'end': 7}], 'country_predicted': 'GBR', 'country_conf': 0.3105929}
{'word': 'Cambridge', 'spans': [{'start': 0, 'end': 9}], 'country_predicted': 'GBR', 'country_conf': 0.87992215, 'geo': {'admin1': 'England', 'lat': '52.33333', 'lon': '0.08333', 'country_code3': 'GBR', 'geonameid': '2653940', 'place_name': 'Cambridgeshire', 'feature_class': 'A', 'feature_code': 'ADM2'}}
{'word': 'Wales', 'spans': [{'start': 0, 'end': 5}], 'country_predicted': 'GBR', 'country_conf': 0.3105929}
{'word': 'Britain', 'spans': [{'start': 0, 'end': 7}], 'country_predicted': 'GBR', 'country_conf': 0.9516948, 'geo': {'admin1': 'NA', 'lat': '54.75844', 'lon': '-2.69531', 'country_code3': 'GBR', 'geonameid': '2635167', 'place_name': 'United Kingdom of Great Britain and Northern Ireland', 'feature_class': 'A', 'feature_code': 'PCLI'}}
{'word': 'Environ', 'spans': [{'start': 0, 'end': 7}], 'country_predicted': 'CAN', 'country_conf': 0.9048774, 'geo': {'admin1': 'Saskatchewan', 'lat': '52.23338', 'lon': '-107.3173', 'country_code3': 'CAN', 'geonameid': '5949094', 'place_name': 'Environ', 'feature_class': 'P', 'feature_code': 'PPL'}}
{'word': 'Suda', 'spans': [{'start': 0, 'end': 4}], 'country_predicted': 'RUS', 'country_conf': 0.28365934}
{'word': 'Ontario', 'spans': [{'start': 0, 'end': 7}], 'country_predicted': 'CAN', 'country_conf': 0.87992215, 'geo': {'admin1': 'Ontario', 'lat': '49.25014', 'lon': '-84.49983', 'country_code3': 'CAN', 'geonameid': '6093943', 'place_name': 'Ontario', 'feature_class': 'A', 'feature_code': 'ADM1'}}
{'word': 'Derbyshire', 'spans': [{'start': 0, 'end': 10}], 'country_predicted': 'GBR', 'country_conf': 0.96374094, 'geo': {'admin1': 'England', 'lat': '53.13543', 'lon': '-1.61125', 'country_code3': 'GBR', 'geonameid': '11609031', 'place_name': 'Derbyshire', 'feature_class': 'L', 'feature_code': 'RGN'}}
{'word': 'U.K.', 'spans': [{'start': 0, 'end': 4}], 'country_predicted': 'GBR', 'country_conf': 0.9048774, 'geo': {'admin1': 'NA', 'lat': '54.75844', 'lon': '-2.69531', 'country_code3': 'GBR', 'geonameid': '2635167', 'place_name': 'United Kingdom of Great Britain and Northern Ireland', 'feature_class': 'A', 'feature_code': 'PCLI'}}
{'word': 'U.K.', 'spans': [{'start': 0, 'end': 4}], 'country_predicted': 'GBR', 'country_conf': 0.9048774, 'geo': {'admin1': 'NA', 'lat': '54.75844', 'lon': '-2.69531', 'country_code3': 'GBR', 'geonameid': '2635167', 'place_name': 'United Kingdom of Great Britain and Northern Ireland', 'feature_class': 'A', 'feature_code': 'PCLI'}}
{'word': 'Hamilton', 'spans': [{'start': 0, 'end': 8}], 'country_predicted': 'CAN', 'country_conf': 0.28365934}
{'word': 'Wales', 'spans': [{'start': 0, 'end': 5}], 'country_predicted': 'GBR', 'country_conf': 0.3105929}
{'word': 'Palaeozoic', 'spans': [{'start': 0, 'end': 10}], 'country_predicted': '', 'country_conf': 0}
