{'word': 'Amsterdam', 'spans': [{'start': 0, 'end': 9}], 'country_predicted': 'NLD', 'country_conf': 0.957188, 'geo': {'admin1': 'North Holland', 'lat': '52.37302', 'lon': '4.89856', 'country_code3': 'NLD', 'geonameid': '2759793', 'place_name': 'Gemeente Amsterdam', 'feature_class': 'A', 'feature_code': 'ADM2'}}
{'word': 'Netherlands', 'spans': [{'start': 0, 'end': 11}], 'country_predicted': 'NLD', 'country_conf': 0.6948644, 'geo': {'admin1': 'NA', 'lat': '52.25', 'lon': '5.75', 'country_code3': 'NLD', 'geonameid': '2750405', 'place_name': 'Kingdom of the Netherlands', 'feature_class': 'A', 'feature_code': 'PCLI'}}
{'word': 'Guatemala', 'spans': [{'start': 0, 'end': 9}], 'country_predicted': 'GTM', 'country_conf': 0.9516948, 'geo': {'admin1': 'NA', 'lat': '15.5', 'lon': '-90.25', 'country_code3': 'GTM', 'geonameid': '3595528', 'place_name': 'Republic of Guatemala', 'feature_class': 'A', 'feature_code': 'PCLI'}}
{'word': 'Mazepova', 'spans': [{'start': 0, 'end': 8}], 'country_predicted': 'RUS', 'country_conf': 0.9528109, 'geo': {'admin1': 'Krasnodarskiy', 'lat': '43.94056', 'lon': '39.29694', 'country_code3': 'RUS', 'geonameid': '823605', 'place_name': 'Ostanovochnyy Punkt Mamedova Shchel', 'feature_class': 'S', 'feature_code': 'RSTP'}}
{'word': 'trassy', 'spans': [{'start': 0, 'end': 6}], 'country_predicted': 'FRA', 'country_conf': 0.9528109, 'geo': {'admin1': "Provence-Alpes-Cte d'Azur", 'lat': '43.7364', 'lon': '6.9414', 'country_code3': 'FRA', 'geonameid': '3014855', 'place_name': 'Arrondissement de Grasse', 'feature_class': 'A', 'feature_code': 'ADM3'}}
{'word': 'Leningrad', 'spans': [{'start': 0, 'end': 9}], 'country_predicted': 'RUS', 'country_conf': 0.87992215, 'geo': {'admin1': 'St.-Petersburg', 'lat': '59.91667', 'lon': '30.25', 'country_code3': 'RUS', 'geonameid': '536203', 'place_name': 'Sankt-Peterburg', 'feature_class': 'A', 'feature_code': 'ADM1'}}
{'word': 'Moscow', 'spans': [{'start': 0, 'end': 6}], 'country_predicted': 'RUS', 'country_conf': 0.957188, 'geo': {'admin1': 'Moscow', 'lat': '55.75222', 'lon': '37.61556', 'country_code3': 'RUS', 'geonameid': '524901', 'place_name': 'Moscow', 'feature_class': 'P', 'feature_code': 'PPLC'}}
{'word': 'France', 'spans': [{'start': 0, 'end': 6}], 'country_predicted': 'FRA', 'country_conf': 0.9516948, 'geo': {'admin1': 'NA', 'lat': '46', 'lon': '2', 'country_code3': 'FRA', 'geonameid': '3017382', 'place_name': 'Republic of France', 'feature_class': 'A', 'feature_code': 'PCLI'}}
{'word': 'al.', 'spans': [{'start': 0, 'end': 3}], 'country_predicted': 'IRQ', 'country_conf': 0.28365934}
{'word': 'Norwich', 'spans': [{'start': 0, 'end': 7}], 'country_predicted': 'GBR', 'country_conf': 0.87992215, 'geo': {'admin1': 'England', 'lat': '52.62783', 'lon': '1.29834', 'country_code3': 'GBR', 'geonameid': '2641181', 'place_name': 'Norwich', 'feature_class': 'P', 'feature_code': 'PPLA2'}}
{'word': 'Kingdom', 'spans': [{'start': 0, 'end': 7}], 'country_predicted': 'CHN', 'country_conf': 0.28868946}
{'word': 'America', 'spans': [{'start': 0, 'end': 7}], 'country_predicted': 'USA', 'country_conf': 0.9516948, 'geo': {'admin1': 'Wyoming', 'lat': '41.54357', 'lon': '-109.85903', 'country_code3': 'USA', 'geonameid': '5830444', 'place_name': 'Little America', 'feature_class': 'P', 'feature_code': 'PPL'}}
{'word': 'Washington', 'spans': [{'start': 0, 'end': 10}], 'country_predicted': 'USA', 'country_conf': 0.69099617, 'geo': {'admin1': 'Washington', 'lat': '47.50012', 'lon': '-120.50147', 'country_code3': 'USA', 'geonameid': '5815135', 'place_name': 'Washington', 'feature_class': 'A', 'feature_code': 'ADM1'}}
{'word': 'Malawi', 'spans': [{'start': 0, 'end': 6}], 'country_predicted': 'MWI', 'country_conf': 0.9516948, 'geo': {'admin1': 'NA', 'lat': '-13.5', 'lon': '34', 'country_code3': 'MWI', 'geonameid': '927384', 'place_name': 'Republic of Malawi', 'feature_class': 'A', 'feature_code': 'PCLI'}}
{'word': 'al.', 'spans': [{'start': 0, 'end': 3}], 'country_predicted': 'IRQ', 'country_conf': 0.28365934}
{'word': 'California', 'spans': [{'start': 0, 'end': 10}], 'country_predicted': 'COL', 'country_conf': 0.19161284}
{'word': 'Riverside', 'spans': [{'start': 0, 'end': 9}], 'country_predicted': 'AUS', 'country_conf': 0.28365934}
{'word': 'England', 'spans': [{'start': 0, 'end': 7}], 'country_predicted': 'GBR', 'country_conf': 0.3105929}
{'word': 'al.', 'spans': [{'start': 0, 'end': 3}], 'country_predicted': 'IRQ', 'country_conf': 0.28365934}
{'word': 'Norwich', 'spans': [{'start': 0, 'end': 7}], 'country_predicted': 'GBR', 'country_conf': 0.87992215, 'geo': {'admin1': 'England', 'lat': '52.62783', 'lon': '1.29834', 'country_code3': 'GBR', 'geonameid': '2641181', 'place_name': 'Norwich', 'feature_class': 'P', 'feature_code': 'PPLA2'}}
{'word': 'Kingdom', 'spans': [{'start': 0, 'end': 7}], 'country_predicted': 'CHN', 'country_conf': 0.28868946}
{'word': 'Wisconsin', 'spans': [{'start': 0, 'end': 9}], 'country_predicted': 'USA', 'country_conf': 0.9634983, 'geo': {'admin1': 'Wisconsin', 'lat': '44.50024', 'lon': '-90.00041', 'country_code3': 'USA', 'geonameid': '5279468', 'place_name': 'Wisconsin', 'feature_class': 'A', 'feature_code': 'ADM1'}}
{'word': 'Arabia', 'spans': [{'start': 0, 'end': 6}], 'country_predicted': 'NA', 'country_conf': 0.28365934}
{'word': 'Arabia', 'spans': [{'start': 0, 'end': 6}], 'country_predicted': 'NA', 'country_conf': 0.28365934}
{'word': 'Arabia', 'spans': [{'start': 0, 'end': 6}], 'country_predicted': 'NA', 'country_conf': 0.28365934}
{'word': 'Raof', 'spans': [{'start': 0, 'end': 4}], 'country_predicted': 'MYS', 'country_conf': 0.9528109, 'geo': {'admin1': 'Perak', 'lat': '4.6', 'lon': '100.7', 'country_code3': 'MYS', 'geonameid': '1783510', 'place_name': 'Abdul Raof Estate', 'feature_class': 'S', 'feature_code': 'EST'}}
{'word': 'Vienna', 'spans': [{'start': 0, 'end': 6}], 'country_predicted': 'AUT', 'country_conf': 0.957188, 'geo': {'admin1': 'Vienna', 'lat': '48.20849', 'lon': '16.37208', 'country_code3': 'AUT', 'geonameid': '2761369', 'place_name': 'Vienna', 'feature_class': 'P', 'feature_code': 'PPLC'}}
{'word': 'Austria', 'spans': [{'start': 0, 'end': 7}], 'country_predicted': 'AUT', 'country_conf': 0.9516948, 'geo': {'admin1': 'NA', 'lat': '47.33333', 'lon': '13.33333', 'country_code3': 'AUT', 'geonameid': '2782113', 'place_name': 'Republic of Austria', 'feature_class': 'A', 'feature_code': 'PCLI'}}
{'word': 'Nevada', 'spans': [{'start': 0, 'end': 6}], 'country_predicted': 'USA', 'country_conf': 0.9634983, 'geo': {'admin1': 'Nevada', 'lat': '39.25021', 'lon': '-116.75119', 'country_code3': 'USA', 'geonameid': '5509151', 'place_name': 'Nevada', 'feature_class': 'A', 'feature_code': 'ADM1'}}
{'word': 'Dep', 'spans': [{'start': 0, 'end': 3}], 'country_predicted': 'IRN', 'country_conf': 0.28868946}
{'word': 'Washington', 'spans': [{'start': 0, 'end': 10}], 'country_predicted': 'USA', 'country_conf': 0.69099617, 'geo': {'admin1': 'Washington', 'lat': '47.50012', 'lon': '-120.50147', 'country_code3': 'USA', 'geonameid': '5815135', 'place_name': 'Washington', 'feature_class': 'A', 'feature_code': 'ADM1'}}
{'word': 'Valley', 'spans': [{'start': 0, 'end': 6}], 'country_predicted': 'USA', 'country_conf': 0.957188, 'geo': {'admin1': 'Alabama', 'lat': '32.81874', 'lon': '-85.17939', 'country_code3': 'USA', 'geonameid': '4095186', 'place_name': 'Valley', 'feature_class': 'P', 'feature_code': 'PPL'}}
{'word': 'Italy', 'spans': [{'start': 0, 'end': 5}], 'country_predicted': 'ITA', 'country_conf': 0.9516948, 'geo': {'admin1': 'NA', 'lat': '42.83333', 'lon': '12.83333', 'country_code3': 'ITA', 'geonameid': '3175395', 'place_name': 'Italian Republic', 'feature_class': 'A', 'feature_code': 'PCLI'}}
{'word': 'Earth', 'spans': [{'start': 0, 'end': 5}], 'country_predicted': 'NA', 'country_conf': 0.87992215, 'geo': {'admin1': 'NA', 'lat': '0', 'lon': '0', 'country_code3': 'NA', 'geonameid': '6295630', 'place_name': 'Earth', 'feature_class': 'L', 'feature_code': 'AREA'}}
{'word': 'Baars', 'spans': [{'start': 0, 'end': 5}], 'country_predicted': 'DEU', 'country_conf': 0.5714737}
{'word': 'Soc', 'spans': [{'start': 0, 'end': 3}], 'country_predicted': 'VNM', 'country_conf': 0.87992215, 'geo': {'admin1': 'Sc Trng', 'lat': '9.59995', 'lon': '105.97193', 'country_code3': 'VNM', 'geonameid': '1567788', 'place_name': 'Sc Trng', 'feature_class': 'P', 'feature_code': 'PPLA'}}
{'word': 'Nevada', 'spans': [{'start': 0, 'end': 6}], 'country_predicted': 'USA', 'country_conf': 0.9634983, 'geo': {'admin1': 'Nevada', 'lat': '39.25021', 'lon': '-116.75119', 'country_code3': 'USA', 'geonameid': '5509151', 'place_name': 'Nevada', 'feature_class': 'A', 'feature_code': 'ADM1'}}
{'word': 'illus.', 'spans': [{'start': 0, 'end': 6}], 'country_predicted': 'LBN', 'country_conf': 0.9048774, 'geo': {'admin1': 'Mont-Liban', 'lat': '33.67306', 'lon': '35.43', 'country_code3': 'LBN', 'geonameid': '6271519', 'place_name': 'Illouss', 'feature_class': 'L', 'feature_code': 'LCTY'}}
{'word': 'Bartow', 'spans': [{'start': 0, 'end': 6}], 'country_predicted': 'USA', 'country_conf': 0.87992215, 'geo': {'admin1': 'Georgia', 'lat': '34.23786', 'lon': '-84.8405', 'country_code3': 'USA', 'geonameid': '4181218', 'place_name': 'Bartow County', 'feature_class': 'A', 'feature_code': 'ADM2'}}
{'word': 'California', 'spans': [{'start': 0, 'end': 10}], 'country_predicted': 'COL', 'country_conf': 0.19161284}
{'word': 'America', 'spans': [{'start': 0, 'end': 7}], 'country_predicted': 'USA', 'country_conf': 0.9516948, 'geo': {'admin1': 'Wyoming', 'lat': '41.54357', 'lon': '-109.85903', 'country_code3': 'USA', 'geonameid': '5830444', 'place_name': 'Little America', 'feature_class': 'P', 'feature_code': 'PPL'}}
{'word': 'America', 'spans': [{'start': 0, 'end': 7}], 'country_predicted': 'USA', 'country_conf': 0.9516948, 'geo': {'admin1': 'Wyoming', 'lat': '41.54357', 'lon': '-109.85903', 'country_code3': 'USA', 'geonameid': '5830444', 'place_name': 'Little America', 'feature_class': 'P', 'feature_code': 'PPL'}}
{'word': 'Hong', 'spans': [{'start': 0, 'end': 4}], 'country_predicted': 'HKG', 'country_conf': 0.957188, 'geo': {'admin1': 'Central and Western', 'lat': '22.27832', 'lon': '114.17469', 'country_code3': 'HKG', 'geonameid': '1819729', 'place_name': 'Hong Kong', 'feature_class': 'P', 'feature_code': 'PPLC'}}
{'word': 'Kong', 'spans': [{'start': 0, 'end': 4}], 'country_predicted': 'CMR', 'country_conf': 0.28868946}
{'word': 'Hong', 'spans': [{'start': 0, 'end': 4}], 'country_predicted': 'HKG', 'country_conf': 0.957188, 'geo': {'admin1': 'Central and Western', 'lat': '22.27832', 'lon': '114.17469', 'country_code3': 'HKG', 'geonameid': '1819729', 'place_name': 'Hong Kong', 'feature_class': 'P', 'feature_code': 'PPLC'}}
{'word': 'Kong', 'spans': [{'start': 0, 'end': 4}], 'country_predicted': 'CMR', 'country_conf': 0.28868946}
{'word': 'Hong', 'spans': [{'start': 0, 'end': 4}], 'country_predicted': 'HKG', 'country_conf': 0.957188, 'geo': {'admin1': 'Central and Western', 'lat': '22.27832', 'lon': '114.17469', 'country_code3': 'HKG', 'geonameid': '1819729', 'place_name': 'Hong Kong', 'feature_class': 'P', 'feature_code': 'PPLC'}}
{'word': 'Kong', 'spans': [{'start': 0, 'end': 4}], 'country_predicted': 'CMR', 'country_conf': 0.28868946}
{'word': 'Australia', 'spans': [{'start': 0, 'end': 9}], 'country_predicted': 'AUS', 'country_conf': 0.9516948, 'geo': {'admin1': 'NA', 'lat': '-25', 'lon': '135', 'country_code3': 'AUS', 'geonameid': '2077456', 'place_name': 'Commonwealth of Australia', 'feature_class': 'A', 'feature_code': 'PCLI'}}
{'word': 'al.', 'spans': [{'start': 0, 'end': 3}], 'country_predicted': 'IRQ', 'country_conf': 0.28365934}
{'word': 'illus.', 'spans': [{'start': 0, 'end': 6}], 'country_predicted': 'LBN', 'country_conf': 0.9048774, 'geo': {'admin1': 'Mont-Liban', 'lat': '33.67306', 'lon': '35.43', 'country_code3': 'LBN', 'geonameid': '6271519', 'place_name': 'Illouss', 'feature_class': 'L', 'feature_code': 'LCTY'}}
{'word': 'USSR', 'spans': [{'start': 0, 'end': 4}], 'country_predicted': 'NA', 'country_conf': 0.9048774, 'geo': {'admin1': 'NA', 'lat': '60', 'lon': '98', 'country_code3': 'NA', 'geonameid': '8354411', 'place_name': 'Union of Soviet Socialist Republics', 'feature_class': 'A', 'feature_code': 'PCLH'}}
{'word': 'Hungary', 'spans': [{'start': 0, 'end': 7}], 'country_predicted': 'HUN', 'country_conf': 0.9516948, 'geo': {'admin1': 'NA', 'lat': '47', 'lon': '20', 'country_code3': 'HUN', 'geonameid': '719819', 'place_name': 'Hungary', 'feature_class': 'A', 'feature_code': 'PCLI'}}
{'word': 'Australia', 'spans': [{'start': 0, 'end': 9}], 'country_predicted': 'AUS', 'country_conf': 0.9516948, 'geo': {'admin1': 'NA', 'lat': '-25', 'lon': '135', 'country_code3': 'AUS', 'geonameid': '2077456', 'place_name': 'Commonwealth of Australia', 'feature_class': 'A', 'feature_code': 'PCLI'}}
{'word': 'al.', 'spans': [{'start': 0, 'end': 3}], 'country_predicted': 'IRQ', 'country_conf': 0.28365934}
{'word': 'Amsterdam', 'spans': [{'start': 0, 'end': 9}], 'country_predicted': 'NLD', 'country_conf': 0.957188, 'geo': {'admin1': 'North Holland', 'lat': '52.37302', 'lon': '4.89856', 'country_code3': 'NLD', 'geonameid': '2759793', 'place_name': 'Gemeente Amsterdam', 'feature_class': 'A', 'feature_code': 'ADM2'}}
{'word': 'Netherlands', 'spans': [{'start': 0, 'end': 11}], 'country_predicted': 'NLD', 'country_conf': 0.6948644, 'geo': {'admin1': 'NA', 'lat': '52.25', 'lon': '5.75', 'country_code3': 'NLD', 'geonameid': '2750405', 'place_name': 'Kingdom of the Netherlands', 'feature_class': 'A', 'feature_code': 'PCLI'}}
{'word': 'Colorado', 'spans': [{'start': 0, 'end': 8}], 'country_predicted': 'CRI', 'country_conf': 0.19161284}
{'word': 'Soc', 'spans': [{'start': 0, 'end': 3}], 'country_predicted': 'VNM', 'country_conf': 0.87992215, 'geo': {'admin1': 'Sc Trng', 'lat': '9.59995', 'lon': '105.97193', 'country_code3': 'VNM', 'geonameid': '1567788', 'place_name': 'Sc Trng', 'feature_class': 'P', 'feature_code': 'PPLA'}}
{'word': 'Kesarpur', 'spans': [{'start': 0, 'end': 8}], 'country_predicted': 'IND', 'country_conf': 0.5714737}
{'word': 'India', 'spans': [{'start': 0, 'end': 5}], 'country_predicted': 'IND', 'country_conf': 0.68758196, 'geo': {'admin1': 'NA', 'lat': '22', 'lon': '79', 'country_code3': 'IND', 'geonameid': '1269750', 'place_name': 'Republic of India', 'feature_class': 'A', 'feature_code': 'PCLI'}}
{'word': 'India', 'spans': [{'start': 0, 'end': 5}], 'country_predicted': 'IND', 'country_conf': 0.68758196, 'geo': {'admin1': 'NA', 'lat': '22', 'lon': '79', 'country_code3': 'IND', 'geonameid': '1269750', 'place_name': 'Republic of India', 'feature_class': 'A', 'feature_code': 'PCLI'}}
{'word': 'illus.', 'spans': [{'start': 0, 'end': 6}], 'country_predicted': 'LBN', 'country_conf': 0.9048774, 'geo': {'admin1': 'Mont-Liban', 'lat': '33.67306', 'lon': '35.43', 'country_code3': 'LBN', 'geonameid': '6271519', 'place_name': 'Illouss', 'feature_class': 'L', 'feature_code': 'LCTY'}}
{'word': 'York', 'spans': [{'start': 0, 'end': 4}], 'country_predicted': 'CAN', 'country_conf': 0.28868946}
{'word': 'NY', 'spans': [{'start': 0, 'end': 2}], 'country_predicted': 'SWE', 'country_conf': 0.28365934}
{'word': 'Soc', 'spans': [{'start': 0, 'end': 3}], 'country_predicted': 'VNM', 'country_conf': 0.87992215, 'geo': {'admin1': 'Sc Trng', 'lat': '9.59995', 'lon': '105.97193', 'country_code3': 'VNM', 'geonameid': '1567788', 'place_name': 'Sc Trng', 'feature_class': 'P', 'feature_code': 'PPLA'}}
{'word': 'BHem', 'spans': [{'start': 0, 'end': 4}], 'country_predicted': 'PAK', 'country_conf': 0.9528109, 'geo': {'admin1': 'Punjab', 'lat': '30.625', 'lon': '71.225', 'country_code3': 'PAK', 'geonameid': '1366912', 'place_name': 'Shaikh Bhem Shib', 'feature_class': 'P', 'feature_code': 'PPL'}}
{'word': 'Arabia', 'spans': [{'start': 0, 'end': 6}], 'country_predicted': 'NA', 'country_conf': 0.28365934}
{'word': 'Arabia', 'spans': [{'start': 0, 'end': 6}], 'country_predicted': 'NA', 'country_conf': 0.28365934}
{'word': 'Raof', 'spans': [{'start': 0, 'end': 4}], 'country_predicted': 'MYS', 'country_conf': 0.9528109, 'geo': {'admin1': 'Perak', 'lat': '4.6', 'lon': '100.7', 'country_code3': 'MYS', 'geonameid': '1783510', 'place_name': 'Abdul Raof Estate', 'feature_class': 'S', 'feature_code': 'EST'}}
{'word': 'al.', 'spans': [{'start': 0, 'end': 3}], 'country_predicted': 'IRQ', 'country_conf': 0.28365934}
{'word': 'Vienna', 'spans': [{'start': 0, 'end': 6}], 'country_predicted': 'AUT', 'country_conf': 0.957188, 'geo': {'admin1': 'Vienna', 'lat': '48.20849', 'lon': '16.37208', 'country_code3': 'AUT', 'geonameid': '2761369', 'place_name': 'Vienna', 'feature_class': 'P', 'feature_code': 'PPLC'}}
{'word': 'Austria', 'spans': [{'start': 0, 'end': 7}], 'country_predicted': 'AUT', 'country_conf': 0.9516948, 'geo': {'admin1': 'NA', 'lat': '47.33333', 'lon': '13.33333', 'country_code3': 'AUT', 'geonameid': '2782113', 'place_name': 'Republic of Austria', 'feature_class': 'A', 'feature_code': 'PCLI'}}
{'word': 'Hong', 'spans': [{'start': 0, 'end': 4}], 'country_predicted': 'HKG', 'country_conf': 0.957188, 'geo': {'admin1': 'Central and Western', 'lat': '22.27832', 'lon': '114.17469', 'country_code3': 'HKG', 'geonameid': '1819729', 'place_name': 'Hong Kong', 'feature_class': 'P', 'feature_code': 'PPLC'}}
{'word': 'Kong', 'spans': [{'start': 0, 'end': 4}], 'country_predicted': 'CMR', 'country_conf': 0.28868946}
{'word': 'Hong', 'spans': [{'start': 0, 'end': 4}], 'country_predicted': 'HKG', 'country_conf': 0.957188, 'geo': {'admin1': 'Central and Western', 'lat': '22.27832', 'lon': '114.17469', 'country_code3': 'HKG', 'geonameid': '1819729', 'place_name': 'Hong Kong', 'feature_class': 'P', 'feature_code': 'PPLC'}}
{'word': 'Kong', 'spans': [{'start': 0, 'end': 4}], 'country_predicted': 'CMR', 'country_conf': 0.28868946}
{'word': 'illus.', 'spans': [{'start': 0, 'end': 6}], 'country_predicted': 'LBN', 'country_conf': 0.9048774, 'geo': {'admin1': 'Mont-Liban', 'lat': '33.67306', 'lon': '35.43', 'country_code3': 'LBN', 'geonameid': '6271519', 'place_name': 'Illouss', 'feature_class': 'L', 'feature_code': 'LCTY'}}
{'word': 'Chesapeake', 'spans': [{'start': 0, 'end': 10}], 'country_predicted': 'USA', 'country_conf': 0.96374094, 'geo': {'admin1': 'Virginia', 'lat': '36.81904', 'lon': '-76.27494', 'country_code3': 'USA', 'geonameid': '4752186', 'place_name': 'Chesapeake', 'feature_class': 'P', 'feature_code': 'PPLA2'}}
{'word': 'Virginia-Maryland', 'spans': [{'start': 1, 'end': 18}], 'country_predicted': 'USA', 'country_conf': 0.96374094, 'geo': {'admin1': 'Virginia', 'lat': '37.21787', 'lon': '-80.42856', 'country_code3': 'USA', 'geonameid': '7124250', 'place_name': 'Virginia Maryland Regional College of Veterinary Medicine', 'feature_class': 'S', 'feature_code': 'SCH'}}
{'word': 'U.S.A.', 'spans': [{'start': 0, 'end': 6}], 'country_predicted': 'USA', 'country_conf': 0.87992215, 'geo': {'admin1': 'NA', 'lat': '39.76', 'lon': '-98.5', 'country_code3': 'USA', 'geonameid': '6252001', 'place_name': 'United States', 'feature_class': 'A', 'feature_code': 'PCLI'}}
{'word': 'Hamburg', 'spans': [{'start': 0, 'end': 7}], 'country_predicted': 'DEU', 'country_conf': 0.957188, 'geo': {'admin1': 'Hamburg', 'lat': '53.55073', 'lon': '9.99302', 'country_code3': 'DEU', 'geonameid': '2911298', 'place_name': 'Hamburg', 'feature_class': 'P', 'feature_code': 'PPLA'}}
{'word': 'Hong', 'spans': [{'start': 0, 'end': 4}], 'country_predicted': 'HKG', 'country_conf': 0.957188, 'geo': {'admin1': 'Central and Western', 'lat': '22.27832', 'lon': '114.17469', 'country_code3': 'HKG', 'geonameid': '1819729', 'place_name': 'Hong Kong', 'feature_class': 'P', 'feature_code': 'PPLC'}}
{'word': 'Kong', 'spans': [{'start': 0, 'end': 4}], 'country_predicted': 'CMR', 'country_conf': 0.28868946}
{'word': 'Hong', 'spans': [{'start': 0, 'end': 4}], 'country_predicted': 'HKG', 'country_conf': 0.957188, 'geo': {'admin1': 'Central and Western', 'lat': '22.27832', 'lon': '114.17469', 'country_code3': 'HKG', 'geonameid': '1819729', 'place_name': 'Hong Kong', 'feature_class': 'P', 'feature_code': 'PPLC'}}
{'word': 'Kong', 'spans': [{'start': 0, 'end': 4}], 'country_predicted': 'CMR', 'country_conf': 0.28868946}
{'word': 'al.', 'spans': [{'start': 0, 'end': 3}], 'country_predicted': 'IRQ', 'country_conf': 0.28365934}
{'word': 'illus.', 'spans': [{'start': 0, 'end': 6}], 'country_predicted': 'LBN', 'country_conf': 0.9048774, 'geo': {'admin1': 'Mont-Liban', 'lat': '33.67306', 'lon': '35.43', 'country_code3': 'LBN', 'geonameid': '6271519', 'place_name': 'Illouss', 'feature_class': 'L', 'feature_code': 'LCTY'}}
{'word': 'Norwich', 'spans': [{'start': 0, 'end': 7}], 'country_predicted': 'GBR', 'country_conf': 0.87992215, 'geo': {'admin1': 'England', 'lat': '52.62783', 'lon': '1.29834', 'country_code3': 'GBR', 'geonameid': '2641181', 'place_name': 'Norwich', 'feature_class': 'P', 'feature_code': 'PPLA2'}}
{'word': 'Kingdom', 'spans': [{'start': 0, 'end': 7}], 'country_predicted': 'CHN', 'country_conf': 0.28868946}
{'word': 'Palygorskite', 'spans': [{'start': 0, 'end': 12}], 'country_predicted': '', 'country_conf': 0}
{'word': 'Amsterdam', 'spans': [{'start': 0, 'end': 9}], 'country_predicted': 'NLD', 'country_conf': 0.957188, 'geo': {'admin1': 'North Holland', 'lat': '52.37302', 'lon': '4.89856', 'country_code3': 'NLD', 'geonameid': '2759793', 'place_name': 'Gemeente Amsterdam', 'feature_class': 'A', 'feature_code': 'ADM2'}}
{'word': 'Netherlands', 'spans': [{'start': 0, 'end': 11}], 'country_predicted': 'NLD', 'country_conf': 0.6948644, 'geo': {'admin1': 'NA', 'lat': '52.25', 'lon': '5.75', 'country_code3': 'NLD', 'geonameid': '2750405', 'place_name': 'Kingdom of the Netherlands', 'feature_class': 'A', 'feature_code': 'PCLI'}}
{'word': 'illus.', 'spans': [{'start': 0, 'end': 6}], 'country_predicted': 'LBN', 'country_conf': 0.9048774, 'geo': {'admin1': 'Mont-Liban', 'lat': '33.67306', 'lon': '35.43', 'country_code3': 'LBN', 'geonameid': '6271519', 'place_name': 'Illouss', 'feature_class': 'L', 'feature_code': 'LCTY'}}
{'word': 'illus.', 'spans': [{'start': 0, 'end': 6}], 'country_predicted': 'LBN', 'country_conf': 0.9048774, 'geo': {'admin1': 'Mont-Liban', 'lat': '33.67306', 'lon': '35.43', 'country_code3': 'LBN', 'geonameid': '6271519', 'place_name': 'Illouss', 'feature_class': 'L', 'feature_code': 'LCTY'}}
{'word': 'Dickson', 'spans': [{'start': 0, 'end': 7}], 'country_predicted': 'USA', 'country_conf': 0.87992215, 'geo': {'admin1': 'Tennessee', 'lat': '36.077', 'lon': '-87.38779', 'country_code3': 'USA', 'geonameid': '4618057', 'place_name': 'Dickson', 'feature_class': 'P', 'feature_code': 'PPL'}}
{'word': 'Malawi', 'spans': [{'start': 0, 'end': 6}], 'country_predicted': 'MWI', 'country_conf': 0.9516948, 'geo': {'admin1': 'NA', 'lat': '-13.5', 'lon': '34', 'country_code3': 'MWI', 'geonameid': '927384', 'place_name': 'Republic of Malawi', 'feature_class': 'A', 'feature_code': 'PCLI'}}
{'word': 'Harare', 'spans': [{'start': 0, 'end': 6}], 'country_predicted': 'ZWE', 'country_conf': 0.957188, 'geo': {'admin1': 'Harare', 'lat': '-17.85417', 'lon': '31.05833', 'country_code3': 'ZWE', 'geonameid': '1105844', 'place_name': 'Harare Province', 'feature_class': 'A', 'feature_code': 'ADM1'}}
{'word': 'Tasmania', 'spans': [{'start': 0, 'end': 8}], 'country_predicted': 'AUS', 'country_conf': 0.957188, 'geo': {'admin1': 'Tasmania', 'lat': '-42', 'lon': '147', 'country_code3': 'AUS', 'geonameid': '2147291', 'place_name': 'State of Tasmania', 'feature_class': 'A', 'feature_code': 'ADM1'}}
{'word': 'Sydney', 'spans': [{'start': 1, 'end': 7}], 'country_predicted': 'AUS', 'country_conf': 0.957188, 'geo': {'admin1': 'New South Wales', 'lat': '-33.86785', 'lon': '151.20732', 'country_code3': 'AUS', 'geonameid': '2147714', 'place_name': 'Sydney', 'feature_class': 'P', 'feature_code': 'PPLA'}}
{'word': 'Harare', 'spans': [{'start': 0, 'end': 6}], 'country_predicted': 'ZWE', 'country_conf': 0.957188, 'geo': {'admin1': 'Harare', 'lat': '-17.85417', 'lon': '31.05833', 'country_code3': 'ZWE', 'geonameid': '1105844', 'place_name': 'Harare Province', 'feature_class': 'A', 'feature_code': 'ADM1'}}
{'word': 'al.', 'spans': [{'start': 0, 'end': 3}], 'country_predicted': 'IRQ', 'country_conf': 0.28365934}
{'word': 'Harare', 'spans': [{'start': 0, 'end': 6}], 'country_predicted': 'ZWE', 'country_conf': 0.957188, 'geo': {'admin1': 'Harare', 'lat': '-17.85417', 'lon': '31.05833', 'country_code3': 'ZWE', 'geonameid': '1105844', 'place_name': 'Harare Province', 'feature_class': 'A', 'feature_code': 'ADM1'}}
{'word': 'al.', 'spans': [{'start': 0, 'end': 3}], 'country_predicted': 'IRQ', 'country_conf': 0.28365934}
{'word': 'Harare', 'spans': [{'start': 0, 'end': 6}], 'country_predicted': 'ZWE', 'country_conf': 0.957188, 'geo': {'admin1': 'Harare', 'lat': '-17.85417', 'lon': '31.05833', 'country_code3': 'ZWE', 'geonameid': '1105844', 'place_name': 'Harare Province', 'feature_class': 'A', 'feature_code': 'ADM1'}}
{'word': 'al.', 'spans': [{'start': 0, 'end': 3}], 'country_predicted': 'IRQ', 'country_conf': 0.28365934}
{'word': 'Coventry', 'spans': [{'start': 0, 'end': 8}], 'country_predicted': 'GBR', 'country_conf': 0.9048774, 'geo': {'admin1': 'England', 'lat': '52.40656', 'lon': '-1.51217', 'country_code3': 'GBR', 'geonameid': '2652221', 'place_name': 'Coventry', 'feature_class': 'P', 'feature_code': 'PPLA2'}}
{'word': 'Australia', 'spans': [{'start': 0, 'end': 9}], 'country_predicted': 'AUS', 'country_conf': 0.9516948, 'geo': {'admin1': 'NA', 'lat': '-25', 'lon': '135', 'country_code3': 'AUS', 'geonameid': '2077456', 'place_name': 'Commonwealth of Australia', 'feature_class': 'A', 'feature_code': 'PCLI'}}
{'word': 'Canada', 'spans': [{'start': 0, 'end': 6}], 'country_predicted': 'CAN', 'country_conf': 0.9516948, 'geo': {'admin1': 'NA', 'lat': '60.10867', 'lon': '-113.64258', 'country_code3': 'CAN', 'geonameid': '6251999', 'place_name': 'Canada', 'feature_class': 'A', 'feature_code': 'PCLI'}}
{'word': 'Malaysia', 'spans': [{'start': 0, 'end': 8}], 'country_predicted': 'MYS', 'country_conf': 0.9516948, 'geo': {'admin1': 'NA', 'lat': '2.5', 'lon': '112.5', 'country_code3': 'MYS', 'geonameid': '1733045', 'place_name': 'Malaysia', 'feature_class': 'A', 'feature_code': 'PCLI'}}
{'word': 'illus.', 'spans': [{'start': 0, 'end': 6}], 'country_predicted': 'LBN', 'country_conf': 0.9048774, 'geo': {'admin1': 'Mont-Liban', 'lat': '33.67306', 'lon': '35.43', 'country_code3': 'LBN', 'geonameid': '6271519', 'place_name': 'Illouss', 'feature_class': 'L', 'feature_code': 'LCTY'}}
{'word': 'Butte', 'spans': [{'start': 0, 'end': 5}], 'country_predicted': 'USA', 'country_conf': 0.957188, 'geo': {'admin1': 'Montana', 'lat': '46.00382', 'lon': '-112.53474', 'country_code3': 'USA', 'geonameid': '5642934', 'place_name': 'Butte', 'feature_class': 'P', 'feature_code': 'PPLA2'}}
{'word': 'Wyoming', 'spans': [{'start': 0, 'end': 7}], 'country_predicted': 'AUS', 'country_conf': 0.8529637, 'geo': {'admin1': 'New South Wales', 'lat': '-33.40387', 'lon': '151.36254', 'country_code3': 'AUS', 'geonameid': '8348757', 'place_name': 'Wyoming', 'feature_class': 'P', 'feature_code': 'PPLX'}}
{'word': 'illus.', 'spans': [{'start': 0, 'end': 6}], 'country_predicted': 'LBN', 'country_conf': 0.9048774, 'geo': {'admin1': 'Mont-Liban', 'lat': '33.67306', 'lon': '35.43', 'country_code3': 'LBN', 'geonameid': '6271519', 'place_name': 'Illouss', 'feature_class': 'L', 'feature_code': 'LCTY'}}
{'word': 'illus.', 'spans': [{'start': 0, 'end': 6}], 'country_predicted': 'LBN', 'country_conf': 0.9048774, 'geo': {'admin1': 'Mont-Liban', 'lat': '33.67306', 'lon': '35.43', 'country_code3': 'LBN', 'geonameid': '6271519', 'place_name': 'Illouss', 'feature_class': 'L', 'feature_code': 'LCTY'}}
{'word': 'Adirondack', 'spans': [{'start': 0, 'end': 10}], 'country_predicted': 'USA', 'country_conf': 0.6353264, 'geo': {'admin1': 'New York', 'lat': '43.19282', 'lon': '-74.52058', 'country_code3': 'USA', 'geonameid': '8082419', 'place_name': 'Southern Adirondack Pines Campground and Cabins', 'feature_class': 'S', 'feature_code': 'CMP'}}
{'word': 'York', 'spans': [{'start': 0, 'end': 4}], 'country_predicted': 'CAN', 'country_conf': 0.28868946}
{'word': 'U.S.A.', 'spans': [{'start': 0, 'end': 6}], 'country_predicted': 'USA', 'country_conf': 0.87992215, 'geo': {'admin1': 'NA', 'lat': '39.76', 'lon': '-98.5', 'country_code3': 'USA', 'geonameid': '6252001', 'place_name': 'United States', 'feature_class': 'A', 'feature_code': 'PCLI'}}
{'word': 'Middletown', 'spans': [{'start': 0, 'end': 10}], 'country_predicted': 'USA', 'country_conf': 0.957188, 'geo': {'admin1': 'New Jersey', 'lat': '40.39428', 'lon': '-74.11709', 'country_code3': 'USA', 'geonameid': '5101170', 'place_name': 'Middletown', 'feature_class': 'P', 'feature_code': 'PPL'}}
{'word': 'Kimpe', 'spans': [{'start': 0, 'end': 5}], 'country_predicted': 'COD', 'country_conf': 0.9528109, 'geo': {'admin1': 'NA', 'lat': '-12.03497', 'lon': '27.88143', 'country_code3': 'COD', 'geonameid': '10275659', 'place_name': 'Kimpe-Sud-Occidental', 'feature_class': 'S', 'feature_code': 'TRIG'}}
{'word': 'Quebec', 'spans': [{'start': 0, 'end': 6}], 'country_predicted': 'CAN', 'country_conf': 0.87992215, 'geo': {'admin1': 'Quebec', 'lat': '52.00017', 'lon': '-71.99907', 'country_code3': 'CAN', 'geonameid': '6115047', 'place_name': 'Qubec', 'feature_class': 'A', 'feature_code': 'ADM1'}}
{'word': 'Canada', 'spans': [{'start': 1, 'end': 7}], 'country_predicted': 'CAN', 'country_conf': 0.9516948, 'geo': {'admin1': 'NA', 'lat': '60.10867', 'lon': '-113.64258', 'country_code3': 'CAN', 'geonameid': '6251999', 'place_name': 'Canada', 'feature_class': 'A', 'feature_code': 'PCLI'}}
{'word': 'Harare', 'spans': [{'start': 0, 'end': 6}], 'country_predicted': 'ZWE', 'country_conf': 0.957188, 'geo': {'admin1': 'Harare', 'lat': '-17.85417', 'lon': '31.05833', 'country_code3': 'ZWE', 'geonameid': '1105844', 'place_name': 'Harare Province', 'feature_class': 'A', 'feature_code': 'ADM1'}}
{'word': 'Derbyshire', 'spans': [{'start': 0, 'end': 10}], 'country_predicted': 'GBR', 'country_conf': 0.96374094, 'geo': {'admin1': 'England', 'lat': '53.13543', 'lon': '-1.61125', 'country_code3': 'GBR', 'geonameid': '11609031', 'place_name': 'Derbyshire', 'feature_class': 'L', 'feature_code': 'RGN'}}
{'word': 'Hunza', 'spans': [{'start': 0, 'end': 5}], 'country_predicted': 'PAK', 'country_conf': 0.28868946}
{'word': 'Valley', 'spans': [{'start': 0, 'end': 6}], 'country_predicted': 'USA', 'country_conf': 0.957188, 'geo': {'admin1': 'Alabama', 'lat': '32.81874', 'lon': '-85.17939', 'country_code3': 'USA', 'geonameid': '4095186', 'place_name': 'Valley', 'feature_class': 'P', 'feature_code': 'PPL'}}
{'word': 'Pakistan', 'spans': [{'start': 0, 'end': 8}], 'country_predicted': 'PAK', 'country_conf': 0.68758196, 'geo': {'admin1': 'NA', 'lat': '30', 'lon': '70', 'country_code3': 'PAK', 'geonameid': '1168579', 'place_name': 'Islamic Republic of Pakistan', 'feature_class': 'A', 'feature_code': 'PCLI'}}
{'word': 'Cambridge', 'spans': [{'start': 0, 'end': 9}], 'country_predicted': 'GBR', 'country_conf': 0.87992215, 'geo': {'admin1': 'England', 'lat': '52.33333', 'lon': '0.08333', 'country_code3': 'GBR', 'geonameid': '2653940', 'place_name': 'Cambridgeshire', 'feature_class': 'A', 'feature_code': 'ADM2'}}
{'word': 'Cambridge', 'spans': [{'start': 0, 'end': 9}], 'country_predicted': 'GBR', 'country_conf': 0.87992215, 'geo': {'admin1': 'England', 'lat': '52.33333', 'lon': '0.08333', 'country_code3': 'GBR', 'geonameid': '2653940', 'place_name': 'Cambridgeshire', 'feature_class': 'A', 'feature_code': 'ADM2'}}
{'word': 'Kingdom', 'spans': [{'start': 0, 'end': 7}], 'country_predicted': 'CHN', 'country_conf': 0.28868946}
{'word': 'China', 'spans': [{'start': 0, 'end': 5}], 'country_predicted': 'CHN', 'country_conf': 0.68758196, 'geo': {'admin1': 'Hubei', 'lat': '30.52047', 'lon': '114.39637', 'country_code3': 'CHN', 'geonameid': '6620465', 'place_name': 'China University of Geosciences', 'feature_class': 'S', 'feature_code': 'SCHC'}}
{'word': 'illus.', 'spans': [{'start': 0, 'end': 6}], 'country_predicted': 'LBN', 'country_conf': 0.9048774, 'geo': {'admin1': 'Mont-Liban', 'lat': '33.67306', 'lon': '35.43', 'country_code3': 'LBN', 'geonameid': '6271519', 'place_name': 'Illouss', 'feature_class': 'L', 'feature_code': 'LCTY'}}
{'word': 'Krasnotsvetnyye', 'spans': [{'start': 0, 'end': 15}], 'country_predicted': '', 'country_conf': 0}
{'word': 'Hungary', 'spans': [{'start': 0, 'end': 7}], 'country_predicted': 'HUN', 'country_conf': 0.9516948, 'geo': {'admin1': 'NA', 'lat': '47', 'lon': '20', 'country_code3': 'HUN', 'geonameid': '719819', 'place_name': 'Hungary', 'feature_class': 'A', 'feature_code': 'PCLI'}}
{'word': 'London', 'spans': [{'start': 1, 'end': 7}], 'country_predicted': 'GBR', 'country_conf': 0.957188, 'geo': {'admin1': 'England', 'lat': '51.49227', 'lon': '-0.30864', 'country_code3': 'GBR', 'geonameid': '11591955', 'place_name': 'London', 'feature_class': 'L', 'feature_code': 'RGN'}}
{'word': 'illus.', 'spans': [{'start': 0, 'end': 6}], 'country_predicted': 'LBN', 'country_conf': 0.9048774, 'geo': {'admin1': 'Mont-Liban', 'lat': '33.67306', 'lon': '35.43', 'country_code3': 'LBN', 'geonameid': '6271519', 'place_name': 'Illouss', 'feature_class': 'L', 'feature_code': 'LCTY'}}
{'word': 'Wakefield', 'spans': [{'start': 0, 'end': 9}], 'country_predicted': 'GBR', 'country_conf': 0.87992215, 'geo': {'admin1': 'England', 'lat': '53.68085', 'lon': '-1.49895', 'country_code3': 'GBR', 'geonameid': '3333212', 'place_name': 'City and Borough of Wakefield', 'feature_class': 'A', 'feature_code': 'ADM2'}}
{'word': 'Idaho', 'spans': [{'start': 0, 'end': 5}], 'country_predicted': 'USA', 'country_conf': 0.9634983, 'geo': {'admin1': 'Idaho', 'lat': '44.5002', 'lon': '-114.25118', 'country_code3': 'USA', 'geonameid': '5596512', 'place_name': 'Idaho', 'feature_class': 'A', 'feature_code': 'ADM1'}}
{'word': 'Wales', 'spans': [{'start': 0, 'end': 5}], 'country_predicted': 'GBR', 'country_conf': 0.3105929}
{'word': 'Australia', 'spans': [{'start': 0, 'end': 9}], 'country_predicted': 'AUS', 'country_conf': 0.9516948, 'geo': {'admin1': 'NA', 'lat': '-25', 'lon': '135', 'country_code3': 'AUS', 'geonameid': '2077456', 'place_name': 'Commonwealth of Australia', 'feature_class': 'A', 'feature_code': 'PCLI'}}
{'word': 'Washington', 'spans': [{'start': 1, 'end': 11}], 'country_predicted': 'USA', 'country_conf': 0.69099617, 'geo': {'admin1': 'Washington', 'lat': '47.50012', 'lon': '-120.50147', 'country_code3': 'USA', 'geonameid': '5815135', 'place_name': 'Washington', 'feature_class': 'A', 'feature_code': 'ADM1'}}
{'word': 'illus.', 'spans': [{'start': 0, 'end': 6}], 'country_predicted': 'LBN', 'country_conf': 0.9048774, 'geo': {'admin1': 'Mont-Liban', 'lat': '33.67306', 'lon': '35.43', 'country_code3': 'LBN', 'geonameid': '6271519', 'place_name': 'Illouss', 'feature_class': 'L', 'feature_code': 'LCTY'}}
{'word': 'Leningrad', 'spans': [{'start': 0, 'end': 9}], 'country_predicted': 'RUS', 'country_conf': 0.87992215, 'geo': {'admin1': 'St.-Petersburg', 'lat': '59.91667', 'lon': '30.25', 'country_code3': 'RUS', 'geonameid': '536203', 'place_name': 'Sankt-Peterburg', 'feature_class': 'A', 'feature_code': 'ADM1'}}
{'word': 'Harare', 'spans': [{'start': 0, 'end': 6}], 'country_predicted': 'ZWE', 'country_conf': 0.957188, 'geo': {'admin1': 'Harare', 'lat': '-17.85417', 'lon': '31.05833', 'country_code3': 'ZWE', 'geonameid': '1105844', 'place_name': 'Harare Province', 'feature_class': 'A', 'feature_code': 'ADM1'}}
{'word': 'Chile', 'spans': [{'start': 0, 'end': 5}], 'country_predicted': 'CHL', 'country_conf': 0.9516948, 'geo': {'admin1': 'NA', 'lat': '-30', 'lon': '-71', 'country_code3': 'CHL', 'geonameid': '3895114', 'place_name': 'Republic of Chile', 'feature_class': 'A', 'feature_code': 'PCLI'}}
{'word': 'Zimbabwe', 'spans': [{'start': 0, 'end': 8}], 'country_predicted': 'ZWE', 'country_conf': 0.9516948, 'geo': {'admin1': 'NA', 'lat': '-19', 'lon': '29.75', 'country_code3': 'ZWE', 'geonameid': '878675', 'place_name': 'Republic of Zimbabwe', 'feature_class': 'A', 'feature_code': 'PCLI'}}
{'word': 'Harare', 'spans': [{'start': 0, 'end': 6}], 'country_predicted': 'ZWE', 'country_conf': 0.957188, 'geo': {'admin1': 'Harare', 'lat': '-17.85417', 'lon': '31.05833', 'country_code3': 'ZWE', 'geonameid': '1105844', 'place_name': 'Harare Province', 'feature_class': 'A', 'feature_code': 'ADM1'}}
{'word': 'China', 'spans': [{'start': 0, 'end': 5}], 'country_predicted': 'CHN', 'country_conf': 0.68758196, 'geo': {'admin1': 'Hubei', 'lat': '30.52047', 'lon': '114.39637', 'country_code3': 'CHN', 'geonameid': '6620465', 'place_name': 'China University of Geosciences', 'feature_class': 'S', 'feature_code': 'SCHC'}}
{'word': 'County', 'spans': [{'start': 0, 'end': 6}], 'country_predicted': 'GBR', 'country_conf': 0.28868946}
{'word': 'Arkansas', 'spans': [{'start': 0, 'end': 8}], 'country_predicted': 'USA', 'country_conf': 0.9634983, 'geo': {'admin1': 'Arkansas', 'lat': '34.75037', 'lon': '-92.50044', 'country_code3': 'USA', 'geonameid': '4099753', 'place_name': 'Arkansas', 'feature_class': 'A', 'feature_code': 'ADM1'}}
{'word': 'Dep', 'spans': [{'start': 0, 'end': 3}], 'country_predicted': 'IRN', 'country_conf': 0.28868946}
{'word': 'Washington', 'spans': [{'start': 0, 'end': 10}], 'country_predicted': 'USA', 'country_conf': 0.69099617, 'geo': {'admin1': 'Washington', 'lat': '47.50012', 'lon': '-120.50147', 'country_code3': 'USA', 'geonameid': '5815135', 'place_name': 'Washington', 'feature_class': 'A', 'feature_code': 'ADM1'}}
{'word': 'Berlin', 'spans': [{'start': 0, 'end': 6}], 'country_predicted': 'DEU', 'country_conf': 0.957188, 'geo': {'admin1': 'Berlin', 'lat': '52.5233', 'lon': '13.41377', 'country_code3': 'DEU', 'geonameid': '6547383', 'place_name': 'Berlin, Stadt', 'feature_class': 'A', 'feature_code': 'ADM3'}}
{'word': 'Germany', 'spans': [{'start': 0, 'end': 7}], 'country_predicted': 'DEU', 'country_conf': 0.9516948, 'geo': {'admin1': 'NA', 'lat': '51.5', 'lon': '10.5', 'country_code3': 'DEU', 'geonameid': '2921044', 'place_name': 'Federal Republic of Germany', 'feature_class': 'A', 'feature_code': 'PCLI'}}
{'word': 'Norwich', 'spans': [{'start': 0, 'end': 7}], 'country_predicted': 'GBR', 'country_conf': 0.87992215, 'geo': {'admin1': 'England', 'lat': '52.62783', 'lon': '1.29834', 'country_code3': 'GBR', 'geonameid': '2641181', 'place_name': 'Norwich', 'feature_class': 'P', 'feature_code': 'PPLA2'}}
{'word': 'Kingdom', 'spans': [{'start': 0, 'end': 7}], 'country_predicted': 'CHN', 'country_conf': 0.28868946}
{'word': 'illus.', 'spans': [{'start': 0, 'end': 6}], 'country_predicted': 'LBN', 'country_conf': 0.9048774, 'geo': {'admin1': 'Mont-Liban', 'lat': '33.67306', 'lon': '35.43', 'country_code3': 'LBN', 'geonameid': '6271519', 'place_name': 'Illouss', 'feature_class': 'L', 'feature_code': 'LCTY'}}
{'word': 'Dordrecht', 'spans': [{'start': 0, 'end': 9}], 'country_predicted': 'NLD', 'country_conf': 0.87992215, 'geo': {'admin1': 'South Holland', 'lat': '51.81', 'lon': '4.67361', 'country_code3': 'NLD', 'geonameid': '2756669', 'place_name': 'Dordrecht', 'feature_class': 'P', 'feature_code': 'PPL'}}
{'word': 'Netherlands', 'spans': [{'start': 0, 'end': 11}], 'country_predicted': 'NLD', 'country_conf': 0.6948644, 'geo': {'admin1': 'NA', 'lat': '52.25', 'lon': '5.75', 'country_code3': 'NLD', 'geonameid': '2750405', 'place_name': 'Kingdom of the Netherlands', 'feature_class': 'A', 'feature_code': 'PCLI'}}
{'word': 'Boden', 'spans': [{'start': 0, 'end': 5}], 'country_predicted': 'DEU', 'country_conf': 0.87992215, 'geo': {'admin1': 'Rheinland-Pfalz', 'lat': '50.47392', 'lon': '7.85695', 'country_code3': 'DEU', 'geonameid': '2947161', 'place_name': 'Boden', 'feature_class': 'P', 'feature_code': 'PPLA4'}}
{'word': 'Arbeiten', 'spans': [{'start': 0, 'end': 8}], 'country_predicted': 'TKL', 'country_conf': 0.24821267}
{'word': 'Norwich', 'spans': [{'start': 0, 'end': 7}], 'country_predicted': 'GBR', 'country_conf': 0.87992215, 'geo': {'admin1': 'England', 'lat': '52.62783', 'lon': '1.29834', 'country_code3': 'GBR', 'geonameid': '2641181', 'place_name': 'Norwich', 'feature_class': 'P', 'feature_code': 'PPLA2'}}
{'word': 'Kingdom', 'spans': [{'start': 0, 'end': 7}], 'country_predicted': 'CHN', 'country_conf': 0.28868946}
{'word': 'Hong', 'spans': [{'start': 0, 'end': 4}], 'country_predicted': 'HKG', 'country_conf': 0.957188, 'geo': {'admin1': 'Central and Western', 'lat': '22.27832', 'lon': '114.17469', 'country_code3': 'HKG', 'geonameid': '1819729', 'place_name': 'Hong Kong', 'feature_class': 'P', 'feature_code': 'PPLC'}}
{'word': 'Kong', 'spans': [{'start': 0, 'end': 4}], 'country_predicted': 'CMR', 'country_conf': 0.28868946}
{'word': 'Hong', 'spans': [{'start': 0, 'end': 4}], 'country_predicted': 'HKG', 'country_conf': 0.957188, 'geo': {'admin1': 'Central and Western', 'lat': '22.27832', 'lon': '114.17469', 'country_code3': 'HKG', 'geonameid': '1819729', 'place_name': 'Hong Kong', 'feature_class': 'P', 'feature_code': 'PPLC'}}
{'word': 'Kong', 'spans': [{'start': 0, 'end': 4}], 'country_predicted': 'CMR', 'country_conf': 0.28868946}
{'word': 'China', 'spans': [{'start': 0, 'end': 5}], 'country_predicted': 'CHN', 'country_conf': 0.68758196, 'geo': {'admin1': 'Hubei', 'lat': '30.52047', 'lon': '114.39637', 'country_code3': 'CHN', 'geonameid': '6620465', 'place_name': 'China University of Geosciences', 'feature_class': 'S', 'feature_code': 'SCHC'}}
{'word': 'Caracas', 'spans': [{'start': 0, 'end': 7}], 'country_predicted': 'VEN', 'country_conf': 0.957188, 'geo': {'admin1': 'Capital', 'lat': '10.48801', 'lon': '-66.87919', 'country_code3': 'VEN', 'geonameid': '3646738', 'place_name': 'Caracas', 'feature_class': 'P', 'feature_code': 'PPLC'}}
{'word': 'Venezuela', 'spans': [{'start': 0, 'end': 9}], 'country_predicted': 'VEN', 'country_conf': 0.9516948, 'geo': {'admin1': 'NA', 'lat': '8', 'lon': '-66', 'country_code3': 'VEN', 'geonameid': '3625428', 'place_name': 'Bolivarian Republic of Venezuela', 'feature_class': 'A', 'feature_code': 'PCLI'}}
{'word': 'illus.', 'spans': [{'start': 0, 'end': 6}], 'country_predicted': 'LBN', 'country_conf': 0.9048774, 'geo': {'admin1': 'Mont-Liban', 'lat': '33.67306', 'lon': '35.43', 'country_code3': 'LBN', 'geonameid': '6271519', 'place_name': 'Illouss', 'feature_class': 'L', 'feature_code': 'LCTY'}}
{'word': 'Colorado', 'spans': [{'start': 0, 'end': 8}], 'country_predicted': 'CRI', 'country_conf': 0.19161284}
{'word': 'Soc', 'spans': [{'start': 0, 'end': 3}], 'country_predicted': 'VNM', 'country_conf': 0.87992215, 'geo': {'admin1': 'Sc Trng', 'lat': '9.59995', 'lon': '105.97193', 'country_code3': 'VNM', 'geonameid': '1567788', 'place_name': 'Sc Trng', 'feature_class': 'P', 'feature_code': 'PPLA'}}
{'word': 'Harare', 'spans': [{'start': 0, 'end': 6}], 'country_predicted': 'ZWE', 'country_conf': 0.957188, 'geo': {'admin1': 'Harare', 'lat': '-17.85417', 'lon': '31.05833', 'country_code3': 'ZWE', 'geonameid': '1105844', 'place_name': 'Harare Province', 'feature_class': 'A', 'feature_code': 'ADM1'}}
{'word': 'al.', 'spans': [{'start': 0, 'end': 3}], 'country_predicted': 'IRQ', 'country_conf': 0.28365934}
{'word': 'Arizona', 'spans': [{'start': 0, 'end': 7}], 'country_predicted': 'USA', 'country_conf': 0.9634983, 'geo': {'admin1': 'Arizona', 'lat': '34.5003', 'lon': '-111.50098', 'country_code3': 'USA', 'geonameid': '5551752', 'place_name': 'Arizona', 'feature_class': 'A', 'feature_code': 'ADM1'}}
{'word': 'Sinai', 'spans': [{'start': 0, 'end': 5}], 'country_predicted': 'MEX', 'country_conf': 0.28365934}
{'word': 'Iran', 'spans': [{'start': 0, 'end': 4}], 'country_predicted': 'IRN', 'country_conf': 0.9516948, 'geo': {'admin1': 'NA', 'lat': '32', 'lon': '53', 'country_code3': 'IRN', 'geonameid': '130758', 'place_name': 'Islamic Republic of Iran', 'feature_class': 'A', 'feature_code': 'PCLI'}}
{'word': 'Iran', 'spans': [{'start': 0, 'end': 4}], 'country_predicted': 'IRN', 'country_conf': 0.9516948, 'geo': {'admin1': 'NA', 'lat': '32', 'lon': '53', 'country_code3': 'IRN', 'geonameid': '130758', 'place_name': 'Islamic Republic of Iran', 'feature_class': 'A', 'feature_code': 'PCLI'}}
{'word': 'Louisiana', 'spans': [{'start': 0, 'end': 9}], 'country_predicted': 'USA', 'country_conf': 0.9634983, 'geo': {'admin1': 'Louisiana', 'lat': '31.00047', 'lon': '-92.0004', 'country_code3': 'USA', 'geonameid': '4331987', 'place_name': 'Louisiana', 'feature_class': 'A', 'feature_code': 'ADM1'}}
{'word': 'Australia', 'spans': [{'start': 0, 'end': 9}], 'country_predicted': 'AUS', 'country_conf': 0.9516948, 'geo': {'admin1': 'NA', 'lat': '-25', 'lon': '135', 'country_code3': 'AUS', 'geonameid': '2077456', 'place_name': 'Commonwealth of Australia', 'feature_class': 'A', 'feature_code': 'PCLI'}}
{'word': 'Hunza', 'spans': [{'start': 0, 'end': 5}], 'country_predicted': 'PAK', 'country_conf': 0.28868946}
{'word': 'Valley', 'spans': [{'start': 0, 'end': 6}], 'country_predicted': 'USA', 'country_conf': 0.957188, 'geo': {'admin1': 'Alabama', 'lat': '32.81874', 'lon': '-85.17939', 'country_code3': 'USA', 'geonameid': '4095186', 'place_name': 'Valley', 'feature_class': 'P', 'feature_code': 'PPL'}}
{'word': 'Pakistan', 'spans': [{'start': 0, 'end': 8}], 'country_predicted': 'PAK', 'country_conf': 0.68758196, 'geo': {'admin1': 'NA', 'lat': '30', 'lon': '70', 'country_code3': 'PAK', 'geonameid': '1168579', 'place_name': 'Islamic Republic of Pakistan', 'feature_class': 'A', 'feature_code': 'PCLI'}}
{'word': 'Cambridge', 'spans': [{'start': 0, 'end': 9}], 'country_predicted': 'GBR', 'country_conf': 0.87992215, 'geo': {'admin1': 'England', 'lat': '52.33333', 'lon': '0.08333', 'country_code3': 'GBR', 'geonameid': '2653940', 'place_name': 'Cambridgeshire', 'feature_class': 'A', 'feature_code': 'ADM2'}}
{'word': 'Cambridge', 'spans': [{'start': 0, 'end': 9}], 'country_predicted': 'GBR', 'country_conf': 0.87992215, 'geo': {'admin1': 'England', 'lat': '52.33333', 'lon': '0.08333', 'country_code3': 'GBR', 'geonameid': '2653940', 'place_name': 'Cambridgeshire', 'feature_class': 'A', 'feature_code': 'ADM2'}}
{'word': 'Kingdom', 'spans': [{'start': 0, 'end': 7}], 'country_predicted': 'CHN', 'country_conf': 0.28868946}
{'word': 'Hunza', 'spans': [{'start': 0, 'end': 5}], 'country_predicted': 'PAK', 'country_conf': 0.28868946}
{'word': 'Valley', 'spans': [{'start': 0, 'end': 6}], 'country_predicted': 'USA', 'country_conf': 0.957188, 'geo': {'admin1': 'Alabama', 'lat': '32.81874', 'lon': '-85.17939', 'country_code3': 'USA', 'geonameid': '4095186', 'place_name': 'Valley', 'feature_class': 'P', 'feature_code': 'PPL'}}
{'word': 'Pakistan', 'spans': [{'start': 0, 'end': 8}], 'country_predicted': 'PAK', 'country_conf': 0.68758196, 'geo': {'admin1': 'NA', 'lat': '30', 'lon': '70', 'country_code3': 'PAK', 'geonameid': '1168579', 'place_name': 'Islamic Republic of Pakistan', 'feature_class': 'A', 'feature_code': 'PCLI'}}
{'word': 'Cambridge', 'spans': [{'start': 0, 'end': 9}], 'country_predicted': 'GBR', 'country_conf': 0.87992215, 'geo': {'admin1': 'England', 'lat': '52.33333', 'lon': '0.08333', 'country_code3': 'GBR', 'geonameid': '2653940', 'place_name': 'Cambridgeshire', 'feature_class': 'A', 'feature_code': 'ADM2'}}
{'word': 'Cambridge', 'spans': [{'start': 0, 'end': 9}], 'country_predicted': 'GBR', 'country_conf': 0.87992215, 'geo': {'admin1': 'England', 'lat': '52.33333', 'lon': '0.08333', 'country_code3': 'GBR', 'geonameid': '2653940', 'place_name': 'Cambridgeshire', 'feature_class': 'A', 'feature_code': 'ADM2'}}
{'word': 'Kingdom', 'spans': [{'start': 0, 'end': 7}], 'country_predicted': 'CHN', 'country_conf': 0.28868946}
{'word': 'Cambridge', 'spans': [{'start': 0, 'end': 9}], 'country_predicted': 'GBR', 'country_conf': 0.87992215, 'geo': {'admin1': 'England', 'lat': '52.33333', 'lon': '0.08333', 'country_code3': 'GBR', 'geonameid': '2653940', 'place_name': 'Cambridgeshire', 'feature_class': 'A', 'feature_code': 'ADM2'}}
{'word': 'Cambridge', 'spans': [{'start': 0, 'end': 9}], 'country_predicted': 'GBR', 'country_conf': 0.87992215, 'geo': {'admin1': 'England', 'lat': '52.33333', 'lon': '0.08333', 'country_code3': 'GBR', 'geonameid': '2653940', 'place_name': 'Cambridgeshire', 'feature_class': 'A', 'feature_code': 'ADM2'}}
{'word': 'Kingdom', 'spans': [{'start': 0, 'end': 7}], 'country_predicted': 'CHN', 'country_conf': 0.28868946}
{'word': 'Yemen', 'spans': [{'start': 0, 'end': 5}], 'country_predicted': 'YEM', 'country_conf': 0.9516948, 'geo': {'admin1': 'NA', 'lat': '15.5', 'lon': '47.5', 'country_code3': 'YEM', 'geonameid': '69543', 'place_name': 'Republic of Yemen', 'feature_class': 'A', 'feature_code': 'PCLI'}}
{'word': 'Washington', 'spans': [{'start': 1, 'end': 11}], 'country_predicted': 'USA', 'country_conf': 0.69099617, 'geo': {'admin1': 'Washington', 'lat': '47.50012', 'lon': '-120.50147', 'country_code3': 'USA', 'geonameid': '5815135', 'place_name': 'Washington', 'feature_class': 'A', 'feature_code': 'ADM1'}}
{'word': 'Landesamt', 'spans': [{'start': 0, 'end': 9}], 'country_predicted': 'DEU', 'country_conf': 0.9528109, 'geo': {'admin1': 'Baden-Wrttemberg', 'lat': '48.85265', 'lon': '9.18566', 'country_code3': 'DEU', 'geonameid': '11281719', 'place_name': 'Landesamt fr Geoinformation und Landentwicklung Baden-Wrttemberg', 'feature_class': 'S', 'feature_code': 'ADMF'}}
{'word': 'Deutschland', 'spans': [{'start': 0, 'end': 11}], 'country_predicted': 'DEU', 'country_conf': 0.9048774, 'geo': {'admin1': 'NA', 'lat': '51.5', 'lon': '10.5', 'country_code3': 'DEU', 'geonameid': '2921044', 'place_name': 'Federal Republic of Germany', 'feature_class': 'A', 'feature_code': 'PCLI'}}
{'word': 'Festueranstahung', 'spans': [{'start': 0, 'end': 16}], 'country_predicted': '', 'country_conf': 0}
{'word': 'gaza', 'spans': [{'start': 0, 'end': 4}], 'country_predicted': 'PSE', 'country_conf': 0.6353264, 'geo': {'admin1': 'NA', 'lat': '31.92157', 'lon': '35.20329', 'country_code3': 'PSE', 'geonameid': '6254930', 'place_name': 'Palestine', 'feature_class': 'A', 'feature_code': 'PCLS'}}
{'word': 'al.', 'spans': [{'start': 0, 'end': 3}], 'country_predicted': 'IRQ', 'country_conf': 0.28365934}
{'word': 'Norwich', 'spans': [{'start': 0, 'end': 7}], 'country_predicted': 'GBR', 'country_conf': 0.87992215, 'geo': {'admin1': 'England', 'lat': '52.62783', 'lon': '1.29834', 'country_code3': 'GBR', 'geonameid': '2641181', 'place_name': 'Norwich', 'feature_class': 'P', 'feature_code': 'PPLA2'}}
{'word': 'Kingdom', 'spans': [{'start': 0, 'end': 7}], 'country_predicted': 'CHN', 'country_conf': 0.28868946}
{'word': 'al.', 'spans': [{'start': 0, 'end': 3}], 'country_predicted': 'IRQ', 'country_conf': 0.28365934}
{'word': 'Norwich', 'spans': [{'start': 0, 'end': 7}], 'country_predicted': 'GBR', 'country_conf': 0.87992215, 'geo': {'admin1': 'England', 'lat': '52.62783', 'lon': '1.29834', 'country_code3': 'GBR', 'geonameid': '2641181', 'place_name': 'Norwich', 'feature_class': 'P', 'feature_code': 'PPLA2'}}
{'word': 'Kingdom', 'spans': [{'start': 0, 'end': 7}], 'country_predicted': 'CHN', 'country_conf': 0.28868946}
{'word': 'Australia', 'spans': [{'start': 0, 'end': 9}], 'country_predicted': 'AUS', 'country_conf': 0.9516948, 'geo': {'admin1': 'NA', 'lat': '-25', 'lon': '135', 'country_code3': 'AUS', 'geonameid': '2077456', 'place_name': 'Commonwealth of Australia', 'feature_class': 'A', 'feature_code': 'PCLI'}}
{'word': 'California', 'spans': [{'start': 0, 'end': 10}], 'country_predicted': 'COL', 'country_conf': 0.19161284}
{'word': 'America', 'spans': [{'start': 0, 'end': 7}], 'country_predicted': 'USA', 'country_conf': 0.9516948, 'geo': {'admin1': 'Wyoming', 'lat': '41.54357', 'lon': '-109.85903', 'country_code3': 'USA', 'geonameid': '5830444', 'place_name': 'Little America', 'feature_class': 'P', 'feature_code': 'PPL'}}
{'word': 'Hamilton', 'spans': [{'start': 0, 'end': 8}], 'country_predicted': 'CAN', 'country_conf': 0.28365934}
{'word': 'Alaska', 'spans': [{'start': 0, 'end': 6}], 'country_predicted': 'USA', 'country_conf': 0.9634983, 'geo': {'admin1': 'Alaska', 'lat': '64.00028', 'lon': '-150.00028', 'country_code3': 'USA', 'geonameid': '5879092', 'place_name': 'Alaska', 'feature_class': 'A', 'feature_code': 'ADM1'}}
{'word': 'al.', 'spans': [{'start': 0, 'end': 3}], 'country_predicted': 'IRQ', 'country_conf': 0.28365934}
{'word': 'Zealand', 'spans': [{'start': 0, 'end': 7}], 'country_predicted': 'NA', 'country_conf': 0.28365934}
{'word': 'America', 'spans': [{'start': 0, 'end': 7}], 'country_predicted': 'USA', 'country_conf': 0.9516948, 'geo': {'admin1': 'Wyoming', 'lat': '41.54357', 'lon': '-109.85903', 'country_code3': 'USA', 'geonameid': '5830444', 'place_name': 'Little America', 'feature_class': 'P', 'feature_code': 'PPL'}}
{'word': 'California', 'spans': [{'start': 0, 'end': 10}], 'country_predicted': 'COL', 'country_conf': 0.19161284}
{'word': 'America', 'spans': [{'start': 0, 'end': 7}], 'country_predicted': 'USA', 'country_conf': 0.9516948, 'geo': {'admin1': 'Wyoming', 'lat': '41.54357', 'lon': '-109.85903', 'country_code3': 'USA', 'geonameid': '5830444', 'place_name': 'Little America', 'feature_class': 'P', 'feature_code': 'PPL'}}
{'word': 'Zealand', 'spans': [{'start': 0, 'end': 7}], 'country_predicted': 'NA', 'country_conf': 0.28365934}
{'word': 'Rutherford', 'spans': [{'start': 0, 'end': 10}], 'country_predicted': 'USA', 'country_conf': 0.87992215, 'geo': {'admin1': 'New Jersey', 'lat': '40.82649', 'lon': '-74.10681', 'country_code3': 'USA', 'geonameid': '5103580', 'place_name': 'Rutherford', 'feature_class': 'P', 'feature_code': 'PPL'}}
{'word': 'Ontario', 'spans': [{'start': 0, 'end': 7}], 'country_predicted': 'CAN', 'country_conf': 0.87992215, 'geo': {'admin1': 'Ontario', 'lat': '49.25014', 'lon': '-84.49983', 'country_code3': 'CAN', 'geonameid': '6093943', 'place_name': 'Ontario', 'feature_class': 'A', 'feature_code': 'ADM1'}}
{'word': 'Canada', 'spans': [{'start': 0, 'end': 6}], 'country_predicted': 'CAN', 'country_conf': 0.9516948, 'geo': {'admin1': 'NA', 'lat': '60.10867', 'lon': '-113.64258', 'country_code3': 'CAN', 'geonameid': '6251999', 'place_name': 'Canada', 'feature_class': 'A', 'feature_code': 'PCLI'}}
{'word': 'Popp', 'spans': [{'start': 0, 'end': 4}], 'country_predicted': 'DEU', 'country_conf': 0.28868946}
{'word': 'County', 'spans': [{'start': 0, 'end': 6}], 'country_predicted': 'GBR', 'country_conf': 0.28868946}
{'word': 'Maine', 'spans': [{'start': 0, 'end': 5}], 'country_predicted': 'USA', 'country_conf': 0.9634983, 'geo': {'admin1': 'Maine', 'lat': '45.50032', 'lon': '-69.24977', 'country_code3': 'USA', 'geonameid': '4971068', 'place_name': 'Maine', 'feature_class': 'A', 'feature_code': 'ADM1'}}
{'word': 'Dep', 'spans': [{'start': 0, 'end': 3}], 'country_predicted': 'IRN', 'country_conf': 0.28868946}
{'word': 'Washington', 'spans': [{'start': 0, 'end': 10}], 'country_predicted': 'USA', 'country_conf': 0.69099617, 'geo': {'admin1': 'Washington', 'lat': '47.50012', 'lon': '-120.50147', 'country_code3': 'USA', 'geonameid': '5815135', 'place_name': 'Washington', 'feature_class': 'A', 'feature_code': 'ADM1'}}
{'word': 'Comm.', 'spans': [{'start': 0, 'end': 5}], 'country_predicted': 'ITA', 'country_conf': 0.87992215, 'geo': {'admin1': 'Lombardy', 'lat': '45.80998', 'lon': '9.08744', 'country_code3': 'ITA', 'geonameid': '6542055', 'place_name': 'Como', 'feature_class': 'A', 'feature_code': 'ADM3'}}
{'word': 'Beverly', 'spans': [{'start': 0, 'end': 7}], 'country_predicted': 'USA', 'country_conf': 0.957188, 'geo': {'admin1': 'Massachusetts', 'lat': '42.55843', 'lon': '-70.88005', 'country_code3': 'USA', 'geonameid': '4930505', 'place_name': 'Beverly', 'feature_class': 'P', 'feature_code': 'PPL'}}
{'word': 'Hiekey', 'spans': [{'start': 0, 'end': 6}], 'country_predicted': 'AUS', 'country_conf': 0.5714737}
{'word': 'County', 'spans': [{'start': 0, 'end': 6}], 'country_predicted': 'GBR', 'country_conf': 0.28868946}
{'word': 'Arizona', 'spans': [{'start': 0, 'end': 7}], 'country_predicted': 'USA', 'country_conf': 0.9634983, 'geo': {'admin1': 'Arizona', 'lat': '34.5003', 'lon': '-111.50098', 'country_code3': 'USA', 'geonameid': '5551752', 'place_name': 'Arizona', 'feature_class': 'A', 'feature_code': 'ADM1'}}
{'word': 'palygorskite', 'spans': [{'start': 0, 'end': 12}], 'country_predicted': '', 'country_conf': 0}
{'word': 'South-East', 'spans': [{'start': 0, 'end': 10}], 'country_predicted': 'GBR', 'country_conf': 0.28365934}
{'word': 'Australia', 'spans': [{'start': 0, 'end': 9}], 'country_predicted': 'AUS', 'country_conf': 0.9516948, 'geo': {'admin1': 'NA', 'lat': '-25', 'lon': '135', 'country_code3': 'AUS', 'geonameid': '2077456', 'place_name': 'Commonwealth of Australia', 'feature_class': 'A', 'feature_code': 'PCLI'}}
{'word': 'Palygorskite', 'spans': [{'start': 0, 'end': 12}], 'country_predicted': '', 'country_conf': 0}
{'word': 'al.', 'spans': [{'start': 0, 'end': 3}], 'country_predicted': 'IRQ', 'country_conf': 0.28365934}
{'word': 'Amsterdam', 'spans': [{'start': 0, 'end': 9}], 'country_predicted': 'NLD', 'country_conf': 0.957188, 'geo': {'admin1': 'North Holland', 'lat': '52.37302', 'lon': '4.89856', 'country_code3': 'NLD', 'geonameid': '2759793', 'place_name': 'Gemeente Amsterdam', 'feature_class': 'A', 'feature_code': 'ADM2'}}
{'word': 'Netherlands', 'spans': [{'start': 0, 'end': 11}], 'country_predicted': 'NLD', 'country_conf': 0.6948644, 'geo': {'admin1': 'NA', 'lat': '52.25', 'lon': '5.75', 'country_code3': 'NLD', 'geonameid': '2750405', 'place_name': 'Kingdom of the Netherlands', 'feature_class': 'A', 'feature_code': 'PCLI'}}
{'word': 'Erde', 'spans': [{'start': 0, 'end': 4}], 'country_predicted': 'NA', 'country_conf': 0.87992215, 'geo': {'admin1': 'NA', 'lat': '0', 'lon': '0', 'country_code3': 'NA', 'geonameid': '6295630', 'place_name': 'Earth', 'feature_class': 'L', 'feature_code': 'AREA'}}
{'word': 'Salvador', 'spans': [{'start': 0, 'end': 8}], 'country_predicted': 'BRA', 'country_conf': 0.87992215, 'geo': {'admin1': 'Bahia', 'lat': '-12.97111', 'lon': '-38.51083', 'country_code3': 'BRA', 'geonameid': '3450554', 'place_name': 'Salvador', 'feature_class': 'P', 'feature_code': 'PPLA'}}
{'word': 'Carolina', 'spans': [{'start': 0, 'end': 8}], 'country_predicted': 'BRA', 'country_conf': 0.87992215, 'geo': {'admin1': 'Maranho', 'lat': '-7.50794', 'lon': '-47.14907', 'country_code3': 'BRA', 'geonameid': '6319678', 'place_name': 'Carolina', 'feature_class': 'A', 'feature_code': 'ADM2'}}
{'word': 'Carolina', 'spans': [{'start': 0, 'end': 8}], 'country_predicted': 'BRA', 'country_conf': 0.87992215, 'geo': {'admin1': 'Maranho', 'lat': '-7.50794', 'lon': '-47.14907', 'country_code3': 'BRA', 'geonameid': '6319678', 'place_name': 'Carolina', 'feature_class': 'A', 'feature_code': 'ADM2'}}
{'word': 'Denver', 'spans': [{'start': 0, 'end': 6}], 'country_predicted': 'USA', 'country_conf': 0.957188, 'geo': {'admin1': 'Colorado', 'lat': '39.73915', 'lon': '-104.9847', 'country_code3': 'USA', 'geonameid': '5419384', 'place_name': 'Denver', 'feature_class': 'P', 'feature_code': 'PPLA'}}
{'word': 'Valley', 'spans': [{'start': 0, 'end': 6}], 'country_predicted': 'USA', 'country_conf': 0.957188, 'geo': {'admin1': 'Alabama', 'lat': '32.81874', 'lon': '-85.17939', 'country_code3': 'USA', 'geonameid': '4095186', 'place_name': 'Valley', 'feature_class': 'P', 'feature_code': 'PPL'}}
{'word': 'Hong', 'spans': [{'start': 0, 'end': 4}], 'country_predicted': 'HKG', 'country_conf': 0.957188, 'geo': {'admin1': 'Central and Western', 'lat': '22.27832', 'lon': '114.17469', 'country_code3': 'HKG', 'geonameid': '1819729', 'place_name': 'Hong Kong', 'feature_class': 'P', 'feature_code': 'PPLC'}}
{'word': 'Kong', 'spans': [{'start': 0, 'end': 4}], 'country_predicted': 'CMR', 'country_conf': 0.28868946}
{'word': 'Hong', 'spans': [{'start': 0, 'end': 4}], 'country_predicted': 'HKG', 'country_conf': 0.957188, 'geo': {'admin1': 'Central and Western', 'lat': '22.27832', 'lon': '114.17469', 'country_code3': 'HKG', 'geonameid': '1819729', 'place_name': 'Hong Kong', 'feature_class': 'P', 'feature_code': 'PPLC'}}
{'word': 'Kong', 'spans': [{'start': 0, 'end': 4}], 'country_predicted': 'CMR', 'country_conf': 0.28868946}
{'word': 'Hong', 'spans': [{'start': 0, 'end': 4}], 'country_predicted': 'HKG', 'country_conf': 0.957188, 'geo': {'admin1': 'Central and Western', 'lat': '22.27832', 'lon': '114.17469', 'country_code3': 'HKG', 'geonameid': '1819729', 'place_name': 'Hong Kong', 'feature_class': 'P', 'feature_code': 'PPLC'}}
{'word': 'Kong', 'spans': [{'start': 0, 'end': 4}], 'country_predicted': 'CMR', 'country_conf': 0.28868946}
{'word': 'Iraq', 'spans': [{'start': 0, 'end': 4}], 'country_predicted': 'IRQ', 'country_conf': 0.9516948, 'geo': {'admin1': 'NA', 'lat': '33', 'lon': '44', 'country_code3': 'IRQ', 'geonameid': '99237', 'place_name': 'Republic of Iraq', 'feature_class': 'A', 'feature_code': 'PCLI'}}
{'word': 'France', 'spans': [{'start': 0, 'end': 6}], 'country_predicted': 'FRA', 'country_conf': 0.9516948, 'geo': {'admin1': 'NA', 'lat': '46', 'lon': '2', 'country_code3': 'FRA', 'geonameid': '3017382', 'place_name': 'Republic of France', 'feature_class': 'A', 'feature_code': 'PCLI'}}
{'word': 'Luxembourg', 'spans': [{'start': 0, 'end': 10}], 'country_predicted': 'LUX', 'country_conf': 0.9516948, 'geo': {'admin1': 'NA', 'lat': '49.75', 'lon': '6.16667', 'country_code3': 'LUX', 'geonameid': '2960313', 'place_name': 'Grand Duchy of Luxembourg', 'feature_class': 'A', 'feature_code': 'PCLI'}}
{'word': 'al.', 'spans': [{'start': 0, 'end': 3}], 'country_predicted': 'IRQ', 'country_conf': 0.28365934}
{'word': 'Norwich', 'spans': [{'start': 0, 'end': 7}], 'country_predicted': 'GBR', 'country_conf': 0.87992215, 'geo': {'admin1': 'England', 'lat': '52.62783', 'lon': '1.29834', 'country_code3': 'GBR', 'geonameid': '2641181', 'place_name': 'Norwich', 'feature_class': 'P', 'feature_code': 'PPLA2'}}
{'word': 'Kingdom', 'spans': [{'start': 0, 'end': 7}], 'country_predicted': 'CHN', 'country_conf': 0.28868946}
{'word': 'Pendias', 'spans': [{'start': 0, 'end': 7}], 'country_predicted': 'GBR', 'country_conf': 0.5714737}
{'word': 'Raton', 'spans': [{'start': 0, 'end': 5}], 'country_predicted': 'USA', 'country_conf': 0.957188, 'geo': {'admin1': 'Florida', 'lat': '26.35869', 'lon': '-80.0831', 'country_code3': 'USA', 'geonameid': '4148411', 'place_name': 'Boca Raton', 'feature_class': 'P', 'feature_code': 'PPL'}}
{'word': 'FL', 'spans': [{'start': 0, 'end': 2}], 'country_predicted': 'FRA', 'country_conf': 0.9048774, 'geo': {'admin1': 'le-de-France', 'lat': '48.85877', 'lon': '2.28409', 'country_code3': 'FRA', 'geonameid': '10100427', 'place_name': 'Mansion Fl', 'feature_class': 'S', 'feature_code': 'HTL'}}
{'word': 'Kachanoski', 'spans': [{'start': 0, 'end': 10}], 'country_predicted': '', 'country_conf': 0}
{'word': 'California', 'spans': [{'start': 0, 'end': 10}], 'country_predicted': 'COL', 'country_conf': 0.19161284}
{'word': 'Kawamura', 'spans': [{'start': 0, 'end': 8}], 'country_predicted': 'JPN', 'country_conf': 0.9048774, 'geo': {'admin1': 'Kumamoto', 'lat': '32.20723', 'lon': '130.79535', 'country_code3': 'JPN', 'geonameid': '7563346', 'place_name': 'Kawamura Eki', 'feature_class': 'S', 'feature_code': 'RSTN'}}
{'word': 'Mt.', 'spans': [{'start': 0, 'end': 3}], 'country_predicted': 'IDN', 'country_conf': 0.28868946}
{'word': 'Kyushu', 'spans': [{'start': 0, 'end': 6}], 'country_predicted': 'JPN', 'country_conf': 0.9048774, 'geo': {'admin1': 'Kumamoto', 'lat': '32.42944', 'lon': '130.99099', 'country_code3': 'JPN', 'geonameid': '1857892', 'place_name': 'Kyushu', 'feature_class': 'T', 'feature_code': 'ISL'}}
{'word': 'Lowry', 'spans': [{'start': 0, 'end': 5}], 'country_predicted': 'USA', 'country_conf': 0.28365934}
{'word': 'Washington', 'spans': [{'start': 1, 'end': 11}], 'country_predicted': 'USA', 'country_conf': 0.69099617, 'geo': {'admin1': 'Washington', 'lat': '47.50012', 'lon': '-120.50147', 'country_code3': 'USA', 'geonameid': '5815135', 'place_name': 'Washington', 'feature_class': 'A', 'feature_code': 'ADM1'}}
{'word': 'Landesamt', 'spans': [{'start': 0, 'end': 9}], 'country_predicted': 'DEU', 'country_conf': 0.9528109, 'geo': {'admin1': 'Baden-Wrttemberg', 'lat': '48.85265', 'lon': '9.18566', 'country_code3': 'DEU', 'geonameid': '11281719', 'place_name': 'Landesamt fr Geoinformation und Landentwicklung Baden-Wrttemberg', 'feature_class': 'S', 'feature_code': 'ADMF'}}
{'word': 'Deutschland', 'spans': [{'start': 0, 'end': 11}], 'country_predicted': 'DEU', 'country_conf': 0.9048774, 'geo': {'admin1': 'NA', 'lat': '51.5', 'lon': '10.5', 'country_code3': 'DEU', 'geonameid': '2921044', 'place_name': 'Federal Republic of Germany', 'feature_class': 'A', 'feature_code': 'PCLI'}}
{'word': 'al.', 'spans': [{'start': 0, 'end': 3}], 'country_predicted': 'IRQ', 'country_conf': 0.28365934}
{'word': 'Hong', 'spans': [{'start': 0, 'end': 4}], 'country_predicted': 'HKG', 'country_conf': 0.957188, 'geo': {'admin1': 'Central and Western', 'lat': '22.27832', 'lon': '114.17469', 'country_code3': 'HKG', 'geonameid': '1819729', 'place_name': 'Hong Kong', 'feature_class': 'P', 'feature_code': 'PPLC'}}
{'word': 'Kong', 'spans': [{'start': 0, 'end': 4}], 'country_predicted': 'CMR', 'country_conf': 0.28868946}
{'word': 'Hong', 'spans': [{'start': 0, 'end': 4}], 'country_predicted': 'HKG', 'country_conf': 0.957188, 'geo': {'admin1': 'Central and Western', 'lat': '22.27832', 'lon': '114.17469', 'country_code3': 'HKG', 'geonameid': '1819729', 'place_name': 'Hong Kong', 'feature_class': 'P', 'feature_code': 'PPLC'}}
{'word': 'Kong', 'spans': [{'start': 0, 'end': 4}], 'country_predicted': 'CMR', 'country_conf': 0.28868946}
{'word': 'Hong', 'spans': [{'start': 0, 'end': 4}], 'country_predicted': 'HKG', 'country_conf': 0.957188, 'geo': {'admin1': 'Central and Western', 'lat': '22.27832', 'lon': '114.17469', 'country_code3': 'HKG', 'geonameid': '1819729', 'place_name': 'Hong Kong', 'feature_class': 'P', 'feature_code': 'PPLC'}}
{'word': 'Kong', 'spans': [{'start': 0, 'end': 4}], 'country_predicted': 'CMR', 'country_conf': 0.28868946}
{'word': 'Harare', 'spans': [{'start': 0, 'end': 6}], 'country_predicted': 'ZWE', 'country_conf': 0.957188, 'geo': {'admin1': 'Harare', 'lat': '-17.85417', 'lon': '31.05833', 'country_code3': 'ZWE', 'geonameid': '1105844', 'place_name': 'Harare Province', 'feature_class': 'A', 'feature_code': 'ADM1'}}
{'word': 'al.', 'spans': [{'start': 0, 'end': 3}], 'country_predicted': 'IRQ', 'country_conf': 0.28365934}
{'word': 'illus.', 'spans': [{'start': 0, 'end': 6}], 'country_predicted': 'LBN', 'country_conf': 0.9048774, 'geo': {'admin1': 'Mont-Liban', 'lat': '33.67306', 'lon': '35.43', 'country_code3': 'LBN', 'geonameid': '6271519', 'place_name': 'Illouss', 'feature_class': 'L', 'feature_code': 'LCTY'}}
{'word': 'York', 'spans': [{'start': 0, 'end': 4}], 'country_predicted': 'CAN', 'country_conf': 0.28868946}
{'word': 'NY', 'spans': [{'start': 0, 'end': 2}], 'country_predicted': 'SWE', 'country_conf': 0.28365934}
{'word': 'Apalachicola', 'spans': [{'start': 0, 'end': 12}], 'country_predicted': 'USA', 'country_conf': 0.9048774, 'geo': {'admin1': 'Florida', 'lat': '29.726', 'lon': '-84.9856', 'country_code3': 'USA', 'geonameid': '4146148', 'place_name': 'Apalachicola', 'feature_class': 'P', 'feature_code': 'PPLA2'}}
{'word': 'Florida', 'spans': [{'start': 0, 'end': 7}], 'country_predicted': 'CUB', 'country_conf': 0.19161284}
{'word': 'Yangtze', 'spans': [{'start': 0, 'end': 7}], 'country_predicted': 'IDN', 'country_conf': 0.28868946}
{'word': 'Hong', 'spans': [{'start': 0, 'end': 4}], 'country_predicted': 'HKG', 'country_conf': 0.957188, 'geo': {'admin1': 'Central and Western', 'lat': '22.27832', 'lon': '114.17469', 'country_code3': 'HKG', 'geonameid': '1819729', 'place_name': 'Hong Kong', 'feature_class': 'P', 'feature_code': 'PPLC'}}
{'word': 'Kong', 'spans': [{'start': 0, 'end': 4}], 'country_predicted': 'CMR', 'country_conf': 0.28868946}
{'word': 'Hong', 'spans': [{'start': 0, 'end': 4}], 'country_predicted': 'HKG', 'country_conf': 0.957188, 'geo': {'admin1': 'Central and Western', 'lat': '22.27832', 'lon': '114.17469', 'country_code3': 'HKG', 'geonameid': '1819729', 'place_name': 'Hong Kong', 'feature_class': 'P', 'feature_code': 'PPLC'}}
{'word': 'Kong', 'spans': [{'start': 0, 'end': 4}], 'country_predicted': 'CMR', 'country_conf': 0.28868946}
{'word': 'Hong', 'spans': [{'start': 0, 'end': 4}], 'country_predicted': 'HKG', 'country_conf': 0.957188, 'geo': {'admin1': 'Central and Western', 'lat': '22.27832', 'lon': '114.17469', 'country_code3': 'HKG', 'geonameid': '1819729', 'place_name': 'Hong Kong', 'feature_class': 'P', 'feature_code': 'PPLC'}}
{'word': 'Kong', 'spans': [{'start': 0, 'end': 4}], 'country_predicted': 'CMR', 'country_conf': 0.28868946}
{'word': 'Lowell', 'spans': [{'start': 0, 'end': 6}], 'country_predicted': 'USA', 'country_conf': 0.96374094, 'geo': {'admin1': 'Massachusetts', 'lat': '42.63342', 'lon': '-71.31617', 'country_code3': 'USA', 'geonameid': '4942618', 'place_name': 'Lowell', 'feature_class': 'P', 'feature_code': 'PPL'}}
{'word': 'illus.', 'spans': [{'start': 0, 'end': 6}], 'country_predicted': 'LBN', 'country_conf': 0.9048774, 'geo': {'admin1': 'Mont-Liban', 'lat': '33.67306', 'lon': '35.43', 'country_code3': 'LBN', 'geonameid': '6271519', 'place_name': 'Illouss', 'feature_class': 'L', 'feature_code': 'LCTY'}}
{'word': 'palygorskite', 'spans': [{'start': 0, 'end': 12}], 'country_predicted': '', 'country_conf': 0}
{'word': 'Palygorskite', 'spans': [{'start': 0, 'end': 12}], 'country_predicted': '', 'country_conf': 0}
{'word': 'al.', 'spans': [{'start': 0, 'end': 3}], 'country_predicted': 'IRQ', 'country_conf': 0.28365934}
{'word': 'Amsterdam', 'spans': [{'start': 0, 'end': 9}], 'country_predicted': 'NLD', 'country_conf': 0.957188, 'geo': {'admin1': 'North Holland', 'lat': '52.37302', 'lon': '4.89856', 'country_code3': 'NLD', 'geonameid': '2759793', 'place_name': 'Gemeente Amsterdam', 'feature_class': 'A', 'feature_code': 'ADM2'}}
{'word': 'Netherlands', 'spans': [{'start': 0, 'end': 11}], 'country_predicted': 'NLD', 'country_conf': 0.6948644, 'geo': {'admin1': 'NA', 'lat': '52.25', 'lon': '5.75', 'country_code3': 'NLD', 'geonameid': '2750405', 'place_name': 'Kingdom of the Netherlands', 'feature_class': 'A', 'feature_code': 'PCLI'}}
{'word': 'Indiana', 'spans': [{'start': 0, 'end': 7}], 'country_predicted': 'USA', 'country_conf': 0.9634983, 'geo': {'admin1': 'Indiana', 'lat': '40.00032', 'lon': '-86.25027', 'country_code3': 'USA', 'geonameid': '4921868', 'place_name': 'Indiana', 'feature_class': 'A', 'feature_code': 'ADM1'}}
{'word': 'Terre', 'spans': [{'start': 0, 'end': 5}], 'country_predicted': 'GLP', 'country_conf': 0.87992215, 'geo': {'admin1': 'Guadeloupe', 'lat': '16.16667', 'lon': '-61.66667', 'country_code3': 'GLP', 'geonameid': '3579731', 'place_name': 'Arrondissement de la Basse-Terre', 'feature_class': 'A', 'feature_code': 'ADM3'}}
{'word': 'Nagasaki', 'spans': [{'start': 0, 'end': 8}], 'country_predicted': 'JPN', 'country_conf': 0.96374094, 'geo': {'admin1': 'Nagasaki', 'lat': '33.23333', 'lon': '129.6', 'country_code3': 'JPN', 'geonameid': '1856156', 'place_name': 'Nagasaki Prefecture', 'feature_class': 'A', 'feature_code': 'ADM1'}}
{'word': 'Vermont', 'spans': [{'start': 0, 'end': 7}], 'country_predicted': 'USA', 'country_conf': 0.9634983, 'geo': {'admin1': 'Vermont', 'lat': '44.00034', 'lon': '-72.74983', 'country_code3': 'USA', 'geonameid': '5242283', 'place_name': 'Vermont', 'feature_class': 'A', 'feature_code': 'ADM1'}}
{'word': 'Salvador', 'spans': [{'start': 0, 'end': 8}], 'country_predicted': 'BRA', 'country_conf': 0.87992215, 'geo': {'admin1': 'Bahia', 'lat': '-12.97111', 'lon': '-38.51083', 'country_code3': 'BRA', 'geonameid': '3450554', 'place_name': 'Salvador', 'feature_class': 'P', 'feature_code': 'PPLA'}}
{'word': 'Bahamas', 'spans': [{'start': 0, 'end': 7}], 'country_predicted': 'BHS', 'country_conf': 0.9516948, 'geo': {'admin1': 'NA', 'lat': '25.04082', 'lon': '-77.37122', 'country_code3': 'BHS', 'geonameid': '3572887', 'place_name': 'Commonwealth of The Bahamas', 'feature_class': 'A', 'feature_code': 'PCLI'}}
{'word': 'Carolina', 'spans': [{'start': 0, 'end': 8}], 'country_predicted': 'BRA', 'country_conf': 0.87992215, 'geo': {'admin1': 'Maranho', 'lat': '-7.50794', 'lon': '-47.14907', 'country_code3': 'BRA', 'geonameid': '6319678', 'place_name': 'Carolina', 'feature_class': 'A', 'feature_code': 'ADM2'}}
{'word': 'Carolina', 'spans': [{'start': 0, 'end': 8}], 'country_predicted': 'BRA', 'country_conf': 0.87992215, 'geo': {'admin1': 'Maranho', 'lat': '-7.50794', 'lon': '-47.14907', 'country_code3': 'BRA', 'geonameid': '6319678', 'place_name': 'Carolina', 'feature_class': 'A', 'feature_code': 'ADM2'}}
{'word': 'America', 'spans': [{'start': 0, 'end': 7}], 'country_predicted': 'USA', 'country_conf': 0.9516948, 'geo': {'admin1': 'Wyoming', 'lat': '41.54357', 'lon': '-109.85903', 'country_code3': 'USA', 'geonameid': '5830444', 'place_name': 'Little America', 'feature_class': 'P', 'feature_code': 'PPL'}}
{'word': 'County', 'spans': [{'start': 0, 'end': 6}], 'country_predicted': 'GBR', 'country_conf': 0.28868946}
{'word': 'Georgia', 'spans': [{'start': 0, 'end': 7}], 'country_predicted': 'GEO', 'country_conf': 0.9516948, 'geo': {'admin1': 'NA', 'lat': '41.99998', 'lon': '43.4999', 'country_code3': 'GEO', 'geonameid': '614540', 'place_name': 'Georgia', 'feature_class': 'A', 'feature_code': 'PCLI'}}
{'word': 'illus.', 'spans': [{'start': 0, 'end': 6}], 'country_predicted': 'LBN', 'country_conf': 0.9048774, 'geo': {'admin1': 'Mont-Liban', 'lat': '33.67306', 'lon': '35.43', 'country_code3': 'LBN', 'geonameid': '6271519', 'place_name': 'Illouss', 'feature_class': 'L', 'feature_code': 'LCTY'}}
{'word': 'Jueques', 'spans': [{'start': 0, 'end': 7}], 'country_predicted': 'FRA', 'country_conf': 0.9528109, 'geo': {'admin1': "Provence-Alpes-Cte d'Azur", 'lat': '43.63694', 'lon': '5.63667', 'country_code3': 'FRA', 'geonameid': '6447135', 'place_name': 'Jouques', 'feature_class': 'A', 'feature_code': 'ADM4'}}
{'word': 'senegal', 'spans': [{'start': 0, 'end': 7}], 'country_predicted': 'SEN', 'country_conf': 0.957188, 'geo': {'admin1': 'NA', 'lat': '14.5', 'lon': '-14.25', 'country_code3': 'SEN', 'geonameid': '2245662', 'place_name': 'Republic of Senegal', 'feature_class': 'A', 'feature_code': 'PCLI'}}
{'word': 'Senegal', 'spans': [{'start': 0, 'end': 7}], 'country_predicted': 'SEN', 'country_conf': 0.9516948, 'geo': {'admin1': 'NA', 'lat': '14.5', 'lon': '-14.25', 'country_code3': 'SEN', 'geonameid': '2245662', 'place_name': 'Republic of Senegal', 'feature_class': 'A', 'feature_code': 'PCLI'}}
{'word': 'illus.', 'spans': [{'start': 0, 'end': 6}], 'country_predicted': 'LBN', 'country_conf': 0.9048774, 'geo': {'admin1': 'Mont-Liban', 'lat': '33.67306', 'lon': '35.43', 'country_code3': 'LBN', 'geonameid': '6271519', 'place_name': 'Illouss', 'feature_class': 'L', 'feature_code': 'LCTY'}}
{'word': 'Harare', 'spans': [{'start': 0, 'end': 6}], 'country_predicted': 'ZWE', 'country_conf': 0.957188, 'geo': {'admin1': 'Harare', 'lat': '-17.85417', 'lon': '31.05833', 'country_code3': 'ZWE', 'geonameid': '1105844', 'place_name': 'Harare Province', 'feature_class': 'A', 'feature_code': 'ADM1'}}
{'word': 'al.', 'spans': [{'start': 0, 'end': 3}], 'country_predicted': 'IRQ', 'country_conf': 0.28365934}
{'word': 'Harare', 'spans': [{'start': 0, 'end': 6}], 'country_predicted': 'ZWE', 'country_conf': 0.957188, 'geo': {'admin1': 'Harare', 'lat': '-17.85417', 'lon': '31.05833', 'country_code3': 'ZWE', 'geonameid': '1105844', 'place_name': 'Harare Province', 'feature_class': 'A', 'feature_code': 'ADM1'}}
{'word': 'al.', 'spans': [{'start': 0, 'end': 3}], 'country_predicted': 'IRQ', 'country_conf': 0.28365934}
{'word': 'Somalia', 'spans': [{'start': 0, 'end': 7}], 'country_predicted': 'SOM', 'country_conf': 0.9516948, 'geo': {'admin1': 'NA', 'lat': '6', 'lon': '48', 'country_code3': 'SOM', 'geonameid': '51537', 'place_name': 'Somalia', 'feature_class': 'A', 'feature_code': 'PCLI'}}
{'word': 'illus.', 'spans': [{'start': 0, 'end': 6}], 'country_predicted': 'LBN', 'country_conf': 0.9048774, 'geo': {'admin1': 'Mont-Liban', 'lat': '33.67306', 'lon': '35.43', 'country_code3': 'LBN', 'geonameid': '6271519', 'place_name': 'Illouss', 'feature_class': 'L', 'feature_code': 'LCTY'}}
{'word': 'Colorado', 'spans': [{'start': 0, 'end': 8}], 'country_predicted': 'CRI', 'country_conf': 0.19161284}
{'word': 'Soc', 'spans': [{'start': 0, 'end': 3}], 'country_predicted': 'VNM', 'country_conf': 0.87992215, 'geo': {'admin1': 'Sc Trng', 'lat': '9.59995', 'lon': '105.97193', 'country_code3': 'VNM', 'geonameid': '1567788', 'place_name': 'Sc Trng', 'feature_class': 'P', 'feature_code': 'PPLA'}}
{'word': 'ihre', 'spans': [{'start': 0, 'end': 4}], 'country_predicted': 'AUT', 'country_conf': 0.28868946}
{'word': 'al.', 'spans': [{'start': 0, 'end': 3}], 'country_predicted': 'IRQ', 'country_conf': 0.28365934}
{'word': 'Samoa', 'spans': [{'start': 0, 'end': 5}], 'country_predicted': 'WSM', 'country_conf': 0.9516948, 'geo': {'admin1': 'NA', 'lat': '-13.8', 'lon': '-172.13333', 'country_code3': 'WSM', 'geonameid': '4034894', 'place_name': 'Independent State of Samoa', 'feature_class': 'A', 'feature_code': 'PCLI'}}
{'word': 'Dep', 'spans': [{'start': 0, 'end': 3}], 'country_predicted': 'IRN', 'country_conf': 0.28868946}
{'word': 'Washington', 'spans': [{'start': 0, 'end': 10}], 'country_predicted': 'USA', 'country_conf': 0.69099617, 'geo': {'admin1': 'Washington', 'lat': '47.50012', 'lon': '-120.50147', 'country_code3': 'USA', 'geonameid': '5815135', 'place_name': 'Washington', 'feature_class': 'A', 'feature_code': 'ADM1'}}
{'word': 'Tanzania', 'spans': [{'start': 0, 'end': 8}], 'country_predicted': 'TZA', 'country_conf': 0.9516948, 'geo': {'admin1': 'NA', 'lat': '-6', 'lon': '35', 'country_code3': 'TZA', 'geonameid': '149590', 'place_name': 'United Republic of Tanzania', 'feature_class': 'A', 'feature_code': 'PCLI'}}
{'word': 'al.', 'spans': [{'start': 0, 'end': 3}], 'country_predicted': 'IRQ', 'country_conf': 0.28365934}
{'word': 'Berlin', 'spans': [{'start': 0, 'end': 6}], 'country_predicted': 'DEU', 'country_conf': 0.957188, 'geo': {'admin1': 'Berlin', 'lat': '52.5233', 'lon': '13.41377', 'country_code3': 'DEU', 'geonameid': '6547383', 'place_name': 'Berlin, Stadt', 'feature_class': 'A', 'feature_code': 'ADM3'}}
{'word': 'Germany', 'spans': [{'start': 0, 'end': 7}], 'country_predicted': 'DEU', 'country_conf': 0.9516948, 'geo': {'admin1': 'NA', 'lat': '51.5', 'lon': '10.5', 'country_code3': 'DEU', 'geonameid': '2921044', 'place_name': 'Federal Republic of Germany', 'feature_class': 'A', 'feature_code': 'PCLI'}}
{'word': 'Greece', 'spans': [{'start': 0, 'end': 6}], 'country_predicted': 'GRC', 'country_conf': 0.9516948, 'geo': {'admin1': 'NA', 'lat': '39', 'lon': '22', 'country_code3': 'GRC', 'geonameid': '390903', 'place_name': 'Hellenic Republic', 'feature_class': 'A', 'feature_code': 'PCLI'}}
{'word': 'Mexico', 'spans': [{'start': 0, 'end': 6}], 'country_predicted': 'MEX', 'country_conf': 0.9516948, 'geo': {'admin1': 'NA', 'lat': '23', 'lon': '-102', 'country_code3': 'MEX', 'geonameid': '3996063', 'place_name': 'Mexico', 'feature_class': 'A', 'feature_code': 'PCLI'}}
{'word': 'Mexico', 'spans': [{'start': 0, 'end': 6}], 'country_predicted': 'MEX', 'country_conf': 0.9516948, 'geo': {'admin1': 'NA', 'lat': '23', 'lon': '-102', 'country_code3': 'MEX', 'geonameid': '3996063', 'place_name': 'Mexico', 'feature_class': 'A', 'feature_code': 'PCLI'}}
{'word': 'Mexico', 'spans': [{'start': 0, 'end': 6}], 'country_predicted': 'MEX', 'country_conf': 0.9516948, 'geo': {'admin1': 'NA', 'lat': '23', 'lon': '-102', 'country_code3': 'MEX', 'geonameid': '3996063', 'place_name': 'Mexico', 'feature_class': 'A', 'feature_code': 'PCLI'}}
{'word': 'B.N.', 'spans': [{'start': 0, 'end': 4}], 'country_predicted': 'THA', 'country_conf': 0.9528109, 'geo': {'admin1': 'Ratchaburi', 'lat': '13.36581', 'lon': '99.49203', 'country_code3': 'THA', 'geonameid': '8338308', 'place_name': 'Rongrian Ban Phu Bon Bon', 'feature_class': 'S', 'feature_code': 'SCH'}}
{'word': 'Kenya', 'spans': [{'start': 0, 'end': 5}], 'country_predicted': 'KEN', 'country_conf': 0.9516948, 'geo': {'admin1': 'NA', 'lat': '1', 'lon': '38', 'country_code3': 'KEN', 'geonameid': '192950', 'place_name': 'Republic of Kenya', 'feature_class': 'A', 'feature_code': 'PCLI'}}
{'word': 'Harare', 'spans': [{'start': 0, 'end': 6}], 'country_predicted': 'ZWE', 'country_conf': 0.957188, 'geo': {'admin1': 'Harare', 'lat': '-17.85417', 'lon': '31.05833', 'country_code3': 'ZWE', 'geonameid': '1105844', 'place_name': 'Harare Province', 'feature_class': 'A', 'feature_code': 'ADM1'}}
{'word': 'al.', 'spans': [{'start': 0, 'end': 3}], 'country_predicted': 'IRQ', 'country_conf': 0.28365934}
{'word': 'Wales', 'spans': [{'start': 0, 'end': 5}], 'country_predicted': 'GBR', 'country_conf': 0.3105929}
{'word': 'Wales', 'spans': [{'start': 0, 'end': 5}], 'country_predicted': 'GBR', 'country_conf': 0.3105929}
{'word': 'Georgia', 'spans': [{'start': 0, 'end': 7}], 'country_predicted': 'GEO', 'country_conf': 0.9516948, 'geo': {'admin1': 'NA', 'lat': '41.99998', 'lon': '43.4999', 'country_code3': 'GEO', 'geonameid': '614540', 'place_name': 'Georgia', 'feature_class': 'A', 'feature_code': 'PCLI'}}
{'word': 'Georgia', 'spans': [{'start': 0, 'end': 7}], 'country_predicted': 'GEO', 'country_conf': 0.9516948, 'geo': {'admin1': 'NA', 'lat': '41.99998', 'lon': '43.4999', 'country_code3': 'GEO', 'geonameid': '614540', 'place_name': 'Georgia', 'feature_class': 'A', 'feature_code': 'PCLI'}}
{'word': 'Soc', 'spans': [{'start': 0, 'end': 3}], 'country_predicted': 'VNM', 'country_conf': 0.87992215, 'geo': {'admin1': 'Sc Trng', 'lat': '9.59995', 'lon': '105.97193', 'country_code3': 'VNM', 'geonameid': '1567788', 'place_name': 'Sc Trng', 'feature_class': 'P', 'feature_code': 'PPLA'}}
{'word': 'Boulder', 'spans': [{'start': 0, 'end': 7}], 'country_predicted': 'USA', 'country_conf': 0.957188, 'geo': {'admin1': 'Colorado', 'lat': '40.01499', 'lon': '-105.27055', 'country_code3': 'USA', 'geonameid': '5574991', 'place_name': 'Boulder', 'feature_class': 'P', 'feature_code': 'PPLA2'}}
{'word': 'Spain', 'spans': [{'start': 0, 'end': 5}], 'country_predicted': 'ESP', 'country_conf': 0.9516948, 'geo': {'admin1': 'NA', 'lat': '40', 'lon': '-4', 'country_code3': 'ESP', 'geonameid': '2510769', 'place_name': 'Kingdom of Spain', 'feature_class': 'A', 'feature_code': 'PCLI'}}
{'word': 'Cambridge', 'spans': [{'start': 0, 'end': 9}], 'country_predicted': 'GBR', 'country_conf': 0.87992215, 'geo': {'admin1': 'England', 'lat': '52.33333', 'lon': '0.08333', 'country_code3': 'GBR', 'geonameid': '2653940', 'place_name': 'Cambridgeshire', 'feature_class': 'A', 'feature_code': 'ADM2'}}
{'word': 'Cambridge', 'spans': [{'start': 0, 'end': 9}], 'country_predicted': 'GBR', 'country_conf': 0.87992215, 'geo': {'admin1': 'England', 'lat': '52.33333', 'lon': '0.08333', 'country_code3': 'GBR', 'geonameid': '2653940', 'place_name': 'Cambridgeshire', 'feature_class': 'A', 'feature_code': 'ADM2'}}
{'word': 'Kingdom', 'spans': [{'start': 0, 'end': 7}], 'country_predicted': 'CHN', 'country_conf': 0.28868946}
{'word': 'Socorro', 'spans': [{'start': 0, 'end': 7}], 'country_predicted': 'BRA', 'country_conf': 0.28365934}
{'word': 'Mexico', 'spans': [{'start': 0, 'end': 6}], 'country_predicted': 'MEX', 'country_conf': 0.9516948, 'geo': {'admin1': 'NA', 'lat': '23', 'lon': '-102', 'country_code3': 'MEX', 'geonameid': '3996063', 'place_name': 'Mexico', 'feature_class': 'A', 'feature_code': 'PCLI'}}
{'word': 'Mexico', 'spans': [{'start': 0, 'end': 6}], 'country_predicted': 'MEX', 'country_conf': 0.9516948, 'geo': {'admin1': 'NA', 'lat': '23', 'lon': '-102', 'country_code3': 'MEX', 'geonameid': '3996063', 'place_name': 'Mexico', 'feature_class': 'A', 'feature_code': 'PCLI'}}
{'word': 'Mexico', 'spans': [{'start': 0, 'end': 6}], 'country_predicted': 'MEX', 'country_conf': 0.9516948, 'geo': {'admin1': 'NA', 'lat': '23', 'lon': '-102', 'country_code3': 'MEX', 'geonameid': '3996063', 'place_name': 'Mexico', 'feature_class': 'A', 'feature_code': 'PCLI'}}
{'word': 'illus.', 'spans': [{'start': 0, 'end': 6}], 'country_predicted': 'LBN', 'country_conf': 0.9048774, 'geo': {'admin1': 'Mont-Liban', 'lat': '33.67306', 'lon': '35.43', 'country_code3': 'LBN', 'geonameid': '6271519', 'place_name': 'Illouss', 'feature_class': 'L', 'feature_code': 'LCTY'}}
{'word': 'Valley', 'spans': [{'start': 0, 'end': 6}], 'country_predicted': 'USA', 'country_conf': 0.957188, 'geo': {'admin1': 'Alabama', 'lat': '32.81874', 'lon': '-85.17939', 'country_code3': 'USA', 'geonameid': '4095186', 'place_name': 'Valley', 'feature_class': 'P', 'feature_code': 'PPL'}}
{'word': 'illus.', 'spans': [{'start': 0, 'end': 6}], 'country_predicted': 'LBN', 'country_conf': 0.9048774, 'geo': {'admin1': 'Mont-Liban', 'lat': '33.67306', 'lon': '35.43', 'country_code3': 'LBN', 'geonameid': '6271519', 'place_name': 'Illouss', 'feature_class': 'L', 'feature_code': 'LCTY'}}
{'word': 'Ottawa', 'spans': [{'start': 0, 'end': 6}], 'country_predicted': 'CAN', 'country_conf': 0.87992215, 'geo': {'admin1': 'Ontario', 'lat': '45.41117', 'lon': '-75.69812', 'country_code3': 'CAN', 'geonameid': '6094817', 'place_name': 'Ottawa', 'feature_class': 'P', 'feature_code': 'PPLC'}}
{'word': 'Canada', 'spans': [{'start': 0, 'end': 6}], 'country_predicted': 'CAN', 'country_conf': 0.9516948, 'geo': {'admin1': 'NA', 'lat': '60.10867', 'lon': '-113.64258', 'country_code3': 'CAN', 'geonameid': '6251999', 'place_name': 'Canada', 'feature_class': 'A', 'feature_code': 'PCLI'}}
{'word': 'India', 'spans': [{'start': 0, 'end': 5}], 'country_predicted': 'IND', 'country_conf': 0.68758196, 'geo': {'admin1': 'NA', 'lat': '22', 'lon': '79', 'country_code3': 'IND', 'geonameid': '1269750', 'place_name': 'Republic of India', 'feature_class': 'A', 'feature_code': 'PCLI'}}
{'word': 'Australia', 'spans': [{'start': 0, 'end': 9}], 'country_predicted': 'AUS', 'country_conf': 0.9516948, 'geo': {'admin1': 'NA', 'lat': '-25', 'lon': '135', 'country_code3': 'AUS', 'geonameid': '2077456', 'place_name': 'Commonwealth of Australia', 'feature_class': 'A', 'feature_code': 'PCLI'}}
{'word': 'Zimbabwe', 'spans': [{'start': 0, 'end': 8}], 'country_predicted': 'ZWE', 'country_conf': 0.9516948, 'geo': {'admin1': 'NA', 'lat': '-19', 'lon': '29.75', 'country_code3': 'ZWE', 'geonameid': '878675', 'place_name': 'Republic of Zimbabwe', 'feature_class': 'A', 'feature_code': 'PCLI'}}
{'word': 'Iceland', 'spans': [{'start': 0, 'end': 7}], 'country_predicted': 'ISL', 'country_conf': 0.9516948, 'geo': {'admin1': 'NA', 'lat': '65', 'lon': '-18', 'country_code3': 'ISL', 'geonameid': '2629691', 'place_name': 'Republic of Iceland', 'feature_class': 'A', 'feature_code': 'PCLI'}}
{'word': 'nm', 'spans': [{'start': 0, 'end': 2}], 'country_predicted': 'ESP', 'country_conf': 0.9048774, 'geo': {'admin1': 'Catalonia', 'lat': '41.80772', 'lon': '3.06392', 'country_code3': 'ESP', 'geonameid': '7147462', 'place_name': 'NM SUITES Hotel', 'feature_class': 'S', 'feature_code': 'HTL'}}
{'word': 'resourcez', 'spans': [{'start': 0, 'end': 9}], 'country_predicted': 'LCA', 'country_conf': 0.5339668}
{'word': 'Calicut', 'spans': [{'start': 0, 'end': 7}], 'country_predicted': 'IND', 'country_conf': 0.9048774, 'geo': {'admin1': 'Kerala', 'lat': '11.24802', 'lon': '75.7804', 'country_code3': 'IND', 'geonameid': '1265873', 'place_name': 'Kozhikode', 'feature_class': 'P', 'feature_code': 'PPLA2'}}
{'word': 'India', 'spans': [{'start': 0, 'end': 5}], 'country_predicted': 'IND', 'country_conf': 0.68758196, 'geo': {'admin1': 'NA', 'lat': '22', 'lon': '79', 'country_code3': 'IND', 'geonameid': '1269750', 'place_name': 'Republic of India', 'feature_class': 'A', 'feature_code': 'PCLI'}}
{'word': 'illus.', 'spans': [{'start': 0, 'end': 6}], 'country_predicted': 'LBN', 'country_conf': 0.9048774, 'geo': {'admin1': 'Mont-Liban', 'lat': '33.67306', 'lon': '35.43', 'country_code3': 'LBN', 'geonameid': '6271519', 'place_name': 'Illouss', 'feature_class': 'L', 'feature_code': 'LCTY'}}
{'word': 'Wyoming', 'spans': [{'start': 0, 'end': 7}], 'country_predicted': 'AUS', 'country_conf': 0.8529637, 'geo': {'admin1': 'New South Wales', 'lat': '-33.40387', 'lon': '151.36254', 'country_code3': 'AUS', 'geonameid': '8348757', 'place_name': 'Wyoming', 'feature_class': 'P', 'feature_code': 'PPLX'}}
{'word': 'Montana', 'spans': [{'start': 0, 'end': 7}], 'country_predicted': 'USA', 'country_conf': 0.9634983, 'geo': {'admin1': 'Montana', 'lat': '47.00025', 'lon': '-109.75102', 'country_code3': 'USA', 'geonameid': '5667009', 'place_name': 'Montana', 'feature_class': 'A', 'feature_code': 'ADM1'}}
{'word': 'al.', 'spans': [{'start': 0, 'end': 3}], 'country_predicted': 'IRQ', 'country_conf': 0.28365934}
{'word': 'Wyoming', 'spans': [{'start': 0, 'end': 7}], 'country_predicted': 'AUS', 'country_conf': 0.8529637, 'geo': {'admin1': 'New South Wales', 'lat': '-33.40387', 'lon': '151.36254', 'country_code3': 'AUS', 'geonameid': '8348757', 'place_name': 'Wyoming', 'feature_class': 'P', 'feature_code': 'PPLX'}}
{'word': 'Montana', 'spans': [{'start': 0, 'end': 7}], 'country_predicted': 'USA', 'country_conf': 0.9634983, 'geo': {'admin1': 'Montana', 'lat': '47.00025', 'lon': '-109.75102', 'country_code3': 'USA', 'geonameid': '5667009', 'place_name': 'Montana', 'feature_class': 'A', 'feature_code': 'ADM1'}}
{'word': 'Dakota', 'spans': [{'start': 0, 'end': 6}], 'country_predicted': 'USA', 'country_conf': 0.957188, 'geo': {'admin1': 'South Dakota', 'lat': '44.50026', 'lon': '-100.25069', 'country_code3': 'USA', 'geonameid': '5769223', 'place_name': 'South Dakota', 'feature_class': 'A', 'feature_code': 'ADM1'}}
{'word': 'Dakota', 'spans': [{'start': 0, 'end': 6}], 'country_predicted': 'USA', 'country_conf': 0.957188, 'geo': {'admin1': 'South Dakota', 'lat': '44.50026', 'lon': '-100.25069', 'country_code3': 'USA', 'geonameid': '5769223', 'place_name': 'South Dakota', 'feature_class': 'A', 'feature_code': 'ADM1'}}
{'word': 'Dakota', 'spans': [{'start': 0, 'end': 6}], 'country_predicted': 'USA', 'country_conf': 0.957188, 'geo': {'admin1': 'South Dakota', 'lat': '44.50026', 'lon': '-100.25069', 'country_code3': 'USA', 'geonameid': '5769223', 'place_name': 'South Dakota', 'feature_class': 'A', 'feature_code': 'ADM1'}}
{'word': 'illus.', 'spans': [{'start': 0, 'end': 6}], 'country_predicted': 'LBN', 'country_conf': 0.9048774, 'geo': {'admin1': 'Mont-Liban', 'lat': '33.67306', 'lon': '35.43', 'country_code3': 'LBN', 'geonameid': '6271519', 'place_name': 'Illouss', 'feature_class': 'L', 'feature_code': 'LCTY'}}
{'word': 'Canada', 'spans': [{'start': 0, 'end': 6}], 'country_predicted': 'CAN', 'country_conf': 0.9516948, 'geo': {'admin1': 'NA', 'lat': '60.10867', 'lon': '-113.64258', 'country_code3': 'CAN', 'geonameid': '6251999', 'place_name': 'Canada', 'feature_class': 'A', 'feature_code': 'PCLI'}}
{'word': 'Toronto', 'spans': [{'start': 0, 'end': 7}], 'country_predicted': 'CAN', 'country_conf': 0.957188, 'geo': {'admin1': 'Ontario', 'lat': '43.70011', 'lon': '-79.4163', 'country_code3': 'CAN', 'geonameid': '6167865', 'place_name': 'Toronto', 'feature_class': 'P', 'feature_code': 'PPLA'}}
{'word': 'Toronto', 'spans': [{'start': 0, 'end': 7}], 'country_predicted': 'CAN', 'country_conf': 0.957188, 'geo': {'admin1': 'Ontario', 'lat': '43.70011', 'lon': '-79.4163', 'country_code3': 'CAN', 'geonameid': '6167865', 'place_name': 'Toronto', 'feature_class': 'P', 'feature_code': 'PPLA'}}
{'word': 'Canada', 'spans': [{'start': 0, 'end': 6}], 'country_predicted': 'CAN', 'country_conf': 0.9516948, 'geo': {'admin1': 'NA', 'lat': '60.10867', 'lon': '-113.64258', 'country_code3': 'CAN', 'geonameid': '6251999', 'place_name': 'Canada', 'feature_class': 'A', 'feature_code': 'PCLI'}}
{'word': 'Ronda', 'spans': [{'start': 0, 'end': 5}], 'country_predicted': 'ESP', 'country_conf': 0.87992215, 'geo': {'admin1': 'Andalusia', 'lat': '36.74231', 'lon': '-5.16709', 'country_code3': 'ESP', 'geonameid': '2511730', 'place_name': 'Ronda', 'feature_class': 'P', 'feature_code': 'PPLA3'}}
{'word': 'Harare', 'spans': [{'start': 0, 'end': 6}], 'country_predicted': 'ZWE', 'country_conf': 0.957188, 'geo': {'admin1': 'Harare', 'lat': '-17.85417', 'lon': '31.05833', 'country_code3': 'ZWE', 'geonameid': '1105844', 'place_name': 'Harare Province', 'feature_class': 'A', 'feature_code': 'ADM1'}}
{'word': 'al.', 'spans': [{'start': 0, 'end': 3}], 'country_predicted': 'IRQ', 'country_conf': 0.28365934}
{'word': 'Ainsworth', 'spans': [{'start': 0, 'end': 9}], 'country_predicted': 'USA', 'country_conf': 0.87992215, 'geo': {'admin1': 'Nebraska', 'lat': '42.55', 'lon': '-99.86262', 'country_code3': 'USA', 'geonameid': '5062769', 'place_name': 'Ainsworth', 'feature_class': 'P', 'feature_code': 'PPLA2'}}
{'word': 'Peoria', 'spans': [{'start': 0, 'end': 6}], 'country_predicted': 'USA', 'country_conf': 0.957188, 'geo': {'admin1': 'Illinois', 'lat': '40.78808', 'lon': '-89.75999', 'country_code3': 'USA', 'geonameid': '4905697', 'place_name': 'Peoria County', 'feature_class': 'A', 'feature_code': 'ADM2'}}
{'word': 'Mississippi', 'spans': [{'start': 0, 'end': 11}], 'country_predicted': 'USA', 'country_conf': 0.9634983, 'geo': {'admin1': 'Mississippi', 'lat': '32.75041', 'lon': '-89.75036', 'country_code3': 'USA', 'geonameid': '4436296', 'place_name': 'Mississippi', 'feature_class': 'A', 'feature_code': 'ADM1'}}
{'word': 'Bavaria', 'spans': [{'start': 0, 'end': 7}], 'country_predicted': 'DEU', 'country_conf': 0.87992215, 'geo': {'admin1': 'Bavaria', 'lat': '49', 'lon': '11.5', 'country_code3': 'DEU', 'geonameid': '2951839', 'place_name': 'Bavaria', 'feature_class': 'A', 'feature_code': 'ADM1'}}
{'word': 'Boden', 'spans': [{'start': 0, 'end': 5}], 'country_predicted': 'DEU', 'country_conf': 0.87992215, 'geo': {'admin1': 'Rheinland-Pfalz', 'lat': '50.47392', 'lon': '7.85695', 'country_code3': 'DEU', 'geonameid': '2947161', 'place_name': 'Boden', 'feature_class': 'P', 'feature_code': 'PPLA4'}}
{'word': 'London', 'spans': [{'start': 1, 'end': 7}], 'country_predicted': 'GBR', 'country_conf': 0.957188, 'geo': {'admin1': 'England', 'lat': '51.49227', 'lon': '-0.30864', 'country_code3': 'GBR', 'geonameid': '11591955', 'place_name': 'London', 'feature_class': 'L', 'feature_code': 'RGN'}}
{'word': 'Michigan', 'spans': [{'start': 0, 'end': 8}], 'country_predicted': 'USA', 'country_conf': 0.9634983, 'geo': {'admin1': 'Michigan', 'lat': '44.25029', 'lon': '-85.50033', 'country_code3': 'USA', 'geonameid': '5001836', 'place_name': 'Michigan', 'feature_class': 'A', 'feature_code': 'ADM1'}}
{'word': 'Panehanathan', 'spans': [{'start': 0, 'end': 12}], 'country_predicted': '', 'country_conf': 0}
{'word': 'India', 'spans': [{'start': 0, 'end': 5}], 'country_predicted': 'IND', 'country_conf': 0.68758196, 'geo': {'admin1': 'NA', 'lat': '22', 'lon': '79', 'country_code3': 'IND', 'geonameid': '1269750', 'place_name': 'Republic of India', 'feature_class': 'A', 'feature_code': 'PCLI'}}
{'word': 'Australia', 'spans': [{'start': 0, 'end': 9}], 'country_predicted': 'AUS', 'country_conf': 0.9516948, 'geo': {'admin1': 'NA', 'lat': '-25', 'lon': '135', 'country_code3': 'AUS', 'geonameid': '2077456', 'place_name': 'Commonwealth of Australia', 'feature_class': 'A', 'feature_code': 'PCLI'}}
{'word': 'Alaska', 'spans': [{'start': 0, 'end': 6}], 'country_predicted': 'USA', 'country_conf': 0.9634983, 'geo': {'admin1': 'Alaska', 'lat': '64.00028', 'lon': '-150.00028', 'country_code3': 'USA', 'geonameid': '5879092', 'place_name': 'Alaska', 'feature_class': 'A', 'feature_code': 'ADM1'}}
{'word': 'al.', 'spans': [{'start': 0, 'end': 3}], 'country_predicted': 'IRQ', 'country_conf': 0.28365934}
{'word': 'palygorskite', 'spans': [{'start': 0, 'end': 12}], 'country_predicted': '', 'country_conf': 0}
{'word': 'Valley', 'spans': [{'start': 0, 'end': 6}], 'country_predicted': 'USA', 'country_conf': 0.957188, 'geo': {'admin1': 'Alabama', 'lat': '32.81874', 'lon': '-85.17939', 'country_code3': 'USA', 'geonameid': '4095186', 'place_name': 'Valley', 'feature_class': 'P', 'feature_code': 'PPL'}}
{'word': 'Palygorskite', 'spans': [{'start': 0, 'end': 12}], 'country_predicted': '', 'country_conf': 0}
{'word': 'al.', 'spans': [{'start': 0, 'end': 3}], 'country_predicted': 'IRQ', 'country_conf': 0.28365934}
{'word': 'Amsterdam', 'spans': [{'start': 0, 'end': 9}], 'country_predicted': 'NLD', 'country_conf': 0.957188, 'geo': {'admin1': 'North Holland', 'lat': '52.37302', 'lon': '4.89856', 'country_code3': 'NLD', 'geonameid': '2759793', 'place_name': 'Gemeente Amsterdam', 'feature_class': 'A', 'feature_code': 'ADM2'}}
{'word': 'Netherlands', 'spans': [{'start': 0, 'end': 11}], 'country_predicted': 'NLD', 'country_conf': 0.6948644, 'geo': {'admin1': 'NA', 'lat': '52.25', 'lon': '5.75', 'country_code3': 'NLD', 'geonameid': '2750405', 'place_name': 'Kingdom of the Netherlands', 'feature_class': 'A', 'feature_code': 'PCLI'}}
{'word': 'Kiev', 'spans': [{'start': 1, 'end': 5}], 'country_predicted': 'UKR', 'country_conf': 0.957188, 'geo': {'admin1': 'Kyiv City', 'lat': '50.4429', 'lon': '30.54896', 'country_code3': 'UKR', 'geonameid': '703447', 'place_name': 'Misto Kyiv', 'feature_class': 'A', 'feature_code': 'ADM1'}}
{'word': 'Israel', 'spans': [{'start': 0, 'end': 6}], 'country_predicted': 'ISR', 'country_conf': 0.9516948, 'geo': {'admin1': 'NA', 'lat': '31.5', 'lon': '34.75', 'country_code3': 'ISR', 'geonameid': '294640', 'place_name': 'State of Israel', 'feature_class': 'A', 'feature_code': 'PCLI'}}
{'word': 'palygorskite', 'spans': [{'start': 0, 'end': 12}], 'country_predicted': '', 'country_conf': 0}
{'word': 'Palygorskite', 'spans': [{'start': 0, 'end': 12}], 'country_predicted': '', 'country_conf': 0}
{'word': 'al.', 'spans': [{'start': 0, 'end': 3}], 'country_predicted': 'IRQ', 'country_conf': 0.28365934}
{'word': 'Amsterdam', 'spans': [{'start': 0, 'end': 9}], 'country_predicted': 'NLD', 'country_conf': 0.957188, 'geo': {'admin1': 'North Holland', 'lat': '52.37302', 'lon': '4.89856', 'country_code3': 'NLD', 'geonameid': '2759793', 'place_name': 'Gemeente Amsterdam', 'feature_class': 'A', 'feature_code': 'ADM2'}}
{'word': 'Netherlands', 'spans': [{'start': 0, 'end': 11}], 'country_predicted': 'NLD', 'country_conf': 0.6948644, 'geo': {'admin1': 'NA', 'lat': '52.25', 'lon': '5.75', 'country_code3': 'NLD', 'geonameid': '2750405', 'place_name': 'Kingdom of the Netherlands', 'feature_class': 'A', 'feature_code': 'PCLI'}}
{'word': 'Himalaya', 'spans': [{'start': 0, 'end': 8}], 'country_predicted': 'MEX', 'country_conf': 0.28365934}
{'word': 'London', 'spans': [{'start': 1, 'end': 7}], 'country_predicted': 'GBR', 'country_conf': 0.957188, 'geo': {'admin1': 'England', 'lat': '51.49227', 'lon': '-0.30864', 'country_code3': 'GBR', 'geonameid': '11591955', 'place_name': 'London', 'feature_class': 'L', 'feature_code': 'RGN'}}
{'word': 'Wapakala', 'spans': [{'start': 0, 'end': 8}], 'country_predicted': 'COD', 'country_conf': 0.5714737}
{'word': 'Harare', 'spans': [{'start': 0, 'end': 6}], 'country_predicted': 'ZWE', 'country_conf': 0.957188, 'geo': {'admin1': 'Harare', 'lat': '-17.85417', 'lon': '31.05833', 'country_code3': 'ZWE', 'geonameid': '1105844', 'place_name': 'Harare Province', 'feature_class': 'A', 'feature_code': 'ADM1'}}
{'word': 'Canada', 'spans': [{'start': 0, 'end': 6}], 'country_predicted': 'CAN', 'country_conf': 0.9516948, 'geo': {'admin1': 'NA', 'lat': '60.10867', 'lon': '-113.64258', 'country_code3': 'CAN', 'geonameid': '6251999', 'place_name': 'Canada', 'feature_class': 'A', 'feature_code': 'PCLI'}}
{'word': 'Ottawa', 'spans': [{'start': 1, 'end': 7}], 'country_predicted': 'CAN', 'country_conf': 0.87992215, 'geo': {'admin1': 'Ontario', 'lat': '45.41117', 'lon': '-75.69812', 'country_code3': 'CAN', 'geonameid': '6094817', 'place_name': 'Ottawa', 'feature_class': 'P', 'feature_code': 'PPLC'}}
