{'word': 'Amsterdam', 'spans': [{'start': 0, 'end': 9}], 'country_predicted': 'NLD', 'country_conf': 0.957188, 'geo': {'admin1': 'North Holland', 'lat': '52.37302', 'lon': '4.89856', 'country_code3': 'NLD', 'geonameid': '2759793', 'place_name': 'Gemeente Amsterdam', 'feature_class': 'A', 'feature_code': 'ADM2'}}
{'word': 'Netherlands', 'spans': [{'start': 0, 'end': 11}], 'country_predicted': 'NLD', 'country_conf': 0.6948644, 'geo': {'admin1': 'NA', 'lat': '52.25', 'lon': '5.75', 'country_code3': 'NLD', 'geonameid': '2750405', 'place_name': 'Kingdom of the Netherlands', 'feature_class': 'A', 'feature_code': 'PCLI'}}
{'word': 'INDIA', 'spans': [{'start': 0, 'end': 5}], 'country_predicted': 'IND', 'country_conf': 0.6353264, 'geo': {'admin1': 'NA', 'lat': '22', 'lon': '79', 'country_code3': 'IND', 'geonameid': '1269750', 'place_name': 'Republic of India', 'feature_class': 'A', 'feature_code': 'PCLI'}}
{'word': 'India', 'spans': [{'start': 1, 'end': 6}], 'country_predicted': 'IND', 'country_conf': 0.68758196, 'geo': {'admin1': 'NA', 'lat': '22', 'lon': '79', 'country_code3': 'IND', 'geonameid': '1269750', 'place_name': 'Republic of India', 'feature_class': 'A', 'feature_code': 'PCLI'}}
{'word': 'Baruah', 'spans': [{'start': 0, 'end': 6}], 'country_predicted': 'DEU', 'country_conf': 0.5339668}
{'word': 'India', 'spans': [{'start': 0, 'end': 5}], 'country_predicted': 'IND', 'country_conf': 0.68758196, 'geo': {'admin1': 'NA', 'lat': '22', 'lon': '79', 'country_code3': 'IND', 'geonameid': '1269750', 'place_name': 'Republic of India', 'feature_class': 'A', 'feature_code': 'PCLI'}}
{'word': 'India', 'spans': [{'start': 1, 'end': 6}], 'country_predicted': 'IND', 'country_conf': 0.68758196, 'geo': {'admin1': 'NA', 'lat': '22', 'lon': '79', 'country_code3': 'IND', 'geonameid': '1269750', 'place_name': 'Republic of India', 'feature_class': 'A', 'feature_code': 'PCLI'}}
{'word': 'al.', 'spans': [{'start': 0, 'end': 3}], 'country_predicted': 'IRQ', 'country_conf': 0.28365934}
{'word': 'h-~', 'spans': [{'start': 0, 'end': 3}], 'country_predicted': 'ITA', 'country_conf': 0.5714737}
{'word': 'Mg2', 'spans': [{'start': 0, 'end': 3}], 'country_predicted': 'RUS', 'country_conf': 0.9048774, 'geo': {'admin1': 'Leningrad', 'lat': '59.75', 'lon': '31.06667', 'country_code3': 'RUS', 'geonameid': '527220', 'place_name': 'Mga', 'feature_class': 'P', 'feature_code': 'PPL'}}
{'word': 'al.', 'spans': [{'start': 0, 'end': 3}], 'country_predicted': 'IRQ', 'country_conf': 0.28365934}
{'word': 'Mg2', 'spans': [{'start': 0, 'end': 3}], 'country_predicted': 'RUS', 'country_conf': 0.9048774, 'geo': {'admin1': 'Leningrad', 'lat': '59.75', 'lon': '31.06667', 'country_code3': 'RUS', 'geonameid': '527220', 'place_name': 'Mga', 'feature_class': 'P', 'feature_code': 'PPL'}}
{'word': 'Biggar', 'spans': [{'start': 0, 'end': 6}], 'country_predicted': 'GBR', 'country_conf': 0.9048774, 'geo': {'admin1': 'Scotland', 'lat': '55.62297', 'lon': '-3.52455', 'country_code3': 'GBR', 'geonameid': '2655692', 'place_name': 'Biggar', 'feature_class': 'P', 'feature_code': 'PPL'}}
{'word': 'Ca:+--Mg', 'spans': [{'start': 0, 'end': 8}], 'country_predicted': 'VNM', 'country_conf': 0.9528109, 'geo': {'admin1': 'Lo Cai', 'lat': '22.67161', 'lon': '104.27326', 'country_code3': 'VNM', 'geonameid': '8464780', 'place_name': 'Huyn Si Ma Cai', 'feature_class': 'A', 'feature_code': 'ADM2'}}
{'word': 'Mg2', 'spans': [{'start': 0, 'end': 3}], 'country_predicted': 'RUS', 'country_conf': 0.9048774, 'geo': {'admin1': 'Leningrad', 'lat': '59.75', 'lon': '31.06667', 'country_code3': 'RUS', 'geonameid': '527220', 'place_name': 'Mga', 'feature_class': 'P', 'feature_code': 'PPL'}}
{'word': 'Soc', 'spans': [{'start': 0, 'end': 3}], 'country_predicted': 'VNM', 'country_conf': 0.87992215, 'geo': {'admin1': 'Sc Trng', 'lat': '9.59995', 'lon': '105.97193', 'country_code3': 'VNM', 'geonameid': '1567788', 'place_name': 'Sc Trng', 'feature_class': 'P', 'feature_code': 'PPLA'}}
{'word': 'Biggar', 'spans': [{'start': 0, 'end': 6}], 'country_predicted': 'GBR', 'country_conf': 0.9048774, 'geo': {'admin1': 'Scotland', 'lat': '55.62297', 'lon': '-3.52455', 'country_code3': 'GBR', 'geonameid': '2655692', 'place_name': 'Biggar', 'feature_class': 'P', 'feature_code': 'PPL'}}
{'word': 'Soc', 'spans': [{'start': 0, 'end': 3}], 'country_predicted': 'VNM', 'country_conf': 0.87992215, 'geo': {'admin1': 'Sc Trng', 'lat': '9.59995', 'lon': '105.97193', 'country_code3': 'VNM', 'geonameid': '1567788', 'place_name': 'Sc Trng', 'feature_class': 'P', 'feature_code': 'PPLA'}}
{'word': 'York', 'spans': [{'start': 0, 'end': 4}], 'country_predicted': 'CAN', 'country_conf': 0.28868946}
{'word': 'N.Y.', 'spans': [{'start': 0, 'end': 4}], 'country_predicted': 'FRA', 'country_conf': 0.28365934}
{'word': 'Soc', 'spans': [{'start': 0, 'end': 3}], 'country_predicted': 'VNM', 'country_conf': 0.87992215, 'geo': {'admin1': 'Sc Trng', 'lat': '9.59995', 'lon': '105.97193', 'country_code3': 'VNM', 'geonameid': '1567788', 'place_name': 'Sc Trng', 'feature_class': 'P', 'feature_code': 'PPLA'}}
{'word': 'Soc', 'spans': [{'start': 0, 'end': 3}], 'country_predicted': 'VNM', 'country_conf': 0.87992215, 'geo': {'admin1': 'Sc Trng', 'lat': '9.59995', 'lon': '105.97193', 'country_code3': 'VNM', 'geonameid': '1567788', 'place_name': 'Sc Trng', 'feature_class': 'P', 'feature_code': 'PPLA'}}
{'word': 'F.T.', 'spans': [{'start': 0, 'end': 4}], 'country_predicted': 'HUN', 'country_conf': 0.28365934}
{'word': 'Baersma', 'spans': [{'start': 0, 'end': 7}], 'country_predicted': '', 'country_conf': 0}
{'word': 'Soc', 'spans': [{'start': 0, 'end': 3}], 'country_predicted': 'VNM', 'country_conf': 0.87992215, 'geo': {'admin1': 'Sc Trng', 'lat': '9.59995', 'lon': '105.97193', 'country_code3': 'VNM', 'geonameid': '1567788', 'place_name': 'Sc Trng', 'feature_class': 'P', 'feature_code': 'PPLA'}}
{'word': 'S.C.', 'spans': [{'start': 0, 'end': 4}], 'country_predicted': 'CHE', 'country_conf': 0.9048774, 'geo': {'admin1': 'Neuchtel', 'lat': '47.01647', 'lon': '6.85191', 'country_code3': 'CHE', 'geonameid': '10380209', 'place_name': 'Les Geneveys-s.C., Mont-Racine', 'feature_class': 'S', 'feature_code': 'BUSTP'}}
{'word': 'L.A.', 'spans': [{'start': 0, 'end': 4}], 'country_predicted': 'USA', 'country_conf': 0.957188, 'geo': {'admin1': 'California', 'lat': '34.05223', 'lon': '-118.24368', 'country_code3': 'USA', 'geonameid': '5368361', 'place_name': 'Los Angeles', 'feature_class': 'P', 'feature_code': 'PPLA2'}}
{'word': 'Washington', 'spans': [{'start': 0, 'end': 10}], 'country_predicted': 'USA', 'country_conf': 0.69099617, 'geo': {'admin1': 'Washington', 'lat': '47.50012', 'lon': '-120.50147', 'country_code3': 'USA', 'geonameid': '5815135', 'place_name': 'Washington', 'feature_class': 'A', 'feature_code': 'ADM1'}}
{'word': 'D.C.', 'spans': [{'start': 0, 'end': 4}], 'country_predicted': 'COL', 'country_conf': 0.28868946}
