{'word': 'Amsterdam', 'spans': [{'start': 0, 'end': 9}], 'country_predicted': 'NLD', 'country_conf': 0.957188, 'geo': {'admin1': 'North Holland', 'lat': '52.37302', 'lon': '4.89856', 'country_code3': 'NLD', 'geonameid': '2759793', 'place_name': 'Gemeente Amsterdam', 'feature_class': 'A', 'feature_code': 'ADM2'}}
{'word': 'Netherlands', 'spans': [{'start': 0, 'end': 11}], 'country_predicted': 'NLD', 'country_conf': 0.6948644, 'geo': {'admin1': 'NA', 'lat': '52.25', 'lon': '5.75', 'country_code3': 'NLD', 'geonameid': '2750405', 'place_name': 'Kingdom of the Netherlands', 'feature_class': 'A', 'feature_code': 'PCLI'}}
{'word': 'JAPAN', 'spans': [{'start': 0, 'end': 5}], 'country_predicted': 'JPN', 'country_conf': 0.96374094, 'geo': {'admin1': 'NA', 'lat': '35.68536', 'lon': '139.75309', 'country_code3': 'JPN', 'geonameid': '1861060', 'place_name': 'Japan', 'feature_class': 'A', 'feature_code': 'PCLI'}}
{'word': 'Kyushu', 'spans': [{'start': 0, 'end': 6}], 'country_predicted': 'JPN', 'country_conf': 0.9048774, 'geo': {'admin1': 'Kumamoto', 'lat': '32.42944', 'lon': '130.99099', 'country_code3': 'JPN', 'geonameid': '1857892', 'place_name': 'Kyushu', 'feature_class': 'T', 'feature_code': 'ISL'}}
{'word': 'Fukuoka', 'spans': [{'start': 0, 'end': 7}], 'country_predicted': 'JPN', 'country_conf': 0.96374094, 'geo': {'admin1': 'Fukuoka', 'lat': '33.52813', 'lon': '130.66472', 'country_code3': 'JPN', 'geonameid': '1863958', 'place_name': 'Fukuoka Prefecture', 'feature_class': 'A', 'feature_code': 'ADM1'}}
{'word': 'Japan', 'spans': [{'start': 1, 'end': 6}], 'country_predicted': 'JPN', 'country_conf': 0.9516948, 'geo': {'admin1': 'NA', 'lat': '35.68536', 'lon': '139.75309', 'country_code3': 'JPN', 'geonameid': '1861060', 'place_name': 'Japan', 'feature_class': 'A', 'feature_code': 'PCLI'}}
{'word': 'Japan', 'spans': [{'start': 0, 'end': 5}], 'country_predicted': 'JPN', 'country_conf': 0.9516948, 'geo': {'admin1': 'NA', 'lat': '35.68536', 'lon': '139.75309', 'country_code3': 'JPN', 'geonameid': '1861060', 'place_name': 'Japan', 'feature_class': 'A', 'feature_code': 'PCLI'}}
{'word': 'Kyushu', 'spans': [{'start': 0, 'end': 6}], 'country_predicted': 'JPN', 'country_conf': 0.9048774, 'geo': {'admin1': 'Kumamoto', 'lat': '32.42944', 'lon': '130.99099', 'country_code3': 'JPN', 'geonameid': '1857892', 'place_name': 'Kyushu', 'feature_class': 'T', 'feature_code': 'ISL'}}
{'word': 'Japan', 'spans': [{'start': 0, 'end': 5}], 'country_predicted': 'JPN', 'country_conf': 0.9516948, 'geo': {'admin1': 'NA', 'lat': '35.68536', 'lon': '139.75309', 'country_code3': 'JPN', 'geonameid': '1861060', 'place_name': 'Japan', 'feature_class': 'A', 'feature_code': 'PCLI'}}
{'word': 'Kyushu', 'spans': [{'start': 0, 'end': 6}], 'country_predicted': 'JPN', 'country_conf': 0.9048774, 'geo': {'admin1': 'Kumamoto', 'lat': '32.42944', 'lon': '130.99099', 'country_code3': 'JPN', 'geonameid': '1857892', 'place_name': 'Kyushu', 'feature_class': 'T', 'feature_code': 'ISL'}}
{'word': 'Japan', 'spans': [{'start': 0, 'end': 5}], 'country_predicted': 'JPN', 'country_conf': 0.9516948, 'geo': {'admin1': 'NA', 'lat': '35.68536', 'lon': '139.75309', 'country_code3': 'JPN', 'geonameid': '1861060', 'place_name': 'Japan', 'feature_class': 'A', 'feature_code': 'PCLI'}}
{'word': 'Kawazoe-machi', 'spans': [{'start': 0, 'end': 13}], 'country_predicted': 'JPN', 'country_conf': 0.96374094, 'geo': {'admin1': 'NA', 'lat': '34.01667', 'lon': '133.58333', 'country_code3': 'JPN', 'geonameid': '1859669', 'place_name': 'Kawanoe-ch', 'feature_class': 'A', 'feature_code': 'ADMD'}}
{'word': 'Japan', 'spans': [{'start': 0, 'end': 5}], 'country_predicted': 'JPN', 'country_conf': 0.9516948, 'geo': {'admin1': 'NA', 'lat': '35.68536', 'lon': '139.75309', 'country_code3': 'JPN', 'geonameid': '1861060', 'place_name': 'Japan', 'feature_class': 'A', 'feature_code': 'PCLI'}}
{'word': 'dialyzed', 'spans': [{'start': 0, 'end': 8}], 'country_predicted': '', 'country_conf': 0}
{'word': 'al.', 'spans': [{'start': 0, 'end': 3}], 'country_predicted': 'IRQ', 'country_conf': 0.28365934}
