{'word': 'Amsterdam', 'spans': [{'start': 0, 'end': 9}], 'country_predicted': 'NLD', 'country_conf': 0.957188, 'geo': {'admin1': 'North Holland', 'lat': '52.37302', 'lon': '4.89856', 'country_code3': 'NLD', 'geonameid': '2759793', 'place_name': 'Gemeente Amsterdam', 'feature_class': 'A', 'feature_code': 'ADM2'}}
{'word': 'Netherlands', 'spans': [{'start': 0, 'end': 11}], 'country_predicted': 'NLD', 'country_conf': 0.6948644, 'geo': {'admin1': 'NA', 'lat': '52.25', 'lon': '5.75', 'country_code3': 'NLD', 'geonameid': '2750405', 'place_name': 'Kingdom of the Netherlands', 'feature_class': 'A', 'feature_code': 'PCLI'}}
{'word': 'Independencia', 'spans': [{'start': 0, 'end': 13}], 'country_predicted': 'MEX', 'country_conf': 0.28365934}
{'word': 'Chile', 'spans': [{'start': 1, 'end': 6}], 'country_predicted': 'CHL', 'country_conf': 0.9516948, 'geo': {'admin1': 'NA', 'lat': '-30', 'lon': '-71', 'country_code3': 'CHL', 'geonameid': '3895114', 'place_name': 'Republic of Chile', 'feature_class': 'A', 'feature_code': 'PCLI'}}
{'word': 'Chile', 'spans': [{'start': 0, 'end': 5}], 'country_predicted': 'CHL', 'country_conf': 0.9516948, 'geo': {'admin1': 'NA', 'lat': '-30', 'lon': '-71', 'country_code3': 'CHL', 'geonameid': '3895114', 'place_name': 'Republic of Chile', 'feature_class': 'A', 'feature_code': 'PCLI'}}
{'word': 'Chile', 'spans': [{'start': 0, 'end': 5}], 'country_predicted': 'CHL', 'country_conf': 0.9516948, 'geo': {'admin1': 'NA', 'lat': '-30', 'lon': '-71', 'country_code3': 'CHL', 'geonameid': '3895114', 'place_name': 'Republic of Chile', 'feature_class': 'A', 'feature_code': 'PCLI'}}
{'word': 'schaften', 'spans': [{'start': 0, 'end': 8}], 'country_predicted': 'BEL', 'country_conf': 0.5339668}
{'word': 'welche', 'spans': [{'start': 0, 'end': 6}], 'country_predicted': 'USA', 'country_conf': 0.9048774, 'geo': {'admin1': 'Connecticut', 'lat': '41.20204', 'lon': '-73.03788', 'country_code3': 'USA', 'geonameid': '4845313', 'place_name': 'Welches Point', 'feature_class': 'T', 'feature_code': 'CAPE'}}
{'word': 'B6den', 'spans': [{'start': 0, 'end': 5}], 'country_predicted': 'DEU', 'country_conf': 0.9528109, 'geo': {'admin1': 'Baden-Wrttemberg', 'lat': '48.5', 'lon': '9', 'country_code3': 'DEU', 'geonameid': '2953481', 'place_name': 'Baden-Wrttemberg', 'feature_class': 'A', 'feature_code': 'ADM1'}}
{'word': 'sind', 'spans': [{'start': 0, 'end': 4}], 'country_predicted': 'PAK', 'country_conf': 0.28868946}
{'word': 'reicherung', 'spans': [{'start': 0, 'end': 10}], 'country_predicted': 'AUT', 'country_conf': 0.9528109, 'geo': {'admin1': 'Salzburg', 'lat': '47.99667', 'lon': '12.99222', 'country_code3': 'AUT', 'geonameid': '3323123', 'place_name': 'Reicherting', 'feature_class': 'P', 'feature_code': 'PPL'}}
{'word': 'einem', 'spans': [{'start': 0, 'end': 5}], 'country_predicted': 'DEU', 'country_conf': 0.9048774, 'geo': {'admin1': 'Lower Saxony', 'lat': '53.16592', 'lon': '9.90213', 'country_code3': 'DEU', 'geonameid': '2931790', 'place_name': 'Einem', 'feature_class': 'P', 'feature_code': 'PPL'}}
{'word': 'Boden', 'spans': [{'start': 0, 'end': 5}], 'country_predicted': 'DEU', 'country_conf': 0.87992215, 'geo': {'admin1': 'Rheinland-Pfalz', 'lat': '50.47392', 'lon': '7.85695', 'country_code3': 'DEU', 'geonameid': '2947161', 'place_name': 'Boden', 'feature_class': 'P', 'feature_code': 'PPLA4'}}
{'word': "Benetzungsf'~igkeit", 'spans': [{'start': 0, 'end': 19}], 'country_predicted': '', 'country_conf': 0}
{'word': 'Benetzungsfiihigkeit', 'spans': [{'start': 0, 'end': 20}], 'country_predicted': '', 'country_conf': 0}
{'word': 'Untersuchung', 'spans': [{'start': 0, 'end': 12}], 'country_predicted': '', 'country_conf': 0}
{'word': 'ihre', 'spans': [{'start': 0, 'end': 4}], 'country_predicted': 'AUT', 'country_conf': 0.28868946}
{'word': 'schwer', 'spans': [{'start': 0, 'end': 6}], 'country_predicted': 'USA', 'country_conf': 0.9048774, 'geo': {'admin1': 'Nebraska', 'lat': '41.16805', 'lon': '-96.04807', 'country_code3': 'USA', 'geonameid': '5078663', 'place_name': 'Schwer Recreational Area', 'feature_class': 'L', 'feature_code': 'PRK'}}
{'word': 'sind', 'spans': [{'start': 0, 'end': 4}], 'country_predicted': 'PAK', 'country_conf': 0.28868946}
{'word': 'benetzungshemmende', 'spans': [{'start': 0, 'end': 18}], 'country_predicted': '', 'country_conf': 0}
{'word': 'gebracht', 'spans': [{'start': 0, 'end': 8}], 'country_predicted': 'USA', 'country_conf': 0.9048774, 'geo': {'admin1': 'South Dakota', 'lat': '45.21165', 'lon': '-102.74711', 'country_code3': 'USA', 'geonameid': '5764914', 'place_name': 'Frank Gebracht Dam', 'feature_class': 'S', 'feature_code': 'DAM'}}
{'word': 'al.', 'spans': [{'start': 0, 'end': 3}], 'country_predicted': 'IRQ', 'country_conf': 0.28365934}
{'word': 'al.', 'spans': [{'start': 0, 'end': 3}], 'country_predicted': 'IRQ', 'country_conf': 0.28365934}
{'word': 'benetzungshemmende', 'spans': [{'start': 0, 'end': 18}], 'country_predicted': '', 'country_conf': 0}
{'word': 'Boden', 'spans': [{'start': 0, 'end': 5}], 'country_predicted': 'DEU', 'country_conf': 0.87992215, 'geo': {'admin1': 'Rheinland-Pfalz', 'lat': '50.47392', 'lon': '7.85695', 'country_code3': 'DEU', 'geonameid': '2947161', 'place_name': 'Boden', 'feature_class': 'P', 'feature_code': 'PPLA4'}}
{'word': 'sind', 'spans': [{'start': 0, 'end': 4}], 'country_predicted': 'PAK', 'country_conf': 0.28868946}
{'word': 'sind', 'spans': [{'start': 0, 'end': 4}], 'country_predicted': 'PAK', 'country_conf': 0.28868946}
{'word': 'sind', 'spans': [{'start': 0, 'end': 4}], 'country_predicted': 'PAK', 'country_conf': 0.28868946}
{'word': 'I.R.E.N.', 'spans': [{'start': 0, 'end': 8}], 'country_predicted': '', 'country_conf': 0}
{'word': 'Brandrodung', 'spans': [{'start': 0, 'end': 11}], 'country_predicted': '', 'country_conf': 0}
{'word': 'unterworfen', 'spans': [{'start': 0, 'end': 11}], 'country_predicted': '', 'country_conf': 0}
{'word': 'Bodennutzung', 'spans': [{'start': 0, 'end': 12}], 'country_predicted': '', 'country_conf': 0}
{'word': 'Holoz', 'spans': [{'start': 0, 'end': 5}], 'country_predicted': 'TUR', 'country_conf': 0.9528109, 'geo': {'admin1': 'Afyonkarahisar', 'lat': '39.0929', 'lon': '31.01381', 'country_code3': 'TUR', 'geonameid': '311970', 'place_name': 'LabatlarMahallesi', 'feature_class': 'P', 'feature_code': 'PPL'}}
{'word': 'Holoz', 'spans': [{'start': 0, 'end': 5}], 'country_predicted': 'TUR', 'country_conf': 0.9528109, 'geo': {'admin1': 'Afyonkarahisar', 'lat': '39.0929', 'lon': '31.01381', 'country_code3': 'TUR', 'geonameid': '311970', 'place_name': 'LabatlarMahallesi', 'feature_class': 'P', 'feature_code': 'PPL'}}
{'word': 'Holoz', 'spans': [{'start': 0, 'end': 5}], 'country_predicted': 'TUR', 'country_conf': 0.9528109, 'geo': {'admin1': 'Afyonkarahisar', 'lat': '39.0929', 'lon': '31.01381', 'country_code3': 'TUR', 'geonameid': '311970', 'place_name': 'LabatlarMahallesi', 'feature_class': 'P', 'feature_code': 'PPL'}}
{'word': 'Boden', 'spans': [{'start': 0, 'end': 5}], 'country_predicted': 'DEU', 'country_conf': 0.87992215, 'geo': {'admin1': 'Rheinland-Pfalz', 'lat': '50.47392', 'lon': '7.85695', 'country_code3': 'DEU', 'geonameid': '2947161', 'place_name': 'Boden', 'feature_class': 'P', 'feature_code': 'PPLA4'}}
{'word': 'Boden', 'spans': [{'start': 0, 'end': 5}], 'country_predicted': 'DEU', 'country_conf': 0.87992215, 'geo': {'admin1': 'Rheinland-Pfalz', 'lat': '50.47392', 'lon': '7.85695', 'country_code3': 'DEU', 'geonameid': '2947161', 'place_name': 'Boden', 'feature_class': 'P', 'feature_code': 'PPLA4'}}
{'word': 'siehe', 'spans': [{'start': 0, 'end': 5}], 'country_predicted': 'PAK', 'country_conf': 0.28868946}
{'word': 'A.O.A.C.', 'spans': [{'start': 0, 'end': 8}], 'country_predicted': '', 'country_conf': 0}
{'word': 'sind', 'spans': [{'start': 0, 'end': 4}], 'country_predicted': 'PAK', 'country_conf': 0.28868946}
{'word': 'ihigkeit', 'spans': [{'start': 2, 'end': 10}], 'country_predicted': '', 'country_conf': 0}
{'word': 'ihigkeit', 'spans': [{'start': 2, 'end': 10}], 'country_predicted': '', 'country_conf': 0}
{'word': 'tiber', 'spans': [{'start': 0, 'end': 5}], 'country_predicted': 'MEX', 'country_conf': 0.28365934}
{'word': 'liegt', 'spans': [{'start': 0, 'end': 5}], 'country_predicted': 'BEL', 'country_conf': 0.87992215, 'geo': {'admin1': 'Wallonia', 'lat': '50.62564', 'lon': '5.59837', 'country_code3': 'BEL', 'geonameid': '2792414', 'place_name': 'Lige', 'feature_class': 'A', 'feature_code': 'ADM4'}}
{'word': 'werden', 'spans': [{'start': 0, 'end': 6}], 'country_predicted': 'DEU', 'country_conf': 0.28868946}
{'word': 'higkeit', 'spans': [{'start': 2, 'end': 9}], 'country_predicted': '', 'country_conf': 0}
{'word': 'Unterboden', 'spans': [{'start': 0, 'end': 10}], 'country_predicted': 'AUT', 'country_conf': 0.9528109, 'geo': {'admin1': 'Vorarlberg', 'lat': '47.26111', 'lon': '10.08111', 'country_code3': 'AUT', 'geonameid': '2763093', 'place_name': 'Unterboden', 'feature_class': 'P', 'feature_code': 'PPLX'}}
{'word': 'ihigkeit', 'spans': [{'start': 2, 'end': 10}], 'country_predicted': '', 'country_conf': 0}
{'word': 'unterzieht', 'spans': [{'start': 0, 'end': 10}], 'country_predicted': '', 'country_conf': 0}
{'word': 'Wassemufnahmegeschwindigkeit', 'spans': [{'start': 0, 'end': 28}], 'country_predicted': '', 'country_conf': 0}
{'word': 'siehe', 'spans': [{'start': 0, 'end': 5}], 'country_predicted': 'PAK', 'country_conf': 0.28868946}
{'word': 'siehe', 'spans': [{'start': 0, 'end': 5}], 'country_predicted': 'PAK', 'country_conf': 0.28868946}
{'word': 'Boden', 'spans': [{'start': 0, 'end': 5}], 'country_predicted': 'DEU', 'country_conf': 0.87992215, 'geo': {'admin1': 'Rheinland-Pfalz', 'lat': '50.47392', 'lon': '7.85695', 'country_code3': 'DEU', 'geonameid': '2947161', 'place_name': 'Boden', 'feature_class': 'P', 'feature_code': 'PPLA4'}}
{'word': 'siehe', 'spans': [{'start': 0, 'end': 5}], 'country_predicted': 'PAK', 'country_conf': 0.28868946}
{'word': 'siehe', 'spans': [{'start': 0, 'end': 5}], 'country_predicted': 'PAK', 'country_conf': 0.28868946}
{'word': 'Boden', 'spans': [{'start': 0, 'end': 5}], 'country_predicted': 'DEU', 'country_conf': 0.87992215, 'geo': {'admin1': 'Rheinland-Pfalz', 'lat': '50.47392', 'lon': '7.85695', 'country_code3': 'DEU', 'geonameid': '2947161', 'place_name': 'Boden', 'feature_class': 'P', 'feature_code': 'PPLA4'}}
{'word': 'seinem', 'spans': [{'start': 0, 'end': 6}], 'country_predicted': 'FRA', 'country_conf': 0.87992215, 'geo': {'admin1': 'le-de-France', 'lat': '48.85', 'lon': '2.19293', 'country_code3': 'FRA', 'geonameid': '3013657', 'place_name': 'Hauts-de-Seine', 'feature_class': 'A', 'feature_code': 'ADM2'}}
{'word': 'Zustand', 'spans': [{'start': 0, 'end': 7}], 'country_predicted': 'NOR', 'country_conf': 0.9528109, 'geo': {'admin1': 'NA', 'lat': '60.1862', 'lon': '9.01709', 'country_code3': 'NOR', 'geonameid': '9497869', 'place_name': 'Raustand', 'feature_class': 'S', 'feature_code': 'FRM'}}
{'word': 'erhalten', 'spans': [{'start': 0, 'end': 8}], 'country_predicted': 'NOR', 'country_conf': 0.9048774, 'geo': {'admin1': 'NA', 'lat': '70.50351', 'lon': '24.3783', 'country_code3': 'NOR', 'geonameid': '9753582', 'place_name': 'rnjoasvaggi', 'feature_class': 'T', 'feature_code': 'VAL'}}
{'word': 'Unterboden', 'spans': [{'start': 0, 'end': 10}], 'country_predicted': 'AUT', 'country_conf': 0.9528109, 'geo': {'admin1': 'Vorarlberg', 'lat': '47.26111', 'lon': '10.08111', 'country_code3': 'AUT', 'geonameid': '2763093', 'place_name': 'Unterboden', 'feature_class': 'P', 'feature_code': 'PPLX'}}
{'word': 'schwer', 'spans': [{'start': 0, 'end': 6}], 'country_predicted': 'USA', 'country_conf': 0.9048774, 'geo': {'admin1': 'Nebraska', 'lat': '41.16805', 'lon': '-96.04807', 'country_code3': 'USA', 'geonameid': '5078663', 'place_name': 'Schwer Recreational Area', 'feature_class': 'L', 'feature_code': 'PRK'}}
{'word': 'sind', 'spans': [{'start': 0, 'end': 4}], 'country_predicted': 'PAK', 'country_conf': 0.28868946}
{'word': 'Strohverbrennung', 'spans': [{'start': 0, 'end': 16}], 'country_predicted': '', 'country_conf': 0}
{'word': 'geht', 'spans': [{'start': 0, 'end': 4}], 'country_predicted': 'PAK', 'country_conf': 0.9048774, 'geo': {'admin1': 'Khyber Pakhtunkhwa', 'lat': '36.30103', 'lon': '72.22742', 'country_code3': 'PAK', 'geonameid': '11044634', 'place_name': 'Geht Gol', 'feature_class': 'H', 'feature_code': 'STM'}}
{'word': 'werden', 'spans': [{'start': 0, 'end': 6}], 'country_predicted': 'DEU', 'country_conf': 0.28868946}
{'word': 'sind', 'spans': [{'start': 0, 'end': 4}], 'country_predicted': 'PAK', 'country_conf': 0.28868946}
{'word': 'boden', 'spans': [{'start': 0, 'end': 5}], 'country_predicted': 'DEU', 'country_conf': 0.87992215, 'geo': {'admin1': 'Rheinland-Pfalz', 'lat': '50.47392', 'lon': '7.85695', 'country_code3': 'DEU', 'geonameid': '2947161', 'place_name': 'Boden', 'feature_class': 'P', 'feature_code': 'PPLA4'}}
{'word': 'steht', 'spans': [{'start': 0, 'end': 5}], 'country_predicted': 'MAR', 'country_conf': 0.28365934}
{'word': 'Unterboden', 'spans': [{'start': 0, 'end': 10}], 'country_predicted': 'AUT', 'country_conf': 0.9528109, 'geo': {'admin1': 'Vorarlberg', 'lat': '47.26111', 'lon': '10.08111', 'country_code3': 'AUT', 'geonameid': '2763093', 'place_name': 'Unterboden', 'feature_class': 'P', 'feature_code': 'PPLX'}}
{'word': 'Unterboden', 'spans': [{'start': 0, 'end': 10}], 'country_predicted': 'AUT', 'country_conf': 0.9528109, 'geo': {'admin1': 'Vorarlberg', 'lat': '47.26111', 'lon': '10.08111', 'country_code3': 'AUT', 'geonameid': '2763093', 'place_name': 'Unterboden', 'feature_class': 'P', 'feature_code': 'PPLX'}}
{'word': 'Erhitzung', 'spans': [{'start': 0, 'end': 9}], 'country_predicted': '', 'country_conf': 0}
{'word': 'quantitativen', 'spans': [{'start': 0, 'end': 13}], 'country_predicted': 'USA', 'country_conf': 0.9528109, 'geo': {'admin1': 'Virginia', 'lat': '36.88611', 'lon': '-76.29528', 'country_code3': 'USA', 'geonameid': '6345256', 'place_name': 'Center for Quantitative Fisheries Ecology', 'feature_class': 'S', 'feature_code': 'BLDG'}}
{'word': 'werden', 'spans': [{'start': 0, 'end': 6}], 'country_predicted': 'DEU', 'country_conf': 0.28868946}
{'word': 'Stelle', 'spans': [{'start': 0, 'end': 6}], 'country_predicted': 'DEU', 'country_conf': 0.9048774, 'geo': {'admin1': 'Lower Saxony', 'lat': '53.38416', 'lon': '10.11138', 'country_code3': 'DEU', 'geonameid': '6552650', 'place_name': 'Stelle', 'feature_class': 'A', 'feature_code': 'ADM4'}}
{'word': 'keit', 'spans': [{'start': 0, 'end': 4}], 'country_predicted': 'TCD', 'country_conf': 0.9528109, 'geo': {'admin1': 'Gura', 'lat': '11.5628', 'lon': '18.6638', 'country_code3': 'TCD', 'geonameid': '2430559', 'place_name': 'Mont Ket', 'feature_class': 'T', 'feature_code': 'MT'}}
{'word': 'Benetzbarkeit', 'spans': [{'start': 0, 'end': 13}], 'country_predicted': '', 'country_conf': 0}
{'word': 'sind', 'spans': [{'start': 0, 'end': 4}], 'country_predicted': 'PAK', 'country_conf': 0.28868946}
{'word': 'Bezug', 'spans': [{'start': 0, 'end': 5}], 'country_predicted': 'FRA', 'country_conf': 0.5339668}
{'word': 'welche', 'spans': [{'start': 0, 'end': 6}], 'country_predicted': 'USA', 'country_conf': 0.9048774, 'geo': {'admin1': 'Connecticut', 'lat': '41.20204', 'lon': '-73.03788', 'country_code3': 'USA', 'geonameid': '4845313', 'place_name': 'Welches Point', 'feature_class': 'T', 'feature_code': 'CAPE'}}
{'word': 'erzeugt', 'spans': [{'start': 0, 'end': 7}], 'country_predicted': 'MLI', 'country_conf': 0.9048774, 'geo': {'admin1': 'Koulikoro', 'lat': '15.35265', 'lon': '-6.48444', 'country_code3': 'MLI', 'geonameid': '2457917', 'place_name': 'Grin Ereugh', 'feature_class': 'T', 'feature_code': 'HLL'}}
{'word': 'werden', 'spans': [{'start': 0, 'end': 6}], 'country_predicted': 'DEU', 'country_conf': 0.28868946}
{'word': 'einem', 'spans': [{'start': 0, 'end': 5}], 'country_predicted': 'DEU', 'country_conf': 0.9048774, 'geo': {'admin1': 'Lower Saxony', 'lat': '53.16592', 'lon': '9.90213', 'country_code3': 'DEU', 'geonameid': '2931790', 'place_name': 'Einem', 'feature_class': 'P', 'feature_code': 'PPL'}}
{'word': 'winkel', 'spans': [{'start': 0, 'end': 6}], 'country_predicted': 'FRA', 'country_conf': 0.87992215, 'geo': {'admin1': 'Alsace-Champagne-Ardenne-Lorraine', 'lat': '47.46108', 'lon': '7.26349', 'country_code3': 'FRA', 'geonameid': '2967342', 'place_name': 'Winkel', 'feature_class': 'P', 'feature_code': 'PPL'}}
{'word': "f'~ihigkeit", 'spans': [{'start': 0, 'end': 11}], 'country_predicted': '', 'country_conf': 0}
{'word': 'sind', 'spans': [{'start': 0, 'end': 4}], 'country_predicted': 'PAK', 'country_conf': 0.28868946}
{'word': 'sind', 'spans': [{'start': 0, 'end': 4}], 'country_predicted': 'PAK', 'country_conf': 0.28868946}
{'word': 'sind', 'spans': [{'start': 0, 'end': 4}], 'country_predicted': 'PAK', 'country_conf': 0.28868946}
{'word': 'Chile', 'spans': [{'start': 0, 'end': 5}], 'country_predicted': 'CHL', 'country_conf': 0.9516948, 'geo': {'admin1': 'NA', 'lat': '-30', 'lon': '-71', 'country_code3': 'CHL', 'geonameid': '3895114', 'place_name': 'Republic of Chile', 'feature_class': 'A', 'feature_code': 'PCLI'}}
{'word': 'Washington', 'spans': [{'start': 0, 'end': 10}], 'country_predicted': 'USA', 'country_conf': 0.69099617, 'geo': {'admin1': 'Washington', 'lat': '47.50012', 'lon': '-120.50147', 'country_code3': 'USA', 'geonameid': '5815135', 'place_name': 'Washington', 'feature_class': 'A', 'feature_code': 'ADM1'}}
{'word': 'D.C.', 'spans': [{'start': 0, 'end': 4}], 'country_predicted': 'COL', 'country_conf': 0.28868946}
{'word': 'Calif.', 'spans': [{'start': 0, 'end': 6}], 'country_predicted': 'USA', 'country_conf': 0.957188, 'geo': {'admin1': 'California', 'lat': '37.25022', 'lon': '-119.75126', 'country_code3': 'USA', 'geonameid': '5332921', 'place_name': 'California', 'feature_class': 'A', 'feature_code': 'ADM1'}}
{'word': 'Riverside', 'spans': [{'start': 0, 'end': 9}], 'country_predicted': 'AUS', 'country_conf': 0.28365934}
{'word': 'Hamilton', 'spans': [{'start': 0, 'end': 8}], 'country_predicted': 'CAN', 'country_conf': 0.28365934}
{'word': 'Soc', 'spans': [{'start': 0, 'end': 3}], 'country_predicted': 'VNM', 'country_conf': 0.87992215, 'geo': {'admin1': 'Sc Trng', 'lat': '9.59995', 'lon': '105.97193', 'country_code3': 'VNM', 'geonameid': '1567788', 'place_name': 'Sc Trng', 'feature_class': 'P', 'feature_code': 'PPLA'}}
{'word': 'Hannover', 'spans': [{'start': 0, 'end': 8}], 'country_predicted': 'DEU', 'country_conf': 0.96374094, 'geo': {'admin1': 'Lower Saxony', 'lat': '52.44889', 'lon': '9.74', 'country_code3': 'DEU', 'geonameid': '3221033', 'place_name': 'Region Hannover', 'feature_class': 'A', 'feature_code': 'ADM3'}}
{'word': 'Hannover', 'spans': [{'start': 0, 'end': 8}], 'country_predicted': 'DEU', 'country_conf': 0.96374094, 'geo': {'admin1': 'Lower Saxony', 'lat': '52.44889', 'lon': '9.74', 'country_code3': 'DEU', 'geonameid': '3221033', 'place_name': 'Region Hannover', 'feature_class': 'A', 'feature_code': 'ADM3'}}
{'word': 'K.H.', 'spans': [{'start': 0, 'end': 4}], 'country_predicted': 'VNM', 'country_conf': 0.5714737}
{'word': 'Santiago', 'spans': [{'start': 0, 'end': 8}], 'country_predicted': 'CRI', 'country_conf': 0.28365934}
{'word': 'Barcelona', 'spans': [{'start': 0, 'end': 9}], 'country_predicted': 'ESP', 'country_conf': 0.957188, 'geo': {'admin1': 'Catalonia', 'lat': '41.66667', 'lon': '2', 'country_code3': 'ESP', 'geonameid': '3128759', 'place_name': 'Provncia de Barcelona', 'feature_class': 'A', 'feature_code': 'ADM2'}}
{'word': 'Valley', 'spans': [{'start': 0, 'end': 6}], 'country_predicted': 'USA', 'country_conf': 0.957188, 'geo': {'admin1': 'Alabama', 'lat': '32.81874', 'lon': '-85.17939', 'country_code3': 'USA', 'geonameid': '4095186', 'place_name': 'Valley', 'feature_class': 'P', 'feature_code': 'PPL'}}
{'word': 'Chile', 'spans': [{'start': 0, 'end': 5}], 'country_predicted': 'CHL', 'country_conf': 0.9516948, 'geo': {'admin1': 'NA', 'lat': '-30', 'lon': '-71', 'country_code3': 'CHL', 'geonameid': '3895114', 'place_name': 'Republic of Chile', 'feature_class': 'A', 'feature_code': 'PCLI'}}
{'word': 'Soc', 'spans': [{'start': 0, 'end': 3}], 'country_predicted': 'VNM', 'country_conf': 0.87992215, 'geo': {'admin1': 'Sc Trng', 'lat': '9.59995', 'lon': '105.97193', 'country_code3': 'VNM', 'geonameid': '1567788', 'place_name': 'Sc Trng', 'feature_class': 'P', 'feature_code': 'PPLA'}}
{'word': 'Arizona', 'spans': [{'start': 0, 'end': 7}], 'country_predicted': 'USA', 'country_conf': 0.9634983, 'geo': {'admin1': 'Arizona', 'lat': '34.5003', 'lon': '-111.50098', 'country_code3': 'USA', 'geonameid': '5551752', 'place_name': 'Arizona', 'feature_class': 'A', 'feature_code': 'ADM1'}}
{'word': 'Chile', 'spans': [{'start': 0, 'end': 5}], 'country_predicted': 'CHL', 'country_conf': 0.9516948, 'geo': {'admin1': 'NA', 'lat': '-30', 'lon': '-71', 'country_code3': 'CHL', 'geonameid': '3895114', 'place_name': 'Republic of Chile', 'feature_class': 'A', 'feature_code': 'PCLI'}}
{'word': 'Benetzungseigenschaften', 'spans': [{'start': 0, 'end': 23}], 'country_predicted': '', 'country_conf': 0}
{'word': 'welche', 'spans': [{'start': 0, 'end': 6}], 'country_predicted': 'USA', 'country_conf': 0.9048774, 'geo': {'admin1': 'Connecticut', 'lat': '41.20204', 'lon': '-73.03788', 'country_code3': 'USA', 'geonameid': '4845313', 'place_name': 'Welches Point', 'feature_class': 'T', 'feature_code': 'CAPE'}}
{'word': 'welche', 'spans': [{'start': 0, 'end': 6}], 'country_predicted': 'USA', 'country_conf': 0.9048774, 'geo': {'admin1': 'Connecticut', 'lat': '41.20204', 'lon': '-73.03788', 'country_code3': 'USA', 'geonameid': '4845313', 'place_name': 'Welches Point', 'feature_class': 'T', 'feature_code': 'CAPE'}}
{'word': 'Bden', 'spans': [{'start': 3, 'end': 9}], 'country_predicted': 'ITA', 'country_conf': 0.5339668}
{'word': 'sind', 'spans': [{'start': 0, 'end': 4}], 'country_predicted': 'PAK', 'country_conf': 0.28868946}
{'word': 'einem', 'spans': [{'start': 0, 'end': 5}], 'country_predicted': 'DEU', 'country_conf': 0.9048774, 'geo': {'admin1': 'Lower Saxony', 'lat': '53.16592', 'lon': '9.90213', 'country_code3': 'DEU', 'geonameid': '2931790', 'place_name': 'Einem', 'feature_class': 'P', 'feature_code': 'PPL'}}
{'word': 'Boden', 'spans': [{'start': 0, 'end': 5}], 'country_predicted': 'DEU', 'country_conf': 0.87992215, 'geo': {'admin1': 'Rheinland-Pfalz', 'lat': '50.47392', 'lon': '7.85695', 'country_code3': 'DEU', 'geonameid': '2947161', 'place_name': 'Boden', 'feature_class': 'P', 'feature_code': 'PPLA4'}}
