{'word': 'Amsterdam', 'spans': [{'start': 0, 'end': 9}], 'country_predicted': 'NLD', 'country_conf': 0.957188, 'geo': {'admin1': 'North Holland', 'lat': '52.37302', 'lon': '4.89856', 'country_code3': 'NLD', 'geonameid': '2759793', 'place_name': 'Gemeente Amsterdam', 'feature_class': 'A', 'feature_code': 'ADM2'}}
{'word': 'Netherlands', 'spans': [{'start': 0, 'end': 11}], 'country_predicted': 'NLD', 'country_conf': 0.6948644, 'geo': {'admin1': 'NA', 'lat': '52.25', 'lon': '5.75', 'country_code3': 'NLD', 'geonameid': '2750405', 'place_name': 'Kingdom of the Netherlands', 'feature_class': 'A', 'feature_code': 'PCLI'}}
{'word': 'DENMARK', 'spans': [{'start': 0, 'end': 7}], 'country_predicted': 'AUS', 'country_conf': 0.28868946}
{'word': 'Aarhus', 'spans': [{'start': 0, 'end': 6}], 'country_predicted': 'DNK', 'country_conf': 0.96374094, 'geo': {'admin1': 'Central Jutland', 'lat': '56.15674', 'lon': '10.21076', 'country_code3': 'DNK', 'geonameid': '2624652', 'place_name': 'rhus', 'feature_class': 'P', 'feature_code': 'PPLA2'}}
{'word': 'Aarhus', 'spans': [{'start': 0, 'end': 6}], 'country_predicted': 'DNK', 'country_conf': 0.96374094, 'geo': {'admin1': 'Central Jutland', 'lat': '56.15674', 'lon': '10.21076', 'country_code3': 'DNK', 'geonameid': '2624652', 'place_name': 'rhus', 'feature_class': 'P', 'feature_code': 'PPLA2'}}
{'word': 'Denmark', 'spans': [{'start': 1, 'end': 8}], 'country_predicted': 'DNK', 'country_conf': 0.9516948, 'geo': {'admin1': 'NA', 'lat': '56', 'lon': '10', 'country_code3': 'DNK', 'geonameid': '2623032', 'place_name': 'Kingdom of Denmark', 'feature_class': 'A', 'feature_code': 'PCLI'}}
{'word': 'Denmark', 'spans': [{'start': 0, 'end': 7}], 'country_predicted': 'DNK', 'country_conf': 0.9516948, 'geo': {'admin1': 'NA', 'lat': '56', 'lon': '10', 'country_code3': 'DNK', 'geonameid': '2623032', 'place_name': 'Kingdom of Denmark', 'feature_class': 'A', 'feature_code': 'PCLI'}}
{'word': 'Netherlands', 'spans': [{'start': 0, 'end': 11}], 'country_predicted': 'NLD', 'country_conf': 0.6948644, 'geo': {'admin1': 'NA', 'lat': '52.25', 'lon': '5.75', 'country_code3': 'NLD', 'geonameid': '2750405', 'place_name': 'Kingdom of the Netherlands', 'feature_class': 'A', 'feature_code': 'PCLI'}}
{'word': 'podzolized', 'spans': [{'start': 0, 'end': 10}], 'country_predicted': '', 'country_conf': 0}
{'word': 'Carolina', 'spans': [{'start': 0, 'end': 8}], 'country_predicted': 'BRA', 'country_conf': 0.87992215, 'geo': {'admin1': 'Maranho', 'lat': '-7.50794', 'lon': '-47.14907', 'country_code3': 'BRA', 'geonameid': '6319678', 'place_name': 'Carolina', 'feature_class': 'A', 'feature_code': 'ADM2'}}
{'word': 'al.', 'spans': [{'start': 0, 'end': 3}], 'country_predicted': 'IRQ', 'country_conf': 0.28365934}
{'word': 'al.', 'spans': [{'start': 0, 'end': 3}], 'country_predicted': 'IRQ', 'country_conf': 0.28365934}
{'word': 'Quebec', 'spans': [{'start': 0, 'end': 6}], 'country_predicted': 'CAN', 'country_conf': 0.87992215, 'geo': {'admin1': 'Quebec', 'lat': '52.00017', 'lon': '-71.99907', 'country_code3': 'CAN', 'geonameid': '6115047', 'place_name': 'Qubec', 'feature_class': 'A', 'feature_code': 'ADM1'}}
{'word': 'al.', 'spans': [{'start': 0, 'end': 3}], 'country_predicted': 'IRQ', 'country_conf': 0.28365934}
{'word': 'France', 'spans': [{'start': 0, 'end': 6}], 'country_predicted': 'FRA', 'country_conf': 0.9516948, 'geo': {'admin1': 'NA', 'lat': '46', 'lon': '2', 'country_code3': 'FRA', 'geonameid': '3017382', 'place_name': 'Republic of France', 'feature_class': 'A', 'feature_code': 'PCLI'}}
{'word': 'al.', 'spans': [{'start': 0, 'end': 3}], 'country_predicted': 'IRQ', 'country_conf': 0.28365934}
{'word': 'al.', 'spans': [{'start': 0, 'end': 3}], 'country_predicted': 'IRQ', 'country_conf': 0.28365934}
{'word': 'al.', 'spans': [{'start': 0, 'end': 3}], 'country_predicted': 'IRQ', 'country_conf': 0.28365934}
{'word': 'Canada', 'spans': [{'start': 0, 'end': 6}], 'country_predicted': 'CAN', 'country_conf': 0.9516948, 'geo': {'admin1': 'NA', 'lat': '60.10867', 'lon': '-113.64258', 'country_code3': 'CAN', 'geonameid': '6251999', 'place_name': 'Canada', 'feature_class': 'A', 'feature_code': 'PCLI'}}
{'word': 'Teflon', 'spans': [{'start': 0, 'end': 6}], 'country_predicted': 'CAN', 'country_conf': 0.28868946}
{'word': 'al.', 'spans': [{'start': 0, 'end': 3}], 'country_predicted': 'IRQ', 'country_conf': 0.28365934}
{'word': 'al.', 'spans': [{'start': 0, 'end': 3}], 'country_predicted': 'IRQ', 'country_conf': 0.28365934}
{'word': 'Denmark', 'spans': [{'start': 0, 'end': 7}], 'country_predicted': 'DNK', 'country_conf': 0.9516948, 'geo': {'admin1': 'NA', 'lat': '56', 'lon': '10', 'country_code3': 'DNK', 'geonameid': '2623032', 'place_name': 'Kingdom of Denmark', 'feature_class': 'A', 'feature_code': 'PCLI'}}
{'word': 'Ks', 'spans': [{'start': 0, 'end': 2}], 'country_predicted': 'USA', 'country_conf': 0.7178229, 'geo': {'admin1': 'Kansas', 'lat': '38.50029', 'lon': '-98.50063', 'country_code3': 'USA', 'geonameid': '4273857', 'place_name': 'Kansas', 'feature_class': 'A', 'feature_code': 'ADM1'}}
{'word': 'Ks', 'spans': [{'start': 0, 'end': 2}], 'country_predicted': 'USA', 'country_conf': 0.7178229, 'geo': {'admin1': 'Kansas', 'lat': '38.50029', 'lon': '-98.50063', 'country_code3': 'USA', 'geonameid': '4273857', 'place_name': 'Kansas', 'feature_class': 'A', 'feature_code': 'ADM1'}}
{'word': 'Ks', 'spans': [{'start': 0, 'end': 2}], 'country_predicted': 'USA', 'country_conf': 0.7178229, 'geo': {'admin1': 'Kansas', 'lat': '38.50029', 'lon': '-98.50063', 'country_code3': 'USA', 'geonameid': '4273857', 'place_name': 'Kansas', 'feature_class': 'A', 'feature_code': 'ADM1'}}
{'word': 'Ks', 'spans': [{'start': 0, 'end': 2}], 'country_predicted': 'USA', 'country_conf': 0.7178229, 'geo': {'admin1': 'Kansas', 'lat': '38.50029', 'lon': '-98.50063', 'country_code3': 'USA', 'geonameid': '4273857', 'place_name': 'Kansas', 'feature_class': 'A', 'feature_code': 'ADM1'}}
{'word': 'Ks', 'spans': [{'start': 0, 'end': 2}], 'country_predicted': 'USA', 'country_conf': 0.7178229, 'geo': {'admin1': 'Kansas', 'lat': '38.50029', 'lon': '-98.50063', 'country_code3': 'USA', 'geonameid': '4273857', 'place_name': 'Kansas', 'feature_class': 'A', 'feature_code': 'ADM1'}}
{'word': 'Ks', 'spans': [{'start': 0, 'end': 2}], 'country_predicted': 'USA', 'country_conf': 0.7178229, 'geo': {'admin1': 'Kansas', 'lat': '38.50029', 'lon': '-98.50063', 'country_code3': 'USA', 'geonameid': '4273857', 'place_name': 'Kansas', 'feature_class': 'A', 'feature_code': 'ADM1'}}
{'word': '~)"L', 'spans': [{'start': 0, 'end': 4}], 'country_predicted': 'ITA', 'country_conf': 0.5339668}
{'word': 'Ks', 'spans': [{'start': 0, 'end': 2}], 'country_predicted': 'USA', 'country_conf': 0.7178229, 'geo': {'admin1': 'Kansas', 'lat': '38.50029', 'lon': '-98.50063', 'country_code3': 'USA', 'geonameid': '4273857', 'place_name': 'Kansas', 'feature_class': 'A', 'feature_code': 'ADM1'}}
{'word': 'Ks', 'spans': [{'start': 0, 'end': 2}], 'country_predicted': 'USA', 'country_conf': 0.7178229, 'geo': {'admin1': 'Kansas', 'lat': '38.50029', 'lon': '-98.50063', 'country_code3': 'USA', 'geonameid': '4273857', 'place_name': 'Kansas', 'feature_class': 'A', 'feature_code': 'ADM1'}}
{'word': 'Ks', 'spans': [{'start': 0, 'end': 2}], 'country_predicted': 'USA', 'country_conf': 0.7178229, 'geo': {'admin1': 'Kansas', 'lat': '38.50029', 'lon': '-98.50063', 'country_code3': 'USA', 'geonameid': '4273857', 'place_name': 'Kansas', 'feature_class': 'A', 'feature_code': 'ADM1'}}
{'word': 'Ks', 'spans': [{'start': 0, 'end': 2}], 'country_predicted': 'USA', 'country_conf': 0.7178229, 'geo': {'admin1': 'Kansas', 'lat': '38.50029', 'lon': '-98.50063', 'country_code3': 'USA', 'geonameid': '4273857', 'place_name': 'Kansas', 'feature_class': 'A', 'feature_code': 'ADM1'}}
{'word': 'Dith.--citr.--bicarb', 'spans': [{'start': 0, 'end': 20}], 'country_predicted': '', 'country_conf': 0}
{'word': 'Dith.--citr.--bicarb', 'spans': [{'start': 0, 'end': 20}], 'country_predicted': '', 'country_conf': 0}
{'word': 'D.C.', 'spans': [{'start': 0, 'end': 4}], 'country_predicted': 'COL', 'country_conf': 0.28868946}
{'word': 'Scotland', 'spans': [{'start': 0, 'end': 8}], 'country_predicted': 'GBR', 'country_conf': 0.3105929}
{'word': 'Tonmineralbildung', 'spans': [{'start': 0, 'end': 17}], 'country_predicted': '', 'country_conf': 0}
{'word': 'bSden', 'spans': [{'start': 0, 'end': 5}], 'country_predicted': 'DEU', 'country_conf': 0.9528109, 'geo': {'admin1': 'Baden-Wrttemberg', 'lat': '48.76278', 'lon': '8.25056', 'country_code3': 'DEU', 'geonameid': '3214113', 'place_name': 'Stadtkreis Baden-Baden', 'feature_class': 'A', 'feature_code': 'ADM3'}}
{'word': 'Canada', 'spans': [{'start': 0, 'end': 6}], 'country_predicted': 'CAN', 'country_conf': 0.9516948, 'geo': {'admin1': 'NA', 'lat': '60.10867', 'lon': '-113.64258', 'country_code3': 'CAN', 'geonameid': '6251999', 'place_name': 'Canada', 'feature_class': 'A', 'feature_code': 'PCLI'}}
{'word': 'Mexico', 'spans': [{'start': 0, 'end': 6}], 'country_predicted': 'MEX', 'country_conf': 0.9516948, 'geo': {'admin1': 'NA', 'lat': '23', 'lon': '-102', 'country_code3': 'MEX', 'geonameid': '3996063', 'place_name': 'Mexico', 'feature_class': 'A', 'feature_code': 'PCLI'}}
{'word': 'France', 'spans': [{'start': 0, 'end': 6}], 'country_predicted': 'FRA', 'country_conf': 0.9516948, 'geo': {'admin1': 'NA', 'lat': '46', 'lon': '2', 'country_code3': 'FRA', 'geonameid': '3017382', 'place_name': 'Republic of France', 'feature_class': 'A', 'feature_code': 'PCLI'}}
{'word': 'Quebec', 'spans': [{'start': 0, 'end': 6}], 'country_predicted': 'CAN', 'country_conf': 0.87992215, 'geo': {'admin1': 'Quebec', 'lat': '52.00017', 'lon': '-71.99907', 'country_code3': 'CAN', 'geonameid': '6115047', 'place_name': 'Qubec', 'feature_class': 'A', 'feature_code': 'ADM1'}}
{'word': 'E.P.', 'spans': [{'start': 0, 'end': 4}], 'country_predicted': 'KOR', 'country_conf': 0.87992215, 'geo': {'admin1': 'Gyeonggi-do', 'lat': '37.22008', 'lon': '126.95183', 'country_code3': 'KOR', 'geonameid': '8604923', 'place_name': 'Bongdam-eup', 'feature_class': 'A', 'feature_code': 'ADM3'}}
{'word': 'Michigan', 'spans': [{'start': 0, 'end': 8}], 'country_predicted': 'USA', 'country_conf': 0.9634983, 'geo': {'admin1': 'Michigan', 'lat': '44.25029', 'lon': '-85.50033', 'country_code3': 'USA', 'geonameid': '5001836', 'place_name': 'Michigan', 'feature_class': 'A', 'feature_code': 'ADM1'}}
{'word': 'Scandinavia', 'spans': [{'start': 0, 'end': 11}], 'country_predicted': 'NA', 'country_conf': 0.28365934}
{'word': 'York', 'spans': [{'start': 0, 'end': 4}], 'country_predicted': 'CAN', 'country_conf': 0.28868946}
{'word': 'Interlayering', 'spans': [{'start': 0, 'end': 13}], 'country_predicted': '', 'country_conf': 0}
{'word': 'Soc', 'spans': [{'start': 0, 'end': 3}], 'country_predicted': 'VNM', 'country_conf': 0.87992215, 'geo': {'admin1': 'Sc Trng', 'lat': '9.59995', 'lon': '105.97193', 'country_code3': 'VNM', 'geonameid': '1567788', 'place_name': 'Sc Trng', 'feature_class': 'P', 'feature_code': 'PPLA'}}
{'word': 'Wisc', 'spans': [{'start': 0, 'end': 4}], 'country_predicted': 'USA', 'country_conf': 0.96374094, 'geo': {'admin1': 'Wisconsin', 'lat': '43.03111', 'lon': '-89.50512', 'country_code3': 'USA', 'geonameid': '5277437', 'place_name': 'WISC-TV (Madison)', 'feature_class': 'S', 'feature_code': 'TOWR'}}
{'word': 'U.S.A.', 'spans': [{'start': 0, 'end': 6}], 'country_predicted': 'USA', 'country_conf': 0.87992215, 'geo': {'admin1': 'NA', 'lat': '39.76', 'lon': '-98.5', 'country_code3': 'USA', 'geonameid': '6252001', 'place_name': 'United States', 'feature_class': 'A', 'feature_code': 'PCLI'}}
{'word': 'France', 'spans': [{'start': 0, 'end': 6}], 'country_predicted': 'FRA', 'country_conf': 0.9516948, 'geo': {'admin1': 'NA', 'lat': '46', 'lon': '2', 'country_code3': 'FRA', 'geonameid': '3017382', 'place_name': 'Republic of France', 'feature_class': 'A', 'feature_code': 'PCLI'}}
{'word': 'Soc', 'spans': [{'start': 0, 'end': 3}], 'country_predicted': 'VNM', 'country_conf': 0.87992215, 'geo': {'admin1': 'Sc Trng', 'lat': '9.59995', 'lon': '105.97193', 'country_code3': 'VNM', 'geonameid': '1567788', 'place_name': 'Sc Trng', 'feature_class': 'P', 'feature_code': 'PPLA'}}
{'word': 'S.W.', 'spans': [{'start': 0, 'end': 4}], 'country_predicted': 'PER', 'country_conf': 0.9048774, 'geo': {'admin1': 'Tacna', 'lat': '-17.91041', 'lon': '-70.63885', 'country_code3': 'PER', 'geonameid': '3952541', 'place_name': 'Seal S.W. Base Sama', 'feature_class': 'S', 'feature_code': 'TRIG'}}
{'word': 'Carolina', 'spans': [{'start': 0, 'end': 8}], 'country_predicted': 'BRA', 'country_conf': 0.87992215, 'geo': {'admin1': 'Maranho', 'lat': '-7.50794', 'lon': '-47.14907', 'country_code3': 'BRA', 'geonameid': '6319678', 'place_name': 'Carolina', 'feature_class': 'A', 'feature_code': 'ADM2'}}
{'word': 'Soc', 'spans': [{'start': 0, 'end': 3}], 'country_predicted': 'VNM', 'country_conf': 0.87992215, 'geo': {'admin1': 'Sc Trng', 'lat': '9.59995', 'lon': '105.97193', 'country_code3': 'VNM', 'geonameid': '1567788', 'place_name': 'Sc Trng', 'feature_class': 'P', 'feature_code': 'PPLA'}}
{'word': 'Washington', 'spans': [{'start': 0, 'end': 10}], 'country_predicted': 'USA', 'country_conf': 0.69099617, 'geo': {'admin1': 'Washington', 'lat': '47.50012', 'lon': '-120.50147', 'country_code3': 'USA', 'geonameid': '5815135', 'place_name': 'Washington', 'feature_class': 'A', 'feature_code': 'ADM1'}}
{'word': 'D.C.', 'spans': [{'start': 0, 'end': 4}], 'country_predicted': 'COL', 'country_conf': 0.28868946}
