{'word': 'Amsterdam', 'spans': [{'start': 122, 'end': 131}], 'country_predicted': 'NLD', 'country_conf': 0.93822384, 'geo': {'admin1': 'North Holland', 'lat': '52.37302', 'lon': '4.89856', 'country_code3': 'NLD', 'geonameid': '2759793', 'place_name': 'Gemeente Amsterdam', 'feature_class': 'A', 'feature_code': 'ADM2'}}
{'word': 'Netherlands', 'spans': [{'start': 150, 'end': 161}], 'country_predicted': 'NLD', 'country_conf': 0.93822384, 'geo': {'admin1': 'NA', 'lat': '52.25', 'lon': '5.75', 'country_code3': 'NLD', 'geonameid': '2750405', 'place_name': 'Kingdom of the Netherlands', 'feature_class': 'A', 'feature_code': 'PCLI'}}
{'word': 'S. HENSTRA2', 'spans': [{'start': 306, 'end': 317}], 'country_predicted': 'JOR', 'country_conf': 0.25185502}
{'word': 'H.N.', 'spans': [{'start': 411, 'end': 415}], 'country_predicted': 'LBY', 'country_conf': 0.88459367, 'geo': {'admin1': 'Al Jufrah', 'lat': '29.12684', 'lon': '15.94772', 'country_code3': 'LBY', 'geonameid': '2216645', 'place_name': 'Hūn', 'feature_class': 'P', 'feature_code': 'PPLA'}}
{'word': 'Netherlands', 'spans': [{'start': 497, 'end': 508}], 'country_predicted': 'NLD', 'country_conf': 0.93822384, 'geo': {'admin1': 'NA', 'lat': '52.25', 'lon': '5.75', 'country_code3': 'NLD', 'geonameid': '2750405', 'place_name': 'Kingdom of the Netherlands', 'feature_class': 'A', 'feature_code': 'PCLI'}}
{'word': 'Netherlands', 'spans': [{'start': 602, 'end': 613}], 'country_predicted': 'NLD', 'country_conf': 0.93822384, 'geo': {'admin1': 'NA', 'lat': '52.25', 'lon': '5.75', 'country_code3': 'NLD', 'geonameid': '2750405', 'place_name': 'Kingdom of the Netherlands', 'feature_class': 'A', 'feature_code': 'PCLI'}}
{'word': 'Eindhoven', 'spans': [{'start': 656, 'end': 665}], 'country_predicted': 'NLD', 'country_conf': 0.94876826, 'geo': {'admin1': 'North Brabant', 'lat': '51.45037', 'lon': '5.45279', 'country_code3': 'NLD', 'geonameid': '2756252', 'place_name': 'Gemeente Eindhoven', 'feature_class': 'A', 'feature_code': 'ADM2'}}
{'word': 'Netherlands', 'spans': [{'start': 671, 'end': 682}], 'country_predicted': 'NLD', 'country_conf': 0.93822384, 'geo': {'admin1': 'NA', 'lat': '52.25', 'lon': '5.75', 'country_code3': 'NLD', 'geonameid': '2750405', 'place_name': 'Kingdom of the Netherlands', 'feature_class': 'A', 'feature_code': 'PCLI'}}
{'word': 'France', 'spans': [{'start': 727, 'end': 733}], 'country_predicted': 'FRA', 'country_conf': 0.94819117, 'geo': {'admin1': 'NA', 'lat': '46', 'lon': '2', 'country_code3': 'FRA', 'geonameid': '3017382', 'place_name': 'Republic of France', 'feature_class': 'A', 'feature_code': 'PCLI'}}
{'word': 'Petrocalcic', 'spans': [{'start': 1838, 'end': 1849}], 'country_predicted': 'FRA', 'country_conf': 0.23980537}
{'word': 'hnear', 'spans': [{'start': 2120, 'end': 2125}], 'country_predicted': 'GBR', 'country_conf': 0.32773006}
{'word': 'sltu', 'spans': [{'start': 2943, 'end': 2947}], 'country_predicted': 'IDN', 'country_conf': 0.44360524}
{'word': 'Blsdom et al.', 'spans': [{'start': 4353, 'end': 4366}], 'country_predicted': 'FRA', 'country_conf': 0.33312684}
{'word': 'Umverslty', 'spans': [{'start': 4747, 'end': 4756}], 'country_predicted': 'FRA', 'country_conf': 0.23980537}
{'word': 'Paris', 'spans': [{'start': 4760, 'end': 4765}], 'country_predicted': 'FRA', 'country_conf': 0.961249, 'geo': {'admin1': 'Île-de-France', 'lat': '48.85339', 'lon': '2.34864', 'country_code3': 'FRA', 'geonameid': '2988506', 'place_name': 'Paris', 'feature_class': 'A', 'feature_code': 'ADM3'}}
{'word': 'Cr&amp;eil', 'spans': [{'start': 4769, 'end': 4779}], 'country_predicted': 'FRA', 'country_conf': 0.23980537}
{'word': 'France', 'spans': [{'start': 4781, 'end': 4787}], 'country_predicted': 'FRA', 'country_conf': 0.94819117, 'geo': {'admin1': 'NA', 'lat': '46', 'lon': '2', 'country_code3': 'FRA', 'geonameid': '3017382', 'place_name': 'Republic of France', 'feature_class': 'A', 'feature_code': 'PCLI'}}
{'word': 'Paris', 'spans': [{'start': 6069, 'end': 6074}], 'country_predicted': 'FRA', 'country_conf': 0.961249, 'geo': {'admin1': 'Île-de-France', 'lat': '48.85339', 'lon': '2.34864', 'country_code3': 'FRA', 'geonameid': '2988506', 'place_name': 'Paris', 'feature_class': 'A', 'feature_code': 'ADM3'}}
{'word': 'Faraday cup', 'spans': [{'start': 11814, 'end': 11825}], 'country_predicted': 'CHL', 'country_conf': 0.25185502}
{'word': 'Spare', 'spans': [{'start': 12968, 'end': 12973}], 'country_predicted': 'LVA', 'country_conf': 0.8212683, 'geo': {'admin1': 'Talsu Rajons', 'lat': '57.21546', 'lon': '22.26546', 'country_code3': 'LVA', 'geonameid': '455355', 'place_name': 'Stacija Spāre', 'feature_class': 'S', 'feature_code': 'RSTN'}}
{'word': '150/~m', 'spans': [{'start': 14604, 'end': 14610}], 'country_predicted': 'UKR', 'country_conf': 0.32773006}
{'word': '150/~m diameter', 'spans': [{'start': 14761, 'end': 14776}], 'country_predicted': 'GNQ', 'country_conf': 0.25185502}
{'word': 'A. Calcite', 'spans': [{'start': 19570, 'end': 19580}], 'country_predicted': 'NER', 'country_conf': 0.25185502}
{'word': 'Kmppenberg', 'spans': [{'start': 23136, 'end': 23146}], 'country_predicted': 'DEU', 'country_conf': 0.44360524}
{'word': 'mass spectrometric methods', 'spans': [{'start': 24915, 'end': 24941}], 'country_predicted': 'USA', 'country_conf': 0.25185502}
{'word': 'Pudoc', 'spans': [{'start': 33399, 'end': 33404}], 'country_predicted': 'PHL', 'country_conf': 0.90655434, 'geo': {'admin1': 'Ilocos', 'lat': '16.9215', 'lon': '120.4235', 'country_code3': 'PHL', 'geonameid': '1692706', 'place_name': 'Pudoc', 'feature_class': 'P', 'feature_code': 'PPL'}}
{'word': 'Gras', 'spans': [{'start': 33517, 'end': 33521}], 'country_predicted': 'FRA', 'country_conf': 0.88395447, 'geo': {'admin1': "Provence-Alpes-Côte d'Azur", 'lat': '43.65783', 'lon': '6.92537', 'country_code3': 'FRA', 'geonameid': '3014856', 'place_name': 'Grasse', 'feature_class': 'P', 'feature_code': 'PPLA3'}}
{'word': 'Jongerlus', 'spans': [{'start': 33710, 'end': 33719}], 'country_predicted': 'FRA', 'country_conf': 0.23980537}
{'word': 'Jongerlus', 'spans': [{'start': 33934, 'end': 33943}], 'country_predicted': 'FRA', 'country_conf': 0.23980537}
{'word': 'Hague', 'spans': [{'start': 34308, 'end': 34313}], 'country_predicted': 'NLD', 'country_conf': 0.93822384, 'geo': {'admin1': 'South Holland', 'lat': '52.07667', 'lon': '4.29861', 'country_code3': 'NLD', 'geonameid': '2747373', 'place_name': 'The Hague', 'feature_class': 'P', 'feature_code': 'PPLG'}}
{'word': 'Leiden', 'spans': [{'start': 34377, 'end': 34383}], 'country_predicted': 'NLD', 'country_conf': 0.94876826, 'geo': {'admin1': 'South Holland', 'lat': '52.15274', 'lon': '4.4836', 'country_code3': 'NLD', 'geonameid': '2751772', 'place_name': 'Gemeente Leiden', 'feature_class': 'A', 'feature_code': 'ADM2'}}
{'word': 'Spectros Electron', 'spans': [{'start': 35559, 'end': 35576}], 'country_predicted': 'GNQ', 'country_conf': 0.25185502}
{'word': 'Hague', 'spans': [{'start': 36157, 'end': 36162}], 'country_predicted': 'NLD', 'country_conf': 0.93822384, 'geo': {'admin1': 'South Holland', 'lat': '52.07667', 'lon': '4.29861', 'country_code3': 'NLD', 'geonameid': '2747373', 'place_name': 'The Hague', 'feature_class': 'P', 'feature_code': 'PPLG'}}
{'word': 'Leiden', 'spans': [{'start': 36225, 'end': 36231}], 'country_predicted': 'NLD', 'country_conf': 0.94876826, 'geo': {'admin1': 'South Holland', 'lat': '52.15274', 'lon': '4.4836', 'country_code3': 'NLD', 'geonameid': '2751772', 'place_name': 'Gemeente Leiden', 'feature_class': 'A', 'feature_code': 'ADM2'}}
{'word': 'Berlin', 'spans': [{'start': 36453, 'end': 36459}], 'country_predicted': 'DEU', 'country_conf': 0.93822384, 'geo': {'admin1': 'Berlin', 'lat': '52.5233', 'lon': '13.41377', 'country_code3': 'DEU', 'geonameid': '6547383', 'place_name': 'Berlin, Stadt', 'feature_class': 'A', 'feature_code': 'ADM3'}}
{'word': 'Cameca', 'spans': [{'start': 37419, 'end': 37425}], 'country_predicted': 'MDA', 'country_conf': 0.88459367, 'geo': {'admin1': 'Stînga Nistrului', 'lat': '48.03233', 'lon': '28.69899', 'country_code3': 'MDA', 'geonameid': '618453', 'place_name': 'Camenca', 'feature_class': 'P', 'feature_code': 'PPL'}}
{'word': 'Paris', 'spans': [{'start': 37437, 'end': 37442}], 'country_predicted': 'FRA', 'country_conf': 0.961249, 'geo': {'admin1': 'Île-de-France', 'lat': '48.85339', 'lon': '2.34864', 'country_code3': 'FRA', 'geonameid': '2988506', 'place_name': 'Paris', 'feature_class': 'A', 'feature_code': 'ADM3'}}
