{'word': 'Amsterdam', 'spans': [{'start': 0, 'end': 9}], 'country_predicted': 'NLD', 'country_conf': 0.957188, 'geo': {'admin1': 'North Holland', 'lat': '52.37302', 'lon': '4.89856', 'country_code3': 'NLD', 'geonameid': '2759793', 'place_name': 'Gemeente Amsterdam', 'feature_class': 'A', 'feature_code': 'ADM2'}}
{'word': 'Netherlands', 'spans': [{'start': 0, 'end': 11}], 'country_predicted': 'NLD', 'country_conf': 0.6948644, 'geo': {'admin1': 'NA', 'lat': '52.25', 'lon': '5.75', 'country_code3': 'NLD', 'geonameid': '2750405', 'place_name': 'Kingdom of the Netherlands', 'feature_class': 'A', 'feature_code': 'PCLI'}}
{'word': 'U.S.S.R.', 'spans': [{'start': 0, 'end': 8}], 'country_predicted': 'TJK', 'country_conf': 0.9528109, 'geo': {'admin1': 'NA', 'lat': '38.9462', 'lon': '72.0199', 'country_code3': 'TJK', 'geonameid': '1221252', 'place_name': 'Pik Imeni Ismail Samani', 'feature_class': 'T', 'feature_code': 'PK'}}
{'word': 'USSR', 'spans': [{'start': 0, 'end': 4}], 'country_predicted': 'NA', 'country_conf': 0.9048774, 'geo': {'admin1': 'NA', 'lat': '60', 'lon': '98', 'country_code3': 'NA', 'geonameid': '8354411', 'place_name': 'Union of Soviet Socialist Republics', 'feature_class': 'A', 'feature_code': 'PCLH'}}
{'word': 'Moscow', 'spans': [{'start': 0, 'end': 6}], 'country_predicted': 'RUS', 'country_conf': 0.957188, 'geo': {'admin1': 'Moscow', 'lat': '55.75222', 'lon': '37.61556', 'country_code3': 'RUS', 'geonameid': '524901', 'place_name': 'Moscow', 'feature_class': 'P', 'feature_code': 'PPLC'}}
{'word': 'U.S.S.R.', 'spans': [{'start': 1, 'end': 9}], 'country_predicted': 'TJK', 'country_conf': 0.9528109, 'geo': {'admin1': 'NA', 'lat': '38.9462', 'lon': '72.0199', 'country_code3': 'TJK', 'geonameid': '1221252', 'place_name': 'Pik Imeni Ismail Samani', 'feature_class': 'T', 'feature_code': 'PK'}}
{'word': 'U.S.S.R.', 'spans': [{'start': 0, 'end': 8}], 'country_predicted': 'TJK', 'country_conf': 0.9528109, 'geo': {'admin1': 'NA', 'lat': '38.9462', 'lon': '72.0199', 'country_code3': 'TJK', 'geonameid': '1221252', 'place_name': 'Pik Imeni Ismail Samani', 'feature_class': 'T', 'feature_code': 'PK'}}
{'word': 'Mn', 'spans': [{'start': 0, 'end': 2}], 'country_predicted': 'USA', 'country_conf': 0.96374094, 'geo': {'admin1': 'Minnesota', 'lat': '44.98043', 'lon': '-93.46116', 'country_code3': 'USA', 'geonameid': '10942549', 'place_name': 'Country Inn & Suites By Carlson, Minneapolis West, MN', 'feature_class': 'S', 'feature_code': 'HTL'}}
{'word': 'al.', 'spans': [{'start': 0, 'end': 3}], 'country_predicted': 'IRQ', 'country_conf': 0.28365934}
{'word': 'Mn', 'spans': [{'start': 0, 'end': 2}], 'country_predicted': 'USA', 'country_conf': 0.96374094, 'geo': {'admin1': 'Minnesota', 'lat': '44.98043', 'lon': '-93.46116', 'country_code3': 'USA', 'geonameid': '10942549', 'place_name': 'Country Inn & Suites By Carlson, Minneapolis West, MN', 'feature_class': 'S', 'feature_code': 'HTL'}}
{'word': 'orthophosphates', 'spans': [{'start': 0, 'end': 15}], 'country_predicted': '', 'country_conf': 0}
{'word': 'al.', 'spans': [{'start': 0, 'end': 3}], 'country_predicted': 'IRQ', 'country_conf': 0.28365934}
{'word': 'E.C.', 'spans': [{'start': 0, 'end': 4}], 'country_predicted': 'LBR', 'country_conf': 0.9048774, 'geo': {'admin1': 'Bong', 'lat': '7.20597', 'lon': '-9.44267', 'country_code3': 'LBR', 'geonameid': '9869752', 'place_name': 'E.C. & B.T. Harris Farm', 'feature_class': 'P', 'feature_code': 'PPL'}}
{'word': 'Soc', 'spans': [{'start': 0, 'end': 3}], 'country_predicted': 'VNM', 'country_conf': 0.87992215, 'geo': {'admin1': 'Sc Trng', 'lat': '9.59995', 'lon': '105.97193', 'country_code3': 'VNM', 'geonameid': '1567788', 'place_name': 'Sc Trng', 'feature_class': 'P', 'feature_code': 'PPLA'}}
{'word': 'York', 'spans': [{'start': 0, 'end': 4}], 'country_predicted': 'CAN', 'country_conf': 0.28868946}
{'word': 'N.Y.', 'spans': [{'start': 0, 'end': 4}], 'country_predicted': 'FRA', 'country_conf': 0.28365934}
{'word': 'Bacteriol', 'spans': [{'start': 0, 'end': 9}], 'country_predicted': '', 'country_conf': 0}
{'word': 'Moscow', 'spans': [{'start': 0, 'end': 6}], 'country_predicted': 'RUS', 'country_conf': 0.957188, 'geo': {'admin1': 'Moscow', 'lat': '55.75222', 'lon': '37.61556', 'country_code3': 'RUS', 'geonameid': '524901', 'place_name': 'Moscow', 'feature_class': 'P', 'feature_code': 'PPLC'}}
{'word': 'Moscow', 'spans': [{'start': 0, 'end': 6}], 'country_predicted': 'RUS', 'country_conf': 0.957188, 'geo': {'admin1': 'Moscow', 'lat': '55.75222', 'lon': '37.61556', 'country_code3': 'RUS', 'geonameid': '524901', 'place_name': 'Moscow', 'feature_class': 'P', 'feature_code': 'PPLC'}}
{'word': 'York', 'spans': [{'start': 0, 'end': 4}], 'country_predicted': 'CAN', 'country_conf': 0.28868946}
{'word': 'N.Y.', 'spans': [{'start': 0, 'end': 4}], 'country_predicted': 'FRA', 'country_conf': 0.28365934}
{'word': 'Moscow', 'spans': [{'start': 0, 'end': 6}], 'country_predicted': 'RUS', 'country_conf': 0.957188, 'geo': {'admin1': 'Moscow', 'lat': '55.75222', 'lon': '37.61556', 'country_code3': 'RUS', 'geonameid': '524901', 'place_name': 'Moscow', 'feature_class': 'P', 'feature_code': 'PPLC'}}
{'word': 'C.P.', 'spans': [{'start': 0, 'end': 4}], 'country_predicted': 'PER', 'country_conf': 0.28365934}
{'word': 'Soc', 'spans': [{'start': 0, 'end': 3}], 'country_predicted': 'VNM', 'country_conf': 0.87992215, 'geo': {'admin1': 'Sc Trng', 'lat': '9.59995', 'lon': '105.97193', 'country_code3': 'VNM', 'geonameid': '1567788', 'place_name': 'Sc Trng', 'feature_class': 'P', 'feature_code': 'PPLA'}}
{'word': 'Soc', 'spans': [{'start': 0, 'end': 3}], 'country_predicted': 'VNM', 'country_conf': 0.87992215, 'geo': {'admin1': 'Sc Trng', 'lat': '9.59995', 'lon': '105.97193', 'country_code3': 'VNM', 'geonameid': '1567788', 'place_name': 'Sc Trng', 'feature_class': 'P', 'feature_code': 'PPLA'}}
{'word': 'Moscow', 'spans': [{'start': 0, 'end': 6}], 'country_predicted': 'RUS', 'country_conf': 0.957188, 'geo': {'admin1': 'Moscow', 'lat': '55.75222', 'lon': '37.61556', 'country_code3': 'RUS', 'geonameid': '524901', 'place_name': 'Moscow', 'feature_class': 'P', 'feature_code': 'PPLC'}}
{'word': 'Mn', 'spans': [{'start': 0, 'end': 2}], 'country_predicted': 'USA', 'country_conf': 0.96374094, 'geo': {'admin1': 'Minnesota', 'lat': '44.98043', 'lon': '-93.46116', 'country_code3': 'USA', 'geonameid': '10942549', 'place_name': 'Country Inn & Suites By Carlson, Minneapolis West, MN', 'feature_class': 'S', 'feature_code': 'HTL'}}
