{'word': 'Wasatch', 'spans': [{'start': 0, 'end': 7}], 'country_predicted': 'USA', 'country_conf': 0.96374094, 'geo': {'admin1': 'Utah', 'lat': '40.33035', 'lon': '-111.16847', 'country_code3': 'USA', 'geonameid': '5784339', 'place_name': 'Wasatch County', 'feature_class': 'A', 'feature_code': 'ADM2'}}
{'word': 'Tri-Canyon', 'spans': [{'start': 0, 'end': 10}], 'country_predicted': 'CHE', 'country_conf': 0.87992215, 'geo': {'admin1': 'Ticino', 'lat': '46.28455', 'lon': '8.79065', 'country_code3': 'CHE', 'geonameid': '2658370', 'place_name': 'Ticino', 'feature_class': 'A', 'feature_code': 'ADM1'}}
{'word': 'Wasatch', 'spans': [{'start': 0, 'end': 7}], 'country_predicted': 'USA', 'country_conf': 0.96374094, 'geo': {'admin1': 'Utah', 'lat': '40.33035', 'lon': '-111.16847', 'country_code3': 'USA', 'geonameid': '5784339', 'place_name': 'Wasatch County', 'feature_class': 'A', 'feature_code': 'ADM2'}}
{'word': 'Utah', 'spans': [{'start': 0, 'end': 4}], 'country_predicted': 'USA', 'country_conf': 0.9634983, 'geo': {'admin1': 'Utah', 'lat': '39.25024', 'lon': '-111.75103', 'country_code3': 'USA', 'geonameid': '5549030', 'place_name': 'Utah', 'feature_class': 'A', 'feature_code': 'ADM1'}}
{'word': 'USA', 'spans': [{'start': 0, 'end': 3}], 'country_predicted': 'USA', 'country_conf': 0.9516948, 'geo': {'admin1': 'Louisiana', 'lat': '29.2605', 'lon': '-89.35478', 'country_code3': 'USA', 'geonameid': '4319780', 'place_name': 'Chevron USA Incorporated Seaplane Base', 'feature_class': 'S', 'feature_code': 'AIRP'}}
{'word': 'chrysaetos', 'spans': [{'start': 0, 'end': 10}], 'country_predicted': '', 'country_conf': 0}
{'word': 'territories', 'spans': [{'start': 0, 'end': 11}], 'country_predicted': 'PSE', 'country_conf': 0.7178229, 'geo': {'admin1': 'NA', 'lat': '31.92157', 'lon': '35.20329', 'country_code3': 'PSE', 'geonameid': '6254930', 'place_name': 'Palestine', 'feature_class': 'A', 'feature_code': 'PCLS'}}
{'word': 'Utah', 'spans': [{'start': 0, 'end': 4}], 'country_predicted': 'USA', 'country_conf': 0.9634983, 'geo': {'admin1': 'Utah', 'lat': '39.25024', 'lon': '-111.75103', 'country_code3': 'USA', 'geonameid': '5549030', 'place_name': 'Utah', 'feature_class': 'A', 'feature_code': 'ADM1'}}
