{'word': 'salar', 'spans': [{'start': 0, 'end': 5}], 'country_predicted': 'ESP', 'country_conf': 0.28868946}
{'word': 'elasmobranch', 'spans': [{'start': 0, 'end': 12}], 'country_predicted': '', 'country_conf': 0}
{'word': 'elasmobranch', 'spans': [{'start': 0, 'end': 12}], 'country_predicted': '', 'country_conf': 0}
{'word': 'salar', 'spans': [{'start': 0, 'end': 5}], 'country_predicted': 'ESP', 'country_conf': 0.28868946}
{'word': 'salar', 'spans': [{'start': 0, 'end': 5}], 'country_predicted': 'ESP', 'country_conf': 0.28868946}
{'word': 'NJ', 'spans': [{'start': 0, 'end': 2}], 'country_predicted': 'THA', 'country_conf': 0.28868946}
{'word': 'USA', 'spans': [{'start': 0, 'end': 3}], 'country_predicted': 'USA', 'country_conf': 0.9516948, 'geo': {'admin1': 'Louisiana', 'lat': '29.2605', 'lon': '-89.35478', 'country_code3': 'USA', 'geonameid': '4319780', 'place_name': 'Chevron USA Incorporated Seaplane Base', 'feature_class': 'S', 'feature_code': 'AIRP'}}
{'word': 'Hyatt', 'spans': [{'start': 0, 'end': 5}], 'country_predicted': 'USA', 'country_conf': 0.28868946}
{'word': 'Naples', 'spans': [{'start': 0, 'end': 6}], 'country_predicted': 'ITA', 'country_conf': 0.9048774, 'geo': {'admin1': 'Campania', 'lat': '40.88333', 'lon': '14.41667', 'country_code3': 'ITA', 'geonameid': '3172391', 'place_name': 'Napoli', 'feature_class': 'A', 'feature_code': 'ADM2'}}
{'word': 'Canada', 'spans': [{'start': 0, 'end': 6}], 'country_predicted': 'CAN', 'country_conf': 0.9516948, 'geo': {'admin1': 'NA', 'lat': '60.10867', 'lon': '-113.64258', 'country_code3': 'CAN', 'geonameid': '6251999', 'place_name': 'Canada', 'feature_class': 'A', 'feature_code': 'PCLI'}}
{'word': 'Vancouver', 'spans': [{'start': 1, 'end': 10}], 'country_predicted': 'CAN', 'country_conf': 0.9048774, 'geo': {'admin1': 'British Columbia', 'lat': '49.65064', 'lon': '-125.44939', 'country_code3': 'CAN', 'geonameid': '6173336', 'place_name': 'Vancouver Island', 'feature_class': 'T', 'feature_code': 'ISL'}}
{'word': 'Canada', 'spans': [{'start': 0, 'end': 6}], 'country_predicted': 'CAN', 'country_conf': 0.9516948, 'geo': {'admin1': 'NA', 'lat': '60.10867', 'lon': '-113.64258', 'country_code3': 'CAN', 'geonameid': '6251999', 'place_name': 'Canada', 'feature_class': 'A', 'feature_code': 'PCLI'}}
{'word': 'Vancouver', 'spans': [{'start': 0, 'end': 9}], 'country_predicted': 'CAN', 'country_conf': 0.9048774, 'geo': {'admin1': 'British Columbia', 'lat': '49.65064', 'lon': '-125.44939', 'country_code3': 'CAN', 'geonameid': '6173336', 'place_name': 'Vancouver Island', 'feature_class': 'T', 'feature_code': 'ISL'}}
{'word': 'Canada', 'spans': [{'start': 0, 'end': 6}], 'country_predicted': 'CAN', 'country_conf': 0.9516948, 'geo': {'admin1': 'NA', 'lat': '60.10867', 'lon': '-113.64258', 'country_code3': 'CAN', 'geonameid': '6251999', 'place_name': 'Canada', 'feature_class': 'A', 'feature_code': 'PCLI'}}
{'word': 'Bochum', 'spans': [{'start': 1, 'end': 7}], 'country_predicted': 'DEU', 'country_conf': 0.9048774, 'geo': {'admin1': 'North Rhine-Westphalia', 'lat': '51.48165', 'lon': '7.21648', 'country_code3': 'DEU', 'geonameid': '2947416', 'place_name': 'Bochum', 'feature_class': 'P', 'feature_code': 'PPLA3'}}
{'word': 'Germany', 'spans': [{'start': 0, 'end': 7}], 'country_predicted': 'DEU', 'country_conf': 0.9516948, 'geo': {'admin1': 'NA', 'lat': '51.5', 'lon': '10.5', 'country_code3': 'DEU', 'geonameid': '2921044', 'place_name': 'Federal Republic of Germany', 'feature_class': 'A', 'feature_code': 'PCLI'}}
{'word': 'heparinized', 'spans': [{'start': 0, 'end': 11}], 'country_predicted': '', 'country_conf': 0}
{'word': 'nm', 'spans': [{'start': 0, 'end': 2}], 'country_predicted': 'ESP', 'country_conf': 0.9048774, 'geo': {'admin1': 'Catalonia', 'lat': '41.80772', 'lon': '3.06392', 'country_code3': 'ESP', 'geonameid': '7147462', 'place_name': 'NM SUITES Hotel', 'feature_class': 'S', 'feature_code': 'HTL'}}
{'word': 'Copenhagen', 'spans': [{'start': 1, 'end': 11}], 'country_predicted': 'DNK', 'country_conf': 0.96374094, 'geo': {'admin1': 'Capital Region', 'lat': '55.67594', 'lon': '12.56553', 'country_code3': 'DNK', 'geonameid': '2618425', 'place_name': 'Copenhagen', 'feature_class': 'P', 'feature_code': 'PPLC'}}
{'word': 'Denmark', 'spans': [{'start': 0, 'end': 7}], 'country_predicted': 'DNK', 'country_conf': 0.9516948, 'geo': {'admin1': 'NA', 'lat': '56', 'lon': '10', 'country_code3': 'DNK', 'geonameid': '2623032', 'place_name': 'Kingdom of Denmark', 'feature_class': 'A', 'feature_code': 'PCLI'}}
{'word': 'USA', 'spans': [{'start': 0, 'end': 3}], 'country_predicted': 'USA', 'country_conf': 0.9516948, 'geo': {'admin1': 'Louisiana', 'lat': '29.2605', 'lon': '-89.35478', 'country_code3': 'USA', 'geonameid': '4319780', 'place_name': 'Chevron USA Incorporated Seaplane Base', 'feature_class': 'S', 'feature_code': 'AIRP'}}
{'word': 'Henderson', 'spans': [{'start': 0, 'end': 9}], 'country_predicted': 'USA', 'country_conf': 0.957188, 'geo': {'admin1': 'Nevada', 'lat': '36.0397', 'lon': '-114.98194', 'country_code3': 'USA', 'geonameid': '5505411', 'place_name': 'Henderson', 'feature_class': 'P', 'feature_code': 'PPL'}}
{'word': 'Palo', 'spans': [{'start': 1, 'end': 5}], 'country_predicted': 'PHL', 'country_conf': 0.28365934}
{'word': 'USA', 'spans': [{'start': 0, 'end': 3}], 'country_predicted': 'USA', 'country_conf': 0.9516948, 'geo': {'admin1': 'Louisiana', 'lat': '29.2605', 'lon': '-89.35478', 'country_code3': 'USA', 'geonameid': '4319780', 'place_name': 'Chevron USA Incorporated Seaplane Base', 'feature_class': 'S', 'feature_code': 'AIRP'}}
{'word': 'Boston', 'spans': [{'start': 0, 'end': 6}], 'country_predicted': 'USA', 'country_conf': 0.957188, 'geo': {'admin1': 'Massachusetts', 'lat': '42.35843', 'lon': '-71.05977', 'country_code3': 'USA', 'geonameid': '4930956', 'place_name': 'Boston', 'feature_class': 'P', 'feature_code': 'PPLA'}}
{'word': 'USA', 'spans': [{'start': 0, 'end': 3}], 'country_predicted': 'USA', 'country_conf': 0.9516948, 'geo': {'admin1': 'Louisiana', 'lat': '29.2605', 'lon': '-89.35478', 'country_code3': 'USA', 'geonameid': '4319780', 'place_name': 'Chevron USA Incorporated Seaplane Base', 'feature_class': 'S', 'feature_code': 'AIRP'}}
{'word': 'Kruskal', 'spans': [{'start': 0, 'end': 7}], 'country_predicted': 'IND', 'country_conf': 0.5714737}
{'word': 'Vancouver', 'spans': [{'start': 1, 'end': 10}], 'country_predicted': 'CAN', 'country_conf': 0.9048774, 'geo': {'admin1': 'British Columbia', 'lat': '49.65064', 'lon': '-125.44939', 'country_code3': 'CAN', 'geonameid': '6173336', 'place_name': 'Vancouver Island', 'feature_class': 'T', 'feature_code': 'ISL'}}
{'word': 'NH', 'spans': [{'start': 0, 'end': 2}], 'country_predicted': 'ITA', 'country_conf': 0.9048774, 'geo': {'admin1': 'Sicily', 'lat': '37.4881', 'lon': '15.0838', 'country_code3': 'ITA', 'geonameid': '6502841', 'place_name': 'NH Parco degli Aragonesi', 'feature_class': 'S', 'feature_code': 'HTL'}}
{'word': 'NH', 'spans': [{'start': 0, 'end': 2}], 'country_predicted': 'ITA', 'country_conf': 0.9048774, 'geo': {'admin1': 'Sicily', 'lat': '37.4881', 'lon': '15.0838', 'country_code3': 'ITA', 'geonameid': '6502841', 'place_name': 'NH Parco degli Aragonesi', 'feature_class': 'S', 'feature_code': 'HTL'}}
{'word': 'Canada', 'spans': [{'start': 0, 'end': 6}], 'country_predicted': 'CAN', 'country_conf': 0.9516948, 'geo': {'admin1': 'NA', 'lat': '60.10867', 'lon': '-113.64258', 'country_code3': 'CAN', 'geonameid': '6251999', 'place_name': 'Canada', 'feature_class': 'A', 'feature_code': 'PCLI'}}
{'word': 'Canada', 'spans': [{'start': 0, 'end': 6}], 'country_predicted': 'CAN', 'country_conf': 0.9516948, 'geo': {'admin1': 'NA', 'lat': '60.10867', 'lon': '-113.64258', 'country_code3': 'CAN', 'geonameid': '6251999', 'place_name': 'Canada', 'feature_class': 'A', 'feature_code': 'PCLI'}}
