{'word': 'Zealand', 'spans': [{'start': 0, 'end': 7}], 'country_predicted': 'NA', 'country_conf': 0.28365934}
{'word': 'China', 'spans': [{'start': 0, 'end': 5}], 'country_predicted': 'CHN', 'country_conf': 0.68758196, 'geo': {'admin1': 'Hubei', 'lat': '30.52047', 'lon': '114.39637', 'country_code3': 'CHN', 'geonameid': '6620465', 'place_name': 'China University of Geosciences', 'feature_class': 'S', 'feature_code': 'SCHC'}}
{'word': 'Pakistan', 'spans': [{'start': 0, 'end': 8}], 'country_predicted': 'PAK', 'country_conf': 0.68758196, 'geo': {'admin1': 'NA', 'lat': '30', 'lon': '70', 'country_code3': 'PAK', 'geonameid': '1168579', 'place_name': 'Islamic Republic of Pakistan', 'feature_class': 'A', 'feature_code': 'PCLI'}}
{'word': 'China', 'spans': [{'start': 0, 'end': 5}], 'country_predicted': 'CHN', 'country_conf': 0.68758196, 'geo': {'admin1': 'Hubei', 'lat': '30.52047', 'lon': '114.39637', 'country_code3': 'CHN', 'geonameid': '6620465', 'place_name': 'China University of Geosciences', 'feature_class': 'S', 'feature_code': 'SCHC'}}
{'word': 'Kadereit', 'spans': [{'start': 0, 'end': 8}], 'country_predicted': '', 'country_conf': 0}
{'word': 'Meijden', 'spans': [{'start': 0, 'end': 7}], 'country_predicted': 'USA', 'country_conf': 0.5339668}
{'word': 'Meijden', 'spans': [{'start': 0, 'end': 7}], 'country_predicted': 'USA', 'country_conf': 0.5339668}
{'word': 'Burg', 'spans': [{'start': 0, 'end': 4}], 'country_predicted': 'DEU', 'country_conf': 0.87992215, 'geo': {'admin1': 'Saxony-Anhalt', 'lat': '52.26673', 'lon': '11.86313', 'country_code3': 'DEU', 'geonameid': '6550930', 'place_name': 'Burg', 'feature_class': 'A', 'feature_code': 'ADM4'}}
{'word': 'Texel', 'spans': [{'start': 0, 'end': 5}], 'country_predicted': 'NLD', 'country_conf': 0.28868946}
{'word': 'Netherlands', 'spans': [{'start': 0, 'end': 11}], 'country_predicted': 'NLD', 'country_conf': 0.6948644, 'geo': {'admin1': 'NA', 'lat': '52.25', 'lon': '5.75', 'country_code3': 'NLD', 'geonameid': '2750405', 'place_name': 'Kingdom of the Netherlands', 'feature_class': 'A', 'feature_code': 'PCLI'}}
{'word': 'Texel', 'spans': [{'start': 0, 'end': 5}], 'country_predicted': 'NLD', 'country_conf': 0.28868946}
{'word': 'Netherlands', 'spans': [{'start': 0, 'end': 11}], 'country_predicted': 'NLD', 'country_conf': 0.6948644, 'geo': {'admin1': 'NA', 'lat': '52.25', 'lon': '5.75', 'country_code3': 'NLD', 'geonameid': '2750405', 'place_name': 'Kingdom of the Netherlands', 'feature_class': 'A', 'feature_code': 'PCLI'}}
{'word': 'Germany', 'spans': [{'start': 0, 'end': 7}], 'country_predicted': 'DEU', 'country_conf': 0.9516948, 'geo': {'admin1': 'NA', 'lat': '51.5', 'lon': '10.5', 'country_code3': 'DEU', 'geonameid': '2921044', 'place_name': 'Federal Republic of Germany', 'feature_class': 'A', 'feature_code': 'PCLI'}}
{'word': 'USA', 'spans': [{'start': 0, 'end': 3}], 'country_predicted': 'USA', 'country_conf': 0.9516948, 'geo': {'admin1': 'Louisiana', 'lat': '29.2605', 'lon': '-89.35478', 'country_code3': 'USA', 'geonameid': '4319780', 'place_name': 'Chevron USA Incorporated Seaplane Base', 'feature_class': 'S', 'feature_code': 'AIRP'}}
{'word': 'Japan', 'spans': [{'start': 0, 'end': 5}], 'country_predicted': 'JPN', 'country_conf': 0.9516948, 'geo': {'admin1': 'NA', 'lat': '35.68536', 'lon': '139.75309', 'country_code3': 'JPN', 'geonameid': '1861060', 'place_name': 'Japan', 'feature_class': 'A', 'feature_code': 'PCLI'}}
{'word': 'ST13', 'spans': [{'start': 0, 'end': 5}], 'country_predicted': 'FRA', 'country_conf': 0.5714737}
{'word': '&lt;0.001', 'spans': [{'start': 0, 'end': 9}], 'country_predicted': 'CHN', 'country_conf': 0.24821267}
{'word': '&lt;0.001', 'spans': [{'start': 0, 'end': 9}], 'country_predicted': 'CHN', 'country_conf': 0.24821267}
{'word': '&lt;0.001', 'spans': [{'start': 0, 'end': 9}], 'country_predicted': 'CHN', 'country_conf': 0.24821267}
{'word': '&lt;0.001', 'spans': [{'start': 0, 'end': 9}], 'country_predicted': 'CHN', 'country_conf': 0.24821267}
{'word': 'China', 'spans': [{'start': 0, 'end': 5}], 'country_predicted': 'CHN', 'country_conf': 0.68758196, 'geo': {'admin1': 'Hubei', 'lat': '30.52047', 'lon': '114.39637', 'country_code3': 'CHN', 'geonameid': '6620465', 'place_name': 'China University of Geosciences', 'feature_class': 'S', 'feature_code': 'SCHC'}}
{'word': 'Amsterdam', 'spans': [{'start': 0, 'end': 9}], 'country_predicted': 'NLD', 'country_conf': 0.957188, 'geo': {'admin1': 'North Holland', 'lat': '52.37302', 'lon': '4.89856', 'country_code3': 'NLD', 'geonameid': '2759793', 'place_name': 'Gemeente Amsterdam', 'feature_class': 'A', 'feature_code': 'ADM2'}}
{'word': 'Netherlands', 'spans': [{'start': 0, 'end': 11}], 'country_predicted': 'NLD', 'country_conf': 0.6948644, 'geo': {'admin1': 'NA', 'lat': '52.25', 'lon': '5.75', 'country_code3': 'NLD', 'geonameid': '2750405', 'place_name': 'Kingdom of the Netherlands', 'feature_class': 'A', 'feature_code': 'PCLI'}}
{'word': 'D.C.', 'spans': [{'start': 0, 'end': 4}], 'country_predicted': 'COL', 'country_conf': 0.28868946}
{'word': 'Shandong', 'spans': [{'start': 0, 'end': 8}], 'country_predicted': 'CHN', 'country_conf': 0.96374094, 'geo': {'admin1': 'Shandong', 'lat': '36.33333', 'lon': '118.25', 'country_code3': 'CHN', 'geonameid': '1796328', 'place_name': 'Shandong Sheng', 'feature_class': 'A', 'feature_code': 'ADM1'}}
{'word': 'China', 'spans': [{'start': 0, 'end': 5}], 'country_predicted': 'CHN', 'country_conf': 0.68758196, 'geo': {'admin1': 'Hubei', 'lat': '30.52047', 'lon': '114.39637', 'country_code3': 'CHN', 'geonameid': '6620465', 'place_name': 'China University of Geosciences', 'feature_class': 'S', 'feature_code': 'SCHC'}}
{'word': 'Shandong', 'spans': [{'start': 0, 'end': 8}], 'country_predicted': 'CHN', 'country_conf': 0.96374094, 'geo': {'admin1': 'Shandong', 'lat': '36.33333', 'lon': '118.25', 'country_code3': 'CHN', 'geonameid': '1796328', 'place_name': 'Shandong Sheng', 'feature_class': 'A', 'feature_code': 'ADM1'}}
{'word': 'Netherlands', 'spans': [{'start': 0, 'end': 11}], 'country_predicted': 'NLD', 'country_conf': 0.6948644, 'geo': {'admin1': 'NA', 'lat': '52.25', 'lon': '5.75', 'country_code3': 'NLD', 'geonameid': '2750405', 'place_name': 'Kingdom of the Netherlands', 'feature_class': 'A', 'feature_code': 'PCLI'}}
{'word': 'D.C.', 'spans': [{'start': 0, 'end': 4}], 'country_predicted': 'COL', 'country_conf': 0.28868946}
{'word': 'D.K.', 'spans': [{'start': 0, 'end': 4}], 'country_predicted': 'VNM', 'country_conf': 0.5714737}
{'word': 'Y.Z.', 'spans': [{'start': 0, 'end': 4}], 'country_predicted': 'RUS', 'country_conf': 0.5714737}
{'word': 'D.C.', 'spans': [{'start': 0, 'end': 4}], 'country_predicted': 'COL', 'country_conf': 0.28868946}
{'word': 'Shandong', 'spans': [{'start': 0, 'end': 8}], 'country_predicted': 'CHN', 'country_conf': 0.96374094, 'geo': {'admin1': 'Shandong', 'lat': '36.33333', 'lon': '118.25', 'country_code3': 'CHN', 'geonameid': '1796328', 'place_name': 'Shandong Sheng', 'feature_class': 'A', 'feature_code': 'ADM1'}}
{'word': 'Texel', 'spans': [{'start': 0, 'end': 5}], 'country_predicted': 'NLD', 'country_conf': 0.28868946}
{'word': 'Shandong', 'spans': [{'start': 0, 'end': 8}], 'country_predicted': 'CHN', 'country_conf': 0.96374094, 'geo': {'admin1': 'Shandong', 'lat': '36.33333', 'lon': '118.25', 'country_code3': 'CHN', 'geonameid': '1796328', 'place_name': 'Shandong Sheng', 'feature_class': 'A', 'feature_code': 'ADM1'}}
{'word': 'China', 'spans': [{'start': 0, 'end': 5}], 'country_predicted': 'CHN', 'country_conf': 0.68758196, 'geo': {'admin1': 'Hubei', 'lat': '30.52047', 'lon': '114.39637', 'country_code3': 'CHN', 'geonameid': '6620465', 'place_name': 'China University of Geosciences', 'feature_class': 'S', 'feature_code': 'SCHC'}}
