{'word': 'Bangladesh', 'spans': [{'start': 0, 'end': 10}], 'country_predicted': 'BGD', 'country_conf': 0.9516948, 'geo': {'admin1': 'NA', 'lat': '24', 'lon': '90', 'country_code3': 'BGD', 'geonameid': '1210997', 'place_name': 'Bangladesh', 'feature_class': 'A', 'feature_code': 'PCLI'}}
{'word': 'Sub1', 'spans': [{'start': 1, 'end': 5}], 'country_predicted': 'PHL', 'country_conf': 0.5339668}
{'word': 'Sub1', 'spans': [{'start': 1, 'end': 5}], 'country_predicted': 'PHL', 'country_conf': 0.5339668}
{'word': 'Sub1', 'spans': [{'start': 1, 'end': 5}], 'country_predicted': 'PHL', 'country_conf': 0.5339668}
{'word': 'Siangliw', 'spans': [{'start': 0, 'end': 8}], 'country_predicted': 'TWN', 'country_conf': 0.9528109, 'geo': {'admin1': 'Taiwan', 'lat': '24.24466', 'lon': '121.71411', 'country_code3': 'TWN', 'geonameid': '1674039', 'place_name': 'Liangli Xi', 'feature_class': 'H', 'feature_code': 'STM'}}
{'word': 'Baos', 'spans': [{'start': 0, 'end': 5}], 'country_predicted': 'ECU', 'country_conf': 0.28365934}
{'word': 'Philippines', 'spans': [{'start': 0, 'end': 11}], 'country_predicted': 'PHL', 'country_conf': 0.9516948, 'geo': {'admin1': 'NA', 'lat': '13', 'lon': '122', 'country_code3': 'PHL', 'geonameid': '1694008', 'place_name': 'Republic of the Philippines', 'feature_class': 'A', 'feature_code': 'PCLI'}}
{'word': 'Swarna', 'spans': [{'start': 0, 'end': 6}], 'country_predicted': 'IND', 'country_conf': 0.9528109, 'geo': {'admin1': 'NA', 'lat': '14.29948', 'lon': '74.4243', 'country_code3': 'IND', 'geonameid': '1256634', 'place_name': 'Sharvati River', 'feature_class': 'H', 'feature_code': 'STM'}}
{'word': 'India', 'spans': [{'start': 0, 'end': 5}], 'country_predicted': 'IND', 'country_conf': 0.68758196, 'geo': {'admin1': 'NA', 'lat': '22', 'lon': '79', 'country_code3': 'IND', 'geonameid': '1269750', 'place_name': 'Republic of India', 'feature_class': 'A', 'feature_code': 'PCLI'}}
{'word': 'Swarna', 'spans': [{'start': 0, 'end': 6}], 'country_predicted': 'IND', 'country_conf': 0.9528109, 'geo': {'admin1': 'NA', 'lat': '14.29948', 'lon': '74.4243', 'country_code3': 'IND', 'geonameid': '1256634', 'place_name': 'Sharvati River', 'feature_class': 'H', 'feature_code': 'STM'}}
{'word': 'Meter', 'spans': [{'start': 0, 'end': 5}], 'country_predicted': 'USA', 'country_conf': 0.87992215, 'geo': {'admin1': 'Iowa', 'lat': '41.53193', 'lon': '-93.95412', 'country_code3': 'USA', 'geonameid': '4880034', 'place_name': 'Van Meter', 'feature_class': 'P', 'feature_code': 'PPL'}}
{'word': 'Blvd', 'spans': [{'start': 0, 'end': 4}], 'country_predicted': 'HTI', 'country_conf': 0.9048774, 'geo': {'admin1': 'Ouest', 'lat': '18.53806', 'lon': '-72.61', 'country_code3': 'HTI', 'geonameid': '3721341', 'place_name': 'Blvd. Mariani', 'feature_class': 'R', 'feature_code': 'RD'}}
{'word': 'nm', 'spans': [{'start': 0, 'end': 2}], 'country_predicted': 'ESP', 'country_conf': 0.9048774, 'geo': {'admin1': 'Catalonia', 'lat': '41.80772', 'lon': '3.06392', 'country_code3': 'ESP', 'geonameid': '7147462', 'place_name': 'NM SUITES Hotel', 'feature_class': 'S', 'feature_code': 'HTL'}}
{'word': 'Louis', 'spans': [{'start': 0, 'end': 5}], 'country_predicted': 'FRA', 'country_conf': 0.87992215, 'geo': {'admin1': 'Alsace-Champagne-Ardenne-Lorraine', 'lat': '47.59206', 'lon': '7.55923', 'country_code3': 'FRA', 'geonameid': '2978742', 'place_name': 'Saint-Louis', 'feature_class': 'P', 'feature_code': 'PPL'}}
{'word': 'Swarna', 'spans': [{'start': 0, 'end': 6}], 'country_predicted': 'IND', 'country_conf': 0.9528109, 'geo': {'admin1': 'NA', 'lat': '14.29948', 'lon': '74.4243', 'country_code3': 'IND', 'geonameid': '1256634', 'place_name': 'Sharvati River', 'feature_class': 'H', 'feature_code': 'STM'}}
{'word': 'Swarna', 'spans': [{'start': 0, 'end': 6}], 'country_predicted': 'IND', 'country_conf': 0.9528109, 'geo': {'admin1': 'NA', 'lat': '14.29948', 'lon': '74.4243', 'country_code3': 'IND', 'geonameid': '1256634', 'place_name': 'Sharvati River', 'feature_class': 'H', 'feature_code': 'STM'}}
{'word': 'Siangliw', 'spans': [{'start': 0, 'end': 8}], 'country_predicted': 'TWN', 'country_conf': 0.9528109, 'geo': {'admin1': 'Taiwan', 'lat': '24.24466', 'lon': '121.71411', 'country_code3': 'TWN', 'geonameid': '1674039', 'place_name': 'Liangli Xi', 'feature_class': 'H', 'feature_code': 'STM'}}
{'word': 'Swarna', 'spans': [{'start': 0, 'end': 6}], 'country_predicted': 'IND', 'country_conf': 0.9528109, 'geo': {'admin1': 'NA', 'lat': '14.29948', 'lon': '74.4243', 'country_code3': 'IND', 'geonameid': '1256634', 'place_name': 'Sharvati River', 'feature_class': 'H', 'feature_code': 'STM'}}
{'word': 'Swarna', 'spans': [{'start': 0, 'end': 6}], 'country_predicted': 'IND', 'country_conf': 0.9528109, 'geo': {'admin1': 'NA', 'lat': '14.29948', 'lon': '74.4243', 'country_code3': 'IND', 'geonameid': '1256634', 'place_name': 'Sharvati River', 'feature_class': 'H', 'feature_code': 'STM'}}
{'word': 'Pamplona', 'spans': [{'start': 0, 'end': 8}], 'country_predicted': 'ESP', 'country_conf': 0.957188, 'geo': {'admin1': 'Navarre', 'lat': '42.81687', 'lon': '-1.64323', 'country_code3': 'ESP', 'geonameid': '3114472', 'place_name': 'Pamplona', 'feature_class': 'P', 'feature_code': 'PPLA'}}
