{'word': 'Budapest', 'spans': [{'start': 0, 'end': 8}], 'country_predicted': 'HUN', 'country_conf': 0.96374094, 'geo': {'admin1': 'Budapest', 'lat': '47.49835', 'lon': '19.04045', 'country_code3': 'HUN', 'geonameid': '3054643', 'place_name': 'Budapest', 'feature_class': 'P', 'feature_code': 'PPLC'}}
{'word': 'UK', 'spans': [{'start': 0, 'end': 2}], 'country_predicted': 'GBR', 'country_conf': 0.9516948, 'geo': {'admin1': 'NA', 'lat': '54.75844', 'lon': '-2.69531', 'country_code3': 'GBR', 'geonameid': '2635167', 'place_name': 'United Kingdom of Great Britain and Northern Ireland', 'feature_class': 'A', 'feature_code': 'PCLI'}}
{'word': 'Geneva', 'spans': [{'start': 0, 'end': 6}], 'country_predicted': 'CHE', 'country_conf': 0.6353264, 'geo': {'admin1': 'Geneva', 'lat': '46.19673', 'lon': '6.11044', 'country_code3': 'CHE', 'geonameid': '2660645', 'place_name': 'Genve', 'feature_class': 'A', 'feature_code': 'ADM1'}}
{'word': 'Berlin', 'spans': [{'start': 0, 'end': 6}], 'country_predicted': 'DEU', 'country_conf': 0.957188, 'geo': {'admin1': 'Berlin', 'lat': '52.5233', 'lon': '13.41377', 'country_code3': 'DEU', 'geonameid': '6547383', 'place_name': 'Berlin, Stadt', 'feature_class': 'A', 'feature_code': 'ADM3'}}
{'word': 'Bethesda', 'spans': [{'start': 0, 'end': 8}], 'country_predicted': 'USA', 'country_conf': 0.957188, 'geo': {'admin1': 'Maryland', 'lat': '38.98067', 'lon': '-77.10026', 'country_code3': 'USA', 'geonameid': '4348599', 'place_name': 'Bethesda', 'feature_class': 'P', 'feature_code': 'PPL'}}
{'word': 'Budapest', 'spans': [{'start': 0, 'end': 8}], 'country_predicted': 'HUN', 'country_conf': 0.96374094, 'geo': {'admin1': 'Budapest', 'lat': '47.49835', 'lon': '19.04045', 'country_code3': 'HUN', 'geonameid': '3054643', 'place_name': 'Budapest', 'feature_class': 'P', 'feature_code': 'PPLC'}}
{'word': 'UK', 'spans': [{'start': 0, 'end': 2}], 'country_predicted': 'GBR', 'country_conf': 0.9516948, 'geo': {'admin1': 'NA', 'lat': '54.75844', 'lon': '-2.69531', 'country_code3': 'GBR', 'geonameid': '2635167', 'place_name': 'United Kingdom of Great Britain and Northern Ireland', 'feature_class': 'A', 'feature_code': 'PCLI'}}
{'word': 'Budapest', 'spans': [{'start': 0, 'end': 8}], 'country_predicted': 'HUN', 'country_conf': 0.96374094, 'geo': {'admin1': 'Budapest', 'lat': '47.49835', 'lon': '19.04045', 'country_code3': 'HUN', 'geonameid': '3054643', 'place_name': 'Budapest', 'feature_class': 'P', 'feature_code': 'PPLC'}}
{'word': 'Geneva', 'spans': [{'start': 0, 'end': 6}], 'country_predicted': 'CHE', 'country_conf': 0.6353264, 'geo': {'admin1': 'Geneva', 'lat': '46.19673', 'lon': '6.11044', 'country_code3': 'CHE', 'geonameid': '2660645', 'place_name': 'Genve', 'feature_class': 'A', 'feature_code': 'ADM1'}}
{'word': 'Berlin', 'spans': [{'start': 0, 'end': 6}], 'country_predicted': 'DEU', 'country_conf': 0.957188, 'geo': {'admin1': 'Berlin', 'lat': '52.5233', 'lon': '13.41377', 'country_code3': 'DEU', 'geonameid': '6547383', 'place_name': 'Berlin, Stadt', 'feature_class': 'A', 'feature_code': 'ADM3'}}
{'word': 'Bethesda', 'spans': [{'start': 0, 'end': 8}], 'country_predicted': 'USA', 'country_conf': 0.957188, 'geo': {'admin1': 'Maryland', 'lat': '38.98067', 'lon': '-77.10026', 'country_code3': 'USA', 'geonameid': '4348599', 'place_name': 'Bethesda', 'feature_class': 'P', 'feature_code': 'PPL'}}
