{'word': 'Chesapeake', 'spans': [{'start': 0, 'end': 10}], 'country_predicted': 'USA', 'country_conf': 0.96374094, 'geo': {'admin1': 'Virginia', 'lat': '36.81904', 'lon': '-76.27494', 'country_code3': 'USA', 'geonameid': '4752186', 'place_name': 'Chesapeake', 'feature_class': 'P', 'feature_code': 'PPLA2'}}
{'word': 'Norway', 'spans': [{'start': 0, 'end': 6}], 'country_predicted': 'NOR', 'country_conf': 0.9516948, 'geo': {'admin1': 'NA', 'lat': '62', 'lon': '10', 'country_code3': 'NOR', 'geonameid': '3144096', 'place_name': 'Kingdom of Norway', 'feature_class': 'A', 'feature_code': 'PCLI'}}
{'word': 'Tennessee', 'spans': [{'start': 0, 'end': 9}], 'country_predicted': 'USA', 'country_conf': 0.9634983, 'geo': {'admin1': 'Tennessee', 'lat': '35.75035', 'lon': '-86.25027', 'country_code3': 'USA', 'geonameid': '4662168', 'place_name': 'Tennessee', 'feature_class': 'A', 'feature_code': 'ADM1'}}
{'word': 'Mauna', 'spans': [{'start': 0, 'end': 5}], 'country_predicted': 'IND', 'country_conf': 0.28868946}
{'word': 'TN', 'spans': [{'start': 0, 'end': 2}], 'country_predicted': 'USA', 'country_conf': 0.96374094, 'geo': {'admin1': 'Tennessee', 'lat': '35.716', 'lon': '-83.5094', 'country_code3': 'USA', 'geonameid': '6512358', 'place_name': 'Howard Johnson Gatlinburg Tn', 'feature_class': 'S', 'feature_code': 'HTL'}}
{'word': 'USA', 'spans': [{'start': 0, 'end': 3}], 'country_predicted': 'USA', 'country_conf': 0.9516948, 'geo': {'admin1': 'Louisiana', 'lat': '29.2605', 'lon': '-89.35478', 'country_code3': 'USA', 'geonameid': '4319780', 'place_name': 'Chevron USA Incorporated Seaplane Base', 'feature_class': 'S', 'feature_code': 'AIRP'}}
{'word': 'NC', 'spans': [{'start': 0, 'end': 2}], 'country_predicted': 'IND', 'country_conf': 0.9048774, 'geo': {'admin1': 'Assam', 'lat': '27.29429', 'lon': '94.20387', 'country_code3': 'IND', 'geonameid': '9035240', 'place_name': 'Salikipara NC', 'feature_class': 'P', 'feature_code': 'PPL'}}
{'word': 'USA', 'spans': [{'start': 0, 'end': 3}], 'country_predicted': 'USA', 'country_conf': 0.9516948, 'geo': {'admin1': 'Louisiana', 'lat': '29.2605', 'lon': '-89.35478', 'country_code3': 'USA', 'geonameid': '4319780', 'place_name': 'Chevron USA Incorporated Seaplane Base', 'feature_class': 'S', 'feature_code': 'AIRP'}}
{'word': 'TN', 'spans': [{'start': 0, 'end': 2}], 'country_predicted': 'USA', 'country_conf': 0.96374094, 'geo': {'admin1': 'Tennessee', 'lat': '35.716', 'lon': '-83.5094', 'country_code3': 'USA', 'geonameid': '6512358', 'place_name': 'Howard Johnson Gatlinburg Tn', 'feature_class': 'S', 'feature_code': 'HTL'}}
{'word': 'USA', 'spans': [{'start': 0, 'end': 3}], 'country_predicted': 'USA', 'country_conf': 0.9516948, 'geo': {'admin1': 'Louisiana', 'lat': '29.2605', 'lon': '-89.35478', 'country_code3': 'USA', 'geonameid': '4319780', 'place_name': 'Chevron USA Incorporated Seaplane Base', 'feature_class': 'S', 'feature_code': 'AIRP'}}
{'word': 'Valencia', 'spans': [{'start': 0, 'end': 8}], 'country_predicted': 'ESP', 'country_conf': 0.957188, 'geo': {'admin1': 'Valencia', 'lat': '39.46975', 'lon': '-0.37739', 'country_code3': 'ESP', 'geonameid': '2509954', 'place_name': 'Valencia', 'feature_class': 'P', 'feature_code': 'PPLA'}}
{'word': 'USA', 'spans': [{'start': 0, 'end': 3}], 'country_predicted': 'USA', 'country_conf': 0.9516948, 'geo': {'admin1': 'Louisiana', 'lat': '29.2605', 'lon': '-89.35478', 'country_code3': 'USA', 'geonameid': '4319780', 'place_name': 'Chevron USA Incorporated Seaplane Base', 'feature_class': 'S', 'feature_code': 'AIRP'}}
{'word': 'NC', 'spans': [{'start': 0, 'end': 2}], 'country_predicted': 'IND', 'country_conf': 0.9048774, 'geo': {'admin1': 'Assam', 'lat': '27.29429', 'lon': '94.20387', 'country_code3': 'IND', 'geonameid': '9035240', 'place_name': 'Salikipara NC', 'feature_class': 'P', 'feature_code': 'PPL'}}
{'word': 'Jose', 'spans': [{'start': 0, 'end': 4}], 'country_predicted': 'PHL', 'country_conf': 0.28868946}
{'word': 'Kauwe', 'spans': [{'start': 0, 'end': 5}], 'country_predicted': 'COD', 'country_conf': 0.9528109, 'geo': {'admin1': 'NA', 'lat': '-7.78876', 'lon': '26.09603', 'country_code3': 'COD', 'geonameid': '9940732', 'place_name': 'Kauwe', 'feature_class': 'H', 'feature_code': 'STM'}}
{'word': 'Kauwe', 'spans': [{'start': 0, 'end': 5}], 'country_predicted': 'COD', 'country_conf': 0.9528109, 'geo': {'admin1': 'NA', 'lat': '-7.78876', 'lon': '26.09603', 'country_code3': 'COD', 'geonameid': '9940732', 'place_name': 'Kauwe', 'feature_class': 'H', 'feature_code': 'STM'}}
