{'word': 'laurel', 'spans': [{'start': 0, 'end': 6}], 'country_predicted': 'USA', 'country_conf': 0.6353264, 'geo': {'admin1': 'Maryland', 'lat': '39.09928', 'lon': '-76.84831', 'country_code3': 'USA', 'geonameid': '4360369', 'place_name': 'Laurel', 'feature_class': 'P', 'feature_code': 'PPL'}}
{'word': 'Japan', 'spans': [{'start': 0, 'end': 5}], 'country_predicted': 'JPN', 'country_conf': 0.9516948, 'geo': {'admin1': 'NA', 'lat': '35.68536', 'lon': '139.75309', 'country_code3': 'JPN', 'geonameid': '1861060', 'place_name': 'Japan', 'feature_class': 'A', 'feature_code': 'PCLI'}}
{'word': 'USA', 'spans': [{'start': 0, 'end': 3}], 'country_predicted': 'USA', 'country_conf': 0.9516948, 'geo': {'admin1': 'Louisiana', 'lat': '29.2605', 'lon': '-89.35478', 'country_code3': 'USA', 'geonameid': '4319780', 'place_name': 'Chevron USA Incorporated Seaplane Base', 'feature_class': 'S', 'feature_code': 'AIRP'}}
{'word': 'Japan', 'spans': [{'start': 0, 'end': 5}], 'country_predicted': 'JPN', 'country_conf': 0.9516948, 'geo': {'admin1': 'NA', 'lat': '35.68536', 'lon': '139.75309', 'country_code3': 'JPN', 'geonameid': '1861060', 'place_name': 'Japan', 'feature_class': 'A', 'feature_code': 'PCLI'}}
{'word': 'Japan', 'spans': [{'start': 0, 'end': 5}], 'country_predicted': 'JPN', 'country_conf': 0.9516948, 'geo': {'admin1': 'NA', 'lat': '35.68536', 'lon': '139.75309', 'country_code3': 'JPN', 'geonameid': '1861060', 'place_name': 'Japan', 'feature_class': 'A', 'feature_code': 'PCLI'}}
{'word': 'Kolewe', 'spans': [{'start': 0, 'end': 6}], 'country_predicted': 'FRA', 'country_conf': 0.5339668}
{'word': 'Lancaster', 'spans': [{'start': 0, 'end': 9}], 'country_predicted': 'USA', 'country_conf': 0.7178229, 'geo': {'admin1': 'Pennsylvania', 'lat': '40.04244', 'lon': '-76.2477', 'country_code3': 'USA', 'geonameid': '5197085', 'place_name': 'Lancaster County', 'feature_class': 'A', 'feature_code': 'ADM2'}}
{'word': 'PA', 'spans': [{'start': 0, 'end': 2}], 'country_predicted': 'MLI', 'country_conf': 0.28868946}
{'word': 'Rochester', 'spans': [{'start': 0, 'end': 9}], 'country_predicted': 'USA', 'country_conf': 0.957188, 'geo': {'admin1': 'New York', 'lat': '43.15478', 'lon': '-77.61556', 'country_code3': 'USA', 'geonameid': '5134086', 'place_name': 'Rochester', 'feature_class': 'P', 'feature_code': 'PPLA2'}}
{'word': 'NY', 'spans': [{'start': 0, 'end': 2}], 'country_predicted': 'SWE', 'country_conf': 0.28365934}
{'word': 'Brunswick', 'spans': [{'start': 0, 'end': 9}], 'country_predicted': 'CAN', 'country_conf': 0.87992215, 'geo': {'admin1': 'New Brunswick', 'lat': '46.5001', 'lon': '-65.99878', 'country_code3': 'CAN', 'geonameid': '6087430', 'place_name': 'New Brunswick/Nouveau-Brunswick', 'feature_class': 'A', 'feature_code': 'ADM1'}}
{'word': 'Germany', 'spans': [{'start': 0, 'end': 7}], 'country_predicted': 'DEU', 'country_conf': 0.9516948, 'geo': {'admin1': 'NA', 'lat': '51.5', 'lon': '10.5', 'country_code3': 'DEU', 'geonameid': '2921044', 'place_name': 'Federal Republic of Germany', 'feature_class': 'A', 'feature_code': 'PCLI'}}
{'word': 'Karnataka', 'spans': [{'start': 0, 'end': 9}], 'country_predicted': 'IND', 'country_conf': 0.96374094, 'geo': {'admin1': 'Karnataka', 'lat': '14.66667', 'lon': '75.83333', 'country_code3': 'IND', 'geonameid': '1267701', 'place_name': 'State of Karnataka', 'feature_class': 'A', 'feature_code': 'ADM1'}}
{'word': 'India', 'spans': [{'start': 0, 'end': 5}], 'country_predicted': 'IND', 'country_conf': 0.68758196, 'geo': {'admin1': 'NA', 'lat': '22', 'lon': '79', 'country_code3': 'IND', 'geonameid': '1269750', 'place_name': 'Republic of India', 'feature_class': 'A', 'feature_code': 'PCLI'}}
{'word': 'Torrance', 'spans': [{'start': 1, 'end': 9}], 'country_predicted': 'USA', 'country_conf': 0.957188, 'geo': {'admin1': 'California', 'lat': '33.83585', 'lon': '-118.34063', 'country_code3': 'USA', 'geonameid': '5403022', 'place_name': 'Torrance', 'feature_class': 'P', 'feature_code': 'PPL'}}
{'word': 'Milford', 'spans': [{'start': 1, 'end': 8}], 'country_predicted': 'USA', 'country_conf': 0.957188, 'geo': {'admin1': 'Connecticut', 'lat': '41.22232', 'lon': '-73.0565', 'country_code3': 'USA', 'geonameid': '4838652', 'place_name': 'Milford', 'feature_class': 'P', 'feature_code': 'PPL'}}
{'word': 'PA', 'spans': [{'start': 0, 'end': 2}], 'country_predicted': 'MLI', 'country_conf': 0.28868946}
{'word': 'Yariv', 'spans': [{'start': 0, 'end': 5}], 'country_predicted': 'ISR', 'country_conf': 0.9528109, 'geo': {'admin1': 'Southern District', 'lat': '30.87785', 'lon': '34.40226', 'country_code3': 'ISR', 'geonameid': '414711', 'place_name': 'Givat Yariv', 'feature_class': 'T', 'feature_code': 'HLL'}}
{'word': 'Germany', 'spans': [{'start': 0, 'end': 7}], 'country_predicted': 'DEU', 'country_conf': 0.9516948, 'geo': {'admin1': 'NA', 'lat': '51.5', 'lon': '10.5', 'country_code3': 'DEU', 'geonameid': '2921044', 'place_name': 'Federal Republic of Germany', 'feature_class': 'A', 'feature_code': 'PCLI'}}
{'word': 'Chicago', 'spans': [{'start': 0, 'end': 7}], 'country_predicted': 'USA', 'country_conf': 0.9634983, 'geo': {'admin1': 'Illinois', 'lat': '41.85003', 'lon': '-87.65005', 'country_code3': 'USA', 'geonameid': '4887398', 'place_name': 'Chicago', 'feature_class': 'P', 'feature_code': 'PPLA2'}}
{'word': 'USA', 'spans': [{'start': 0, 'end': 3}], 'country_predicted': 'USA', 'country_conf': 0.9516948, 'geo': {'admin1': 'Louisiana', 'lat': '29.2605', 'lon': '-89.35478', 'country_code3': 'USA', 'geonameid': '4319780', 'place_name': 'Chevron USA Incorporated Seaplane Base', 'feature_class': 'S', 'feature_code': 'AIRP'}}
{'word': 'meristematic', 'spans': [{'start': 0, 'end': 12}], 'country_predicted': '', 'country_conf': 0}
{'word': 'Kolewe', 'spans': [{'start': 0, 'end': 6}], 'country_predicted': 'FRA', 'country_conf': 0.5339668}
{'word': 'India', 'spans': [{'start': 0, 'end': 5}], 'country_predicted': 'IND', 'country_conf': 0.68758196, 'geo': {'admin1': 'NA', 'lat': '22', 'lon': '79', 'country_code3': 'IND', 'geonameid': '1269750', 'place_name': 'Republic of India', 'feature_class': 'A', 'feature_code': 'PCLI'}}
{'word': 'India', 'spans': [{'start': 0, 'end': 5}], 'country_predicted': 'IND', 'country_conf': 0.68758196, 'geo': {'admin1': 'NA', 'lat': '22', 'lon': '79', 'country_code3': 'IND', 'geonameid': '1269750', 'place_name': 'Republic of India', 'feature_class': 'A', 'feature_code': 'PCLI'}}
{'word': 'S.D.', 'spans': [{'start': 0, 'end': 4}], 'country_predicted': 'USA', 'country_conf': 0.9048774, 'geo': {'admin1': 'Georgia', 'lat': '33.63955', 'lon': '-84.47021', 'country_code3': 'USA', 'geonameid': '4220238', 'place_name': 'S.D. Sid Truitt 4-H Camp', 'feature_class': 'S', 'feature_code': 'CMP'}}
{'word': 'S.D.', 'spans': [{'start': 0, 'end': 4}], 'country_predicted': 'USA', 'country_conf': 0.9048774, 'geo': {'admin1': 'Georgia', 'lat': '33.63955', 'lon': '-84.47021', 'country_code3': 'USA', 'geonameid': '4220238', 'place_name': 'S.D. Sid Truitt 4-H Camp', 'feature_class': 'S', 'feature_code': 'CMP'}}
{'word': 'Delhi', 'spans': [{'start': 0, 'end': 5}], 'country_predicted': 'IND', 'country_conf': 0.96374094, 'geo': {'admin1': 'NCT', 'lat': '28.65195', 'lon': '77.23149', 'country_code3': 'IND', 'geonameid': '1273294', 'place_name': 'Delhi', 'feature_class': 'P', 'feature_code': 'PPLA'}}
{'word': 'India', 'spans': [{'start': 0, 'end': 5}], 'country_predicted': 'IND', 'country_conf': 0.68758196, 'geo': {'admin1': 'NA', 'lat': '22', 'lon': '79', 'country_code3': 'IND', 'geonameid': '1269750', 'place_name': 'Republic of India', 'feature_class': 'A', 'feature_code': 'PCLI'}}
{'word': 'India', 'spans': [{'start': 0, 'end': 5}], 'country_predicted': 'IND', 'country_conf': 0.68758196, 'geo': {'admin1': 'NA', 'lat': '22', 'lon': '79', 'country_code3': 'IND', 'geonameid': '1269750', 'place_name': 'Republic of India', 'feature_class': 'A', 'feature_code': 'PCLI'}}
