{'word': 'America', 'spans': [{'start': 0, 'end': 7}], 'country_predicted': 'USA', 'country_conf': 0.9516948, 'geo': {'admin1': 'Wyoming', 'lat': '41.54357', 'lon': '-109.85903', 'country_code3': 'USA', 'geonameid': '5830444', 'place_name': 'Little America', 'feature_class': 'P', 'feature_code': 'PPL'}}
{'word': 'America', 'spans': [{'start': 0, 'end': 7}], 'country_predicted': 'USA', 'country_conf': 0.9516948, 'geo': {'admin1': 'Wyoming', 'lat': '41.54357', 'lon': '-109.85903', 'country_code3': 'USA', 'geonameid': '5830444', 'place_name': 'Little America', 'feature_class': 'P', 'feature_code': 'PPL'}}
{'word': 'Kentucky', 'spans': [{'start': 0, 'end': 8}], 'country_predicted': 'USA', 'country_conf': 0.9634983, 'geo': {'admin1': 'Kentucky', 'lat': '38.20042', 'lon': '-84.87762', 'country_code3': 'USA', 'geonameid': '6254925', 'place_name': 'Kentucky', 'feature_class': 'A', 'feature_code': 'ADM1'}}
{'word': 'Trinidad', 'spans': [{'start': 0, 'end': 8}], 'country_predicted': 'CUB', 'country_conf': 0.87992215, 'geo': {'admin1': 'Sancti Spritus', 'lat': '21.80224', 'lon': '-79.98467', 'country_code3': 'CUB', 'geonameid': '3534915', 'place_name': 'Trinidad', 'feature_class': 'P', 'feature_code': 'PPLA2'}}
{'word': 'America', 'spans': [{'start': 0, 'end': 7}], 'country_predicted': 'USA', 'country_conf': 0.9516948, 'geo': {'admin1': 'Wyoming', 'lat': '41.54357', 'lon': '-109.85903', 'country_code3': 'USA', 'geonameid': '5830444', 'place_name': 'Little America', 'feature_class': 'P', 'feature_code': 'PPL'}}
{'word': 'Trinidad', 'spans': [{'start': 0, 'end': 8}], 'country_predicted': 'CUB', 'country_conf': 0.87992215, 'geo': {'admin1': 'Sancti Spritus', 'lat': '21.80224', 'lon': '-79.98467', 'country_code3': 'CUB', 'geonameid': '3534915', 'place_name': 'Trinidad', 'feature_class': 'P', 'feature_code': 'PPLA2'}}
{'word': 'Trinidad', 'spans': [{'start': 0, 'end': 8}], 'country_predicted': 'CUB', 'country_conf': 0.87992215, 'geo': {'admin1': 'Sancti Spritus', 'lat': '21.80224', 'lon': '-79.98467', 'country_code3': 'CUB', 'geonameid': '3534915', 'place_name': 'Trinidad', 'feature_class': 'P', 'feature_code': 'PPLA2'}}
{'word': 'America', 'spans': [{'start': 0, 'end': 7}], 'country_predicted': 'USA', 'country_conf': 0.9516948, 'geo': {'admin1': 'Wyoming', 'lat': '41.54357', 'lon': '-109.85903', 'country_code3': 'USA', 'geonameid': '5830444', 'place_name': 'Little America', 'feature_class': 'P', 'feature_code': 'PPL'}}
{'word': 'Guiana', 'spans': [{'start': 0, 'end': 6}], 'country_predicted': 'GUF', 'country_conf': 0.6353264, 'geo': {'admin1': 'Guyane', 'lat': '3.99929', 'lon': '-52.99856', 'country_code3': 'GUF', 'geonameid': '6690605', 'place_name': 'Guyane', 'feature_class': 'A', 'feature_code': 'ADM1'}}
{'word': 'Brazil', 'spans': [{'start': 0, 'end': 6}], 'country_predicted': 'BRA', 'country_conf': 0.9516948, 'geo': {'admin1': 'NA', 'lat': '-10', 'lon': '-55', 'country_code3': 'BRA', 'geonameid': '3469034', 'place_name': 'Federative Republic of Brazil', 'feature_class': 'A', 'feature_code': 'PCLI'}}
{'word': 'Guiana', 'spans': [{'start': 0, 'end': 6}], 'country_predicted': 'GUF', 'country_conf': 0.6353264, 'geo': {'admin1': 'Guyane', 'lat': '3.99929', 'lon': '-52.99856', 'country_code3': 'GUF', 'geonameid': '6690605', 'place_name': 'Guyane', 'feature_class': 'A', 'feature_code': 'ADM1'}}
{'word': 'Brazil', 'spans': [{'start': 0, 'end': 6}], 'country_predicted': 'BRA', 'country_conf': 0.9516948, 'geo': {'admin1': 'NA', 'lat': '-10', 'lon': '-55', 'country_code3': 'BRA', 'geonameid': '3469034', 'place_name': 'Federative Republic of Brazil', 'feature_class': 'A', 'feature_code': 'PCLI'}}
{'word': 'Bolivia', 'spans': [{'start': 0, 'end': 7}], 'country_predicted': 'BOL', 'country_conf': 0.9516948, 'geo': {'admin1': 'NA', 'lat': '-17', 'lon': '-65', 'country_code3': 'BOL', 'geonameid': '3923057', 'place_name': 'Plurinational State of Bolivia', 'feature_class': 'A', 'feature_code': 'PCLI'}}
{'word': 'America', 'spans': [{'start': 0, 'end': 7}], 'country_predicted': 'USA', 'country_conf': 0.9516948, 'geo': {'admin1': 'Wyoming', 'lat': '41.54357', 'lon': '-109.85903', 'country_code3': 'USA', 'geonameid': '5830444', 'place_name': 'Little America', 'feature_class': 'P', 'feature_code': 'PPL'}}
{'word': 'Fieldscout', 'spans': [{'start': 0, 'end': 10}], 'country_predicted': '', 'country_conf': 0}
{'word': 'USA', 'spans': [{'start': 0, 'end': 3}], 'country_predicted': 'USA', 'country_conf': 0.9516948, 'geo': {'admin1': 'Louisiana', 'lat': '29.2605', 'lon': '-89.35478', 'country_code3': 'USA', 'geonameid': '4319780', 'place_name': 'Chevron USA Incorporated Seaplane Base', 'feature_class': 'S', 'feature_code': 'AIRP'}}
{'word': 'USA', 'spans': [{'start': 0, 'end': 3}], 'country_predicted': 'USA', 'country_conf': 0.9516948, 'geo': {'admin1': 'Louisiana', 'lat': '29.2605', 'lon': '-89.35478', 'country_code3': 'USA', 'geonameid': '4319780', 'place_name': 'Chevron USA Incorporated Seaplane Base', 'feature_class': 'S', 'feature_code': 'AIRP'}}
{'word': 'USA', 'spans': [{'start': 0, 'end': 3}], 'country_predicted': 'USA', 'country_conf': 0.9516948, 'geo': {'admin1': 'Louisiana', 'lat': '29.2605', 'lon': '-89.35478', 'country_code3': 'USA', 'geonameid': '4319780', 'place_name': 'Chevron USA Incorporated Seaplane Base', 'feature_class': 'S', 'feature_code': 'AIRP'}}
{'word': 'Beaumont', 'spans': [{'start': 0, 'end': 8}], 'country_predicted': 'FRA', 'country_conf': 0.87992215, 'geo': {'admin1': 'Hauts-de-France', 'lat': '50.41359', 'lon': '2.96485', 'country_code3': 'FRA', 'geonameid': '3013525', 'place_name': 'Hnin-Beaumont', 'feature_class': 'P', 'feature_code': 'PPL'}}
{'word': 'TX', 'spans': [{'start': 0, 'end': 2}], 'country_predicted': 'USA', 'country_conf': 0.96374094, 'geo': {'admin1': 'Texas', 'lat': '32.7585', 'lon': '-97.8085', 'country_code3': 'USA', 'geonameid': '6480279', 'place_name': 'Ramada Limited Weatherford Tx', 'feature_class': 'S', 'feature_code': 'HTL'}}
{'word': 'USA', 'spans': [{'start': 0, 'end': 3}], 'country_predicted': 'USA', 'country_conf': 0.9516948, 'geo': {'admin1': 'Louisiana', 'lat': '29.2605', 'lon': '-89.35478', 'country_code3': 'USA', 'geonameid': '4319780', 'place_name': 'Chevron USA Incorporated Seaplane Base', 'feature_class': 'S', 'feature_code': 'AIRP'}}
{'word': 'USA', 'spans': [{'start': 0, 'end': 3}], 'country_predicted': 'USA', 'country_conf': 0.9516948, 'geo': {'admin1': 'Louisiana', 'lat': '29.2605', 'lon': '-89.35478', 'country_code3': 'USA', 'geonameid': '4319780', 'place_name': 'Chevron USA Incorporated Seaplane Base', 'feature_class': 'S', 'feature_code': 'AIRP'}}
{'word': 'Germany', 'spans': [{'start': 0, 'end': 7}], 'country_predicted': 'DEU', 'country_conf': 0.9516948, 'geo': {'admin1': 'NA', 'lat': '51.5', 'lon': '10.5', 'country_code3': 'DEU', 'geonameid': '2921044', 'place_name': 'Federal Republic of Germany', 'feature_class': 'A', 'feature_code': 'PCLI'}}
{'word': 'Oakton', 'spans': [{'start': 0, 'end': 6}], 'country_predicted': 'USA', 'country_conf': 0.87992215, 'geo': {'admin1': 'Virginia', 'lat': '38.88095', 'lon': '-77.30082', 'country_code3': 'USA', 'geonameid': '4776970', 'place_name': 'Oakton', 'feature_class': 'P', 'feature_code': 'PPL'}}
{'word': 'Vernon', 'spans': [{'start': 0, 'end': 6}], 'country_predicted': 'USA', 'country_conf': 0.6353264, 'geo': {'admin1': 'Washington', 'lat': '48.42122', 'lon': '-122.33405', 'country_code3': 'USA', 'geonameid': '5804127', 'place_name': 'Mount Vernon', 'feature_class': 'P', 'feature_code': 'PPLA2'}}
{'word': 'USA', 'spans': [{'start': 0, 'end': 3}], 'country_predicted': 'USA', 'country_conf': 0.9516948, 'geo': {'admin1': 'Louisiana', 'lat': '29.2605', 'lon': '-89.35478', 'country_code3': 'USA', 'geonameid': '4319780', 'place_name': 'Chevron USA Incorporated Seaplane Base', 'feature_class': 'S', 'feature_code': 'AIRP'}}
{'word': 'FL', 'spans': [{'start': 0, 'end': 2}], 'country_predicted': 'FRA', 'country_conf': 0.9048774, 'geo': {'admin1': 'le-de-France', 'lat': '48.85877', 'lon': '2.28409', 'country_code3': 'FRA', 'geonameid': '10100427', 'place_name': 'Mansion Fl', 'feature_class': 'S', 'feature_code': 'HTL'}}
{'word': 'USA', 'spans': [{'start': 0, 'end': 3}], 'country_predicted': 'USA', 'country_conf': 0.9516948, 'geo': {'admin1': 'Louisiana', 'lat': '29.2605', 'lon': '-89.35478', 'country_code3': 'USA', 'geonameid': '4319780', 'place_name': 'Chevron USA Incorporated Seaplane Base', 'feature_class': 'S', 'feature_code': 'AIRP'}}
{'word': 'Denver', 'spans': [{'start': 0, 'end': 6}], 'country_predicted': 'USA', 'country_conf': 0.957188, 'geo': {'admin1': 'Colorado', 'lat': '39.73915', 'lon': '-104.9847', 'country_code3': 'USA', 'geonameid': '5419384', 'place_name': 'Denver', 'feature_class': 'P', 'feature_code': 'PPLA'}}
{'word': 'York', 'spans': [{'start': 0, 'end': 4}], 'country_predicted': 'CAN', 'country_conf': 0.28868946}
{'word': 'NY', 'spans': [{'start': 0, 'end': 2}], 'country_predicted': 'SWE', 'country_conf': 0.28365934}
{'word': 'USA', 'spans': [{'start': 0, 'end': 3}], 'country_predicted': 'USA', 'country_conf': 0.9516948, 'geo': {'admin1': 'Louisiana', 'lat': '29.2605', 'lon': '-89.35478', 'country_code3': 'USA', 'geonameid': '4319780', 'place_name': 'Chevron USA Incorporated Seaplane Base', 'feature_class': 'S', 'feature_code': 'AIRP'}}
{'word': 'Hempstead', 'spans': [{'start': 0, 'end': 9}], 'country_predicted': 'USA', 'country_conf': 0.957188, 'geo': {'admin1': 'New York', 'lat': '40.6336', 'lon': '-73.6098', 'country_code3': 'USA', 'geonameid': '5120487', 'place_name': 'Town of Hempstead', 'feature_class': 'A', 'feature_code': 'ADM3'}}
{'word': 'UK', 'spans': [{'start': 0, 'end': 2}], 'country_predicted': 'GBR', 'country_conf': 0.9516948, 'geo': {'admin1': 'NA', 'lat': '54.75844', 'lon': '-2.69531', 'country_code3': 'GBR', 'geonameid': '2635167', 'place_name': 'United Kingdom of Great Britain and Northern Ireland', 'feature_class': 'A', 'feature_code': 'PCLI'}}
{'word': 'nm', 'spans': [{'start': 0, 'end': 2}], 'country_predicted': 'ESP', 'country_conf': 0.9048774, 'geo': {'admin1': 'Catalonia', 'lat': '41.80772', 'lon': '3.06392', 'country_code3': 'ESP', 'geonameid': '7147462', 'place_name': 'NM SUITES Hotel', 'feature_class': 'S', 'feature_code': 'HTL'}}
{'word': 'Ludlow', 'spans': [{'start': 0, 'end': 6}], 'country_predicted': 'USA', 'country_conf': 0.7178229, 'geo': {'admin1': 'Massachusetts', 'lat': '42.16009', 'lon': '-72.47592', 'country_code3': 'USA', 'geonameid': '4942744', 'place_name': 'Ludlow', 'feature_class': 'P', 'feature_code': 'PPL'}}
{'word': 'Trinidad', 'spans': [{'start': 0, 'end': 8}], 'country_predicted': 'CUB', 'country_conf': 0.87992215, 'geo': {'admin1': 'Sancti Spritus', 'lat': '21.80224', 'lon': '-79.98467', 'country_code3': 'CUB', 'geonameid': '3534915', 'place_name': 'Trinidad', 'feature_class': 'P', 'feature_code': 'PPLA2'}}
{'word': 'Tobago', 'spans': [{'start': 0, 'end': 6}], 'country_predicted': 'TTO', 'country_conf': 0.957188, 'geo': {'admin1': 'NA', 'lat': '11', 'lon': '-61', 'country_code3': 'TTO', 'geonameid': '3573591', 'place_name': 'Republic of Trinidad and Tobago', 'feature_class': 'A', 'feature_code': 'PCLI'}}
{'word': 'Indies', 'spans': [{'start': 0, 'end': 6}], 'country_predicted': 'IDN', 'country_conf': 0.28365934}
