{'word': 'Phragmites', 'spans': [{'start': 0, 'end': 10}], 'country_predicted': 'USA', 'country_conf': 0.9528109, 'geo': {'admin1': 'South Dakota', 'lat': '45.42146', 'lon': '-97.34724', 'country_code3': 'USA', 'geonameid': '5230407', 'place_name': 'Phragmites Pond', 'feature_class': 'H', 'feature_code': 'LK'}}
{'word': 'America', 'spans': [{'start': 0, 'end': 7}], 'country_predicted': 'USA', 'country_conf': 0.9516948, 'geo': {'admin1': 'Wyoming', 'lat': '41.54357', 'lon': '-109.85903', 'country_code3': 'USA', 'geonameid': '5830444', 'place_name': 'Little America', 'feature_class': 'P', 'feature_code': 'PPL'}}
{'word': 'Colombia', 'spans': [{'start': 0, 'end': 8}], 'country_predicted': 'COL', 'country_conf': 0.9516948, 'geo': {'admin1': 'Atlntico', 'lat': '11.00854', 'lon': '-74.90887', 'country_code3': 'COL', 'geonameid': '3671506', 'place_name': 'Puerto Colombia', 'feature_class': 'A', 'feature_code': 'ADM2'}}
{'word': 'Toledo', 'spans': [{'start': 0, 'end': 6}], 'country_predicted': 'PHL', 'country_conf': 0.28365934}
{'word': 'Colombia', 'spans': [{'start': 0, 'end': 8}], 'country_predicted': 'COL', 'country_conf': 0.9516948, 'geo': {'admin1': 'Atlntico', 'lat': '11.00854', 'lon': '-74.90887', 'country_code3': 'COL', 'geonameid': '3671506', 'place_name': 'Puerto Colombia', 'feature_class': 'A', 'feature_code': 'ADM2'}}
{'word': 'Japan', 'spans': [{'start': 0, 'end': 5}], 'country_predicted': 'JPN', 'country_conf': 0.9516948, 'geo': {'admin1': 'NA', 'lat': '35.68536', 'lon': '139.75309', 'country_code3': 'JPN', 'geonameid': '1861060', 'place_name': 'Japan', 'feature_class': 'A', 'feature_code': 'PCLI'}}
{'word': 'Cali', 'spans': [{'start': 1, 'end': 5}], 'country_predicted': 'COL', 'country_conf': 0.9048774, 'geo': {'admin1': 'Valle del Cauca', 'lat': '3.43722', 'lon': '-76.5225', 'country_code3': 'COL', 'geonameid': '3687925', 'place_name': 'Cali', 'feature_class': 'P', 'feature_code': 'PPLA'}}
{'word': 'Colombia', 'spans': [{'start': 0, 'end': 8}], 'country_predicted': 'COL', 'country_conf': 0.9516948, 'geo': {'admin1': 'Atlntico', 'lat': '11.00854', 'lon': '-74.90887', 'country_code3': 'COL', 'geonameid': '3671506', 'place_name': 'Puerto Colombia', 'feature_class': 'A', 'feature_code': 'ADM2'}}
{'word': 'Eijkelkamp', 'spans': [{'start': 0, 'end': 10}], 'country_predicted': '', 'country_conf': 0}
{'word': 'Netherlands', 'spans': [{'start': 0, 'end': 11}], 'country_predicted': 'NLD', 'country_conf': 0.6948644, 'geo': {'admin1': 'NA', 'lat': '52.25', 'lon': '5.75', 'country_code3': 'NLD', 'geonameid': '2750405', 'place_name': 'Kingdom of the Netherlands', 'feature_class': 'A', 'feature_code': 'PCLI'}}
{'word': 'Japan', 'spans': [{'start': 0, 'end': 5}], 'country_predicted': 'JPN', 'country_conf': 0.9516948, 'geo': {'admin1': 'NA', 'lat': '35.68536', 'lon': '139.75309', 'country_code3': 'JPN', 'geonameid': '1861060', 'place_name': 'Japan', 'feature_class': 'A', 'feature_code': 'PCLI'}}
{'word': 'Canada', 'spans': [{'start': 0, 'end': 6}], 'country_predicted': 'CAN', 'country_conf': 0.9516948, 'geo': {'admin1': 'NA', 'lat': '60.10867', 'lon': '-113.64258', 'country_code3': 'CAN', 'geonameid': '6251999', 'place_name': 'Canada', 'feature_class': 'A', 'feature_code': 'PCLI'}}
{'word': 'aerenchyma', 'spans': [{'start': 0, 'end': 10}], 'country_predicted': '', 'country_conf': 0}
