{'word': 'Manchester', 'spans': [{'start': 0, 'end': 10}], 'country_predicted': 'GBR', 'country_conf': 0.957188, 'geo': {'admin1': 'England', 'lat': '53.45', 'lon': '-2.23333', 'country_code3': 'GBR', 'geonameid': '2648108', 'place_name': 'Greater Manchester', 'feature_class': 'L', 'feature_code': 'RGN'}}
{'word': 'Manchester', 'spans': [{'start': 0, 'end': 10}], 'country_predicted': 'GBR', 'country_conf': 0.957188, 'geo': {'admin1': 'England', 'lat': '53.45', 'lon': '-2.23333', 'country_code3': 'GBR', 'geonameid': '2648108', 'place_name': 'Greater Manchester', 'feature_class': 'L', 'feature_code': 'RGN'}}
{'word': 'Manchester', 'spans': [{'start': 0, 'end': 10}], 'country_predicted': 'GBR', 'country_conf': 0.957188, 'geo': {'admin1': 'England', 'lat': '53.45', 'lon': '-2.23333', 'country_code3': 'GBR', 'geonameid': '2648108', 'place_name': 'Greater Manchester', 'feature_class': 'L', 'feature_code': 'RGN'}}
{'word': 'comm.', 'spans': [{'start': 0, 'end': 5}], 'country_predicted': 'ITA', 'country_conf': 0.87992215, 'geo': {'admin1': 'Lombardy', 'lat': '45.80998', 'lon': '9.08744', 'country_code3': 'ITA', 'geonameid': '6542055', 'place_name': 'Como', 'feature_class': 'A', 'feature_code': 'ADM3'}}
{'word': 'Violle', 'spans': [{'start': 0, 'end': 6}], 'country_predicted': 'FRA', 'country_conf': 0.92213035, 'geo': {'admin1': "Provence-Alpes-Cte d'Azur", 'lat': '43.28958', 'lon': '6.13612', 'country_code3': 'FRA', 'geonameid': '2985141', 'place_name': 'Puget-Ville', 'feature_class': 'P', 'feature_code': 'PPL'}}
{'word': 'Violle', 'spans': [{'start': 0, 'end': 6}], 'country_predicted': 'FRA', 'country_conf': 0.92213035, 'geo': {'admin1': "Provence-Alpes-Cte d'Azur", 'lat': '43.28958', 'lon': '6.13612', 'country_code3': 'FRA', 'geonameid': '2985141', 'place_name': 'Puget-Ville', 'feature_class': 'P', 'feature_code': 'PPL'}}
{'word': 'UK', 'spans': [{'start': 0, 'end': 2}], 'country_predicted': 'GBR', 'country_conf': 0.9516948, 'geo': {'admin1': 'NA', 'lat': '54.75844', 'lon': '-2.69531', 'country_code3': 'GBR', 'geonameid': '2635167', 'place_name': 'United Kingdom of Great Britain and Northern Ireland', 'feature_class': 'A', 'feature_code': 'PCLI'}}
{'word': 'Manchester', 'spans': [{'start': 0, 'end': 10}], 'country_predicted': 'GBR', 'country_conf': 0.957188, 'geo': {'admin1': 'England', 'lat': '53.45', 'lon': '-2.23333', 'country_code3': 'GBR', 'geonameid': '2648108', 'place_name': 'Greater Manchester', 'feature_class': 'L', 'feature_code': 'RGN'}}
{'word': 'Rome', 'spans': [{'start': 0, 'end': 4}], 'country_predicted': 'ITA', 'country_conf': 0.957188, 'geo': {'admin1': 'Latium', 'lat': '41.89193', 'lon': '12.51133', 'country_code3': 'ITA', 'geonameid': '3169070', 'place_name': 'Rome', 'feature_class': 'P', 'feature_code': 'PPLC'}}
