{'word': 'cephalus', 'spans': [{'start': 0, 'end': 8}], 'country_predicted': 'CUW', 'country_conf': 0.24821267}
{'word': 'America', 'spans': [{'start': 0, 'end': 7}], 'country_predicted': 'USA', 'country_conf': 0.9516948, 'geo': {'admin1': 'Wyoming', 'lat': '41.54357', 'lon': '-109.85903', 'country_code3': 'USA', 'geonameid': '5830444', 'place_name': 'Little America', 'feature_class': 'P', 'feature_code': 'PPL'}}
{'word': 'America', 'spans': [{'start': 0, 'end': 7}], 'country_predicted': 'USA', 'country_conf': 0.9516948, 'geo': {'admin1': 'Wyoming', 'lat': '41.54357', 'lon': '-109.85903', 'country_code3': 'USA', 'geonameid': '5830444', 'place_name': 'Little America', 'feature_class': 'P', 'feature_code': 'PPL'}}
{'word': 'America', 'spans': [{'start': 0, 'end': 7}], 'country_predicted': 'USA', 'country_conf': 0.9516948, 'geo': {'admin1': 'Wyoming', 'lat': '41.54357', 'lon': '-109.85903', 'country_code3': 'USA', 'geonameid': '5830444', 'place_name': 'Little America', 'feature_class': 'P', 'feature_code': 'PPL'}}
{'word': 'Norway', 'spans': [{'start': 0, 'end': 6}], 'country_predicted': 'NOR', 'country_conf': 0.9516948, 'geo': {'admin1': 'NA', 'lat': '62', 'lon': '10', 'country_code3': 'NOR', 'geonameid': '3144096', 'place_name': 'Kingdom of Norway', 'feature_class': 'A', 'feature_code': 'PCLI'}}
{'word': 'Ontario', 'spans': [{'start': 0, 'end': 7}], 'country_predicted': 'CAN', 'country_conf': 0.87992215, 'geo': {'admin1': 'Ontario', 'lat': '49.25014', 'lon': '-84.49983', 'country_code3': 'CAN', 'geonameid': '6093943', 'place_name': 'Ontario', 'feature_class': 'A', 'feature_code': 'ADM1'}}
{'word': 'Canada', 'spans': [{'start': 0, 'end': 6}], 'country_predicted': 'CAN', 'country_conf': 0.9516948, 'geo': {'admin1': 'NA', 'lat': '60.10867', 'lon': '-113.64258', 'country_code3': 'CAN', 'geonameid': '6251999', 'place_name': 'Canada', 'feature_class': 'A', 'feature_code': 'PCLI'}}
{'word': 'Canada', 'spans': [{'start': 0, 'end': 6}], 'country_predicted': 'CAN', 'country_conf': 0.9516948, 'geo': {'admin1': 'NA', 'lat': '60.10867', 'lon': '-113.64258', 'country_code3': 'CAN', 'geonameid': '6251999', 'place_name': 'Canada', 'feature_class': 'A', 'feature_code': 'PCLI'}}
{'word': 'America', 'spans': [{'start': 0, 'end': 7}], 'country_predicted': 'USA', 'country_conf': 0.9516948, 'geo': {'admin1': 'Wyoming', 'lat': '41.54357', 'lon': '-109.85903', 'country_code3': 'USA', 'geonameid': '5830444', 'place_name': 'Little America', 'feature_class': 'P', 'feature_code': 'PPL'}}
{'word': 'Kyoto', 'spans': [{'start': 0, 'end': 5}], 'country_predicted': 'JPN', 'country_conf': 0.96374094, 'geo': {'admin1': 'Kyoto', 'lat': '35.25', 'lon': '135.43333', 'country_code3': 'JPN', 'geonameid': '1857907', 'place_name': 'Kyoto Prefecture', 'feature_class': 'A', 'feature_code': 'ADM1'}}
{'word': 'Japan', 'spans': [{'start': 0, 'end': 5}], 'country_predicted': 'JPN', 'country_conf': 0.9516948, 'geo': {'admin1': 'NA', 'lat': '35.68536', 'lon': '139.75309', 'country_code3': 'JPN', 'geonameid': '1861060', 'place_name': 'Japan', 'feature_class': 'A', 'feature_code': 'PCLI'}}
{'word': 'Basel', 'spans': [{'start': 0, 'end': 5}], 'country_predicted': 'CHE', 'country_conf': 0.957188, 'geo': {'admin1': 'Basel-City', 'lat': '47.55773', 'lon': '7.59361', 'country_code3': 'CHE', 'geonameid': '7285161', 'place_name': 'Basel', 'feature_class': 'A', 'feature_code': 'ADM3'}}
{'word': 'Switzerland', 'spans': [{'start': 0, 'end': 11}], 'country_predicted': 'CHE', 'country_conf': 0.9516948, 'geo': {'admin1': 'NA', 'lat': '47.00016', 'lon': '8.01427', 'country_code3': 'CHE', 'geonameid': '2658434', 'place_name': 'Switzerland', 'feature_class': 'A', 'feature_code': 'PCLI'}}
{'word': 'Woonsocket', 'spans': [{'start': 0, 'end': 10}], 'country_predicted': 'USA', 'country_conf': 0.9048774, 'geo': {'admin1': 'Rhode Island', 'lat': '42.00288', 'lon': '-71.51478', 'country_code3': 'USA', 'geonameid': '5225809', 'place_name': 'Woonsocket', 'feature_class': 'P', 'feature_code': 'PPL'}}
{'word': 'USA', 'spans': [{'start': 0, 'end': 3}], 'country_predicted': 'USA', 'country_conf': 0.9516948, 'geo': {'admin1': 'Louisiana', 'lat': '29.2605', 'lon': '-89.35478', 'country_code3': 'USA', 'geonameid': '4319780', 'place_name': 'Chevron USA Incorporated Seaplane Base', 'feature_class': 'S', 'feature_code': 'AIRP'}}
{'word': 'Ontario', 'spans': [{'start': 0, 'end': 7}], 'country_predicted': 'CAN', 'country_conf': 0.87992215, 'geo': {'admin1': 'Ontario', 'lat': '49.25014', 'lon': '-84.49983', 'country_code3': 'CAN', 'geonameid': '6093943', 'place_name': 'Ontario', 'feature_class': 'A', 'feature_code': 'ADM1'}}
{'word': 'Canada', 'spans': [{'start': 0, 'end': 6}], 'country_predicted': 'CAN', 'country_conf': 0.9516948, 'geo': {'admin1': 'NA', 'lat': '60.10867', 'lon': '-113.64258', 'country_code3': 'CAN', 'geonameid': '6251999', 'place_name': 'Canada', 'feature_class': 'A', 'feature_code': 'PCLI'}}
{'word': 'USA', 'spans': [{'start': 0, 'end': 3}], 'country_predicted': 'USA', 'country_conf': 0.9516948, 'geo': {'admin1': 'Louisiana', 'lat': '29.2605', 'lon': '-89.35478', 'country_code3': 'USA', 'geonameid': '4319780', 'place_name': 'Chevron USA Incorporated Seaplane Base', 'feature_class': 'S', 'feature_code': 'AIRP'}}
{'word': 'Ottmar', 'spans': [{'start': 0, 'end': 6}], 'country_predicted': 'DEU', 'country_conf': 0.5714737}
{'word': 'Canada', 'spans': [{'start': 0, 'end': 6}], 'country_predicted': 'CAN', 'country_conf': 0.9516948, 'geo': {'admin1': 'NA', 'lat': '60.10867', 'lon': '-113.64258', 'country_code3': 'CAN', 'geonameid': '6251999', 'place_name': 'Canada', 'feature_class': 'A', 'feature_code': 'PCLI'}}
{'word': 'Canada', 'spans': [{'start': 0, 'end': 6}], 'country_predicted': 'CAN', 'country_conf': 0.9516948, 'geo': {'admin1': 'NA', 'lat': '60.10867', 'lon': '-113.64258', 'country_code3': 'CAN', 'geonameid': '6251999', 'place_name': 'Canada', 'feature_class': 'A', 'feature_code': 'PCLI'}}
{'word': 'Ontario', 'spans': [{'start': 0, 'end': 7}], 'country_predicted': 'CAN', 'country_conf': 0.87992215, 'geo': {'admin1': 'Ontario', 'lat': '49.25014', 'lon': '-84.49983', 'country_code3': 'CAN', 'geonameid': '6093943', 'place_name': 'Ontario', 'feature_class': 'A', 'feature_code': 'ADM1'}}
{'word': 'Canada', 'spans': [{'start': 0, 'end': 6}], 'country_predicted': 'CAN', 'country_conf': 0.9516948, 'geo': {'admin1': 'NA', 'lat': '60.10867', 'lon': '-113.64258', 'country_code3': 'CAN', 'geonameid': '6251999', 'place_name': 'Canada', 'feature_class': 'A', 'feature_code': 'PCLI'}}
{'word': 'Canada', 'spans': [{'start': 0, 'end': 6}], 'country_predicted': 'CAN', 'country_conf': 0.9516948, 'geo': {'admin1': 'NA', 'lat': '60.10867', 'lon': '-113.64258', 'country_code3': 'CAN', 'geonameid': '6251999', 'place_name': 'Canada', 'feature_class': 'A', 'feature_code': 'PCLI'}}
{'word': 'Ontario', 'spans': [{'start': 0, 'end': 7}], 'country_predicted': 'CAN', 'country_conf': 0.87992215, 'geo': {'admin1': 'Ontario', 'lat': '49.25014', 'lon': '-84.49983', 'country_code3': 'CAN', 'geonameid': '6093943', 'place_name': 'Ontario', 'feature_class': 'A', 'feature_code': 'ADM1'}}
