{'word': 'Himalayan', 'spans': [{'start': 0, 'end': 9}], 'country_predicted': 'IND', 'country_conf': 0.28868946}
{'word': 'floridanum', 'spans': [{'start': 0, 'end': 10}], 'country_predicted': 'ITA', 'country_conf': 0.9528109, 'geo': {'admin1': 'Abruzzo', 'lat': '42.25494', 'lon': '14.32231', 'country_code3': 'ITA', 'geonameid': '6538884', 'place_name': 'Poggiofiorito', 'feature_class': 'A', 'feature_code': 'ADM3'}}
{'word': 'spinosissima', 'spans': [{'start': 0, 'end': 12}], 'country_predicted': '', 'country_conf': 0}
{'word': 'Argentina', 'spans': [{'start': 0, 'end': 9}], 'country_predicted': 'ARG', 'country_conf': 0.9516948, 'geo': {'admin1': 'Santa Fe Province', 'lat': '-32.92616', 'lon': '-60.73918', 'country_code3': 'ARG', 'geonameid': '6269145', 'place_name': 'Centro Cultural Antrtida Argentina', 'feature_class': 'S', 'feature_code': 'RSTNQ'}}
{'word': 'Himalayas', 'spans': [{'start': 0, 'end': 9}], 'country_predicted': 'NA', 'country_conf': 0.9048774, 'geo': {'admin1': 'NA', 'lat': '28', 'lon': '84', 'country_code3': 'NA', 'geonameid': '1252558', 'place_name': 'Himalayas', 'feature_class': 'T', 'feature_code': 'MTS'}}
{'word': '72', 'spans': [{'start': 0, 'end': 3}], 'country_predicted': 'IRQ', 'country_conf': 0.9528109, 'geo': {'admin1': 'Mayorality of Baghdad', 'lat': '33.40743', 'lon': '44.46604', 'country_code3': 'IRQ', 'geonameid': '9887697', 'place_name': 'Sector 72', 'feature_class': 'P', 'feature_code': 'PPLX'}}
{'word': 'Hormaza', 'spans': [{'start': 0, 'end': 7}], 'country_predicted': 'ESP', 'country_conf': 0.9528109, 'geo': {'admin1': 'Castille and Len', 'lat': '42.17176', 'lon': '-4.03311', 'country_code3': 'ESP', 'geonameid': '3120670', 'place_name': 'Arroyo de la Hormaza', 'feature_class': 'H', 'feature_code': 'STM'}}
{'word': 'Hormaza', 'spans': [{'start': 0, 'end': 7}], 'country_predicted': 'ESP', 'country_conf': 0.9528109, 'geo': {'admin1': 'Castille and Len', 'lat': '42.17176', 'lon': '-4.03311', 'country_code3': 'ESP', 'geonameid': '3120670', 'place_name': 'Arroyo de la Hormaza', 'feature_class': 'H', 'feature_code': 'STM'}}
{'word': 'spinosissima', 'spans': [{'start': 0, 'end': 12}], 'country_predicted': '', 'country_conf': 0}
{'word': 'Medan', 'spans': [{'start': 0, 'end': 5}], 'country_predicted': 'IDN', 'country_conf': 0.96374094, 'geo': {'admin1': 'North Sumatra', 'lat': '3.65', 'lon': '98.66667', 'country_code3': 'IDN', 'geonameid': '1214519', 'place_name': 'Kota Medan', 'feature_class': 'A', 'feature_code': 'ADM2'}}
{'word': 'China', 'spans': [{'start': 0, 'end': 5}], 'country_predicted': 'CHN', 'country_conf': 0.68758196, 'geo': {'admin1': 'Hubei', 'lat': '30.52047', 'lon': '114.39637', 'country_code3': 'CHN', 'geonameid': '6620465', 'place_name': 'China University of Geosciences', 'feature_class': 'S', 'feature_code': 'SCHC'}}
{'word': 'Himalaya', 'spans': [{'start': 0, 'end': 8}], 'country_predicted': 'MEX', 'country_conf': 0.28365934}
{'word': 'India', 'spans': [{'start': 0, 'end': 5}], 'country_predicted': 'IND', 'country_conf': 0.68758196, 'geo': {'admin1': 'NA', 'lat': '22', 'lon': '79', 'country_code3': 'IND', 'geonameid': '1269750', 'place_name': 'Republic of India', 'feature_class': 'A', 'feature_code': 'PCLI'}}
{'word': 'India', 'spans': [{'start': 0, 'end': 5}], 'country_predicted': 'IND', 'country_conf': 0.68758196, 'geo': {'admin1': 'NA', 'lat': '22', 'lon': '79', 'country_code3': 'IND', 'geonameid': '1269750', 'place_name': 'Republic of India', 'feature_class': 'A', 'feature_code': 'PCLI'}}
{'word': 'Jammu', 'spans': [{'start': 0, 'end': 5}], 'country_predicted': 'IND', 'country_conf': 0.9048774, 'geo': {'admin1': 'Kashmir', 'lat': '33.5329', 'lon': '75.40781', 'country_code3': 'IND', 'geonameid': '1269320', 'place_name': 'State of Jammu and Kashmr', 'feature_class': 'A', 'feature_code': 'ADM1'}}
{'word': 'Kashmir', 'spans': [{'start': 0, 'end': 7}], 'country_predicted': 'PAK', 'country_conf': 0.957188, 'geo': {'admin1': 'Azad Kashmir', 'lat': '33.94718', 'lon': '73.9104', 'country_code3': 'PAK', 'geonameid': '1184196', 'place_name': 'Azad Kashmir', 'feature_class': 'A', 'feature_code': 'ADM1'}}
{'word': 'Himachal', 'spans': [{'start': 0, 'end': 8}], 'country_predicted': 'IND', 'country_conf': 0.9048774, 'geo': {'admin1': 'Himachal Pradesh', 'lat': '31.91667', 'lon': '77.25', 'country_code3': 'IND', 'geonameid': '1270101', 'place_name': 'State of Himchal Pradesh', 'feature_class': 'A', 'feature_code': 'ADM1'}}
{'word': 'Pradesh', 'spans': [{'start': 0, 'end': 7}], 'country_predicted': 'IND', 'country_conf': 0.96374094, 'geo': {'admin1': 'Uttar Pradesh', 'lat': '27.25', 'lon': '80.75', 'country_code3': 'IND', 'geonameid': '1253626', 'place_name': 'Uttar Pradesh', 'feature_class': 'A', 'feature_code': 'ADM1'}}
{'word': 'Uttarakhand', 'spans': [{'start': 0, 'end': 11}], 'country_predicted': 'IND', 'country_conf': 0.9048774, 'geo': {'admin1': 'Uttarakhand', 'lat': '30.25', 'lon': '79.25', 'country_code3': 'IND', 'geonameid': '1444366', 'place_name': 'State of Uttarkhand', 'feature_class': 'A', 'feature_code': 'ADM1'}}
{'word': 'Sikkim', 'spans': [{'start': 0, 'end': 6}], 'country_predicted': 'IND', 'country_conf': 0.9048774, 'geo': {'admin1': 'Sikkim', 'lat': '27.75', 'lon': '88.5', 'country_code3': 'IND', 'geonameid': '1256312', 'place_name': 'Sikkim', 'feature_class': 'A', 'feature_code': 'ADM1'}}
{'word': 'Jammu', 'spans': [{'start': 1, 'end': 6}], 'country_predicted': 'IND', 'country_conf': 0.9048774, 'geo': {'admin1': 'Kashmir', 'lat': '33.5329', 'lon': '75.40781', 'country_code3': 'IND', 'geonameid': '1269320', 'place_name': 'State of Jammu and Kashmr', 'feature_class': 'A', 'feature_code': 'ADM1'}}
{'word': 'Kashmir', 'spans': [{'start': 0, 'end': 7}], 'country_predicted': 'PAK', 'country_conf': 0.957188, 'geo': {'admin1': 'Azad Kashmir', 'lat': '33.94718', 'lon': '73.9104', 'country_code3': 'PAK', 'geonameid': '1184196', 'place_name': 'Azad Kashmir', 'feature_class': 'A', 'feature_code': 'ADM1'}}
{'word': 'India', 'spans': [{'start': 0, 'end': 5}], 'country_predicted': 'IND', 'country_conf': 0.68758196, 'geo': {'admin1': 'NA', 'lat': '22', 'lon': '79', 'country_code3': 'IND', 'geonameid': '1269750', 'place_name': 'Republic of India', 'feature_class': 'A', 'feature_code': 'PCLI'}}
{'word': 'Tokyo', 'spans': [{'start': 0, 'end': 5}], 'country_predicted': 'JPN', 'country_conf': 0.96374094, 'geo': {'admin1': 'Tokyo', 'lat': '35.6895', 'lon': '139.69171', 'country_code3': 'JPN', 'geonameid': '1850144', 'place_name': 'Tokyo Prefecture', 'feature_class': 'A', 'feature_code': 'ADM1'}}
{'word': 'USA', 'spans': [{'start': 0, 'end': 3}], 'country_predicted': 'USA', 'country_conf': 0.9516948, 'geo': {'admin1': 'Louisiana', 'lat': '29.2605', 'lon': '-89.35478', 'country_code3': 'USA', 'geonameid': '4319780', 'place_name': 'Chevron USA Incorporated Seaplane Base', 'feature_class': 'S', 'feature_code': 'AIRP'}}
{'word': 'Germany', 'spans': [{'start': 0, 'end': 7}], 'country_predicted': 'DEU', 'country_conf': 0.9516948, 'geo': {'admin1': 'NA', 'lat': '51.5', 'lon': '10.5', 'country_code3': 'DEU', 'geonameid': '2921044', 'place_name': 'Federal Republic of Germany', 'feature_class': 'A', 'feature_code': 'PCLI'}}
{'word': 'nm', 'spans': [{'start': 0, 'end': 2}], 'country_predicted': 'ESP', 'country_conf': 0.9048774, 'geo': {'admin1': 'Catalonia', 'lat': '41.80772', 'lon': '3.06392', 'country_code3': 'ESP', 'geonameid': '7147462', 'place_name': 'NM SUITES Hotel', 'feature_class': 'S', 'feature_code': 'HTL'}}
{'word': 'nm', 'spans': [{'start': 0, 'end': 2}], 'country_predicted': 'ESP', 'country_conf': 0.9048774, 'geo': {'admin1': 'Catalonia', 'lat': '41.80772', 'lon': '3.06392', 'country_code3': 'ESP', 'geonameid': '7147462', 'place_name': 'NM SUITES Hotel', 'feature_class': 'S', 'feature_code': 'HTL'}}
{'word': 'nm', 'spans': [{'start': 0, 'end': 2}], 'country_predicted': 'ESP', 'country_conf': 0.9048774, 'geo': {'admin1': 'Catalonia', 'lat': '41.80772', 'lon': '3.06392', 'country_code3': 'ESP', 'geonameid': '7147462', 'place_name': 'NM SUITES Hotel', 'feature_class': 'S', 'feature_code': 'HTL'}}
{'word': 'nm', 'spans': [{'start': 0, 'end': 2}], 'country_predicted': 'ESP', 'country_conf': 0.9048774, 'geo': {'admin1': 'Catalonia', 'lat': '41.80772', 'lon': '3.06392', 'country_code3': 'ESP', 'geonameid': '7147462', 'place_name': 'NM SUITES Hotel', 'feature_class': 'S', 'feature_code': 'HTL'}}
{'word': 'decolourized', 'spans': [{'start': 0, 'end': 12}], 'country_predicted': '', 'country_conf': 0}
{'word': 'Japan', 'spans': [{'start': 0, 'end': 5}], 'country_predicted': 'JPN', 'country_conf': 0.9516948, 'geo': {'admin1': 'NA', 'lat': '35.68536', 'lon': '139.75309', 'country_code3': 'JPN', 'geonameid': '1861060', 'place_name': 'Japan', 'feature_class': 'A', 'feature_code': 'PCLI'}}
{'word': 'UK', 'spans': [{'start': 0, 'end': 2}], 'country_predicted': 'GBR', 'country_conf': 0.9516948, 'geo': {'admin1': 'NA', 'lat': '54.75844', 'lon': '-2.69531', 'country_code3': 'GBR', 'geonameid': '2635167', 'place_name': 'United Kingdom of Great Britain and Northern Ireland', 'feature_class': 'A', 'feature_code': 'PCLI'}}
{'word': 'Japan', 'spans': [{'start': 0, 'end': 5}], 'country_predicted': 'JPN', 'country_conf': 0.9516948, 'geo': {'admin1': 'NA', 'lat': '35.68536', 'lon': '139.75309', 'country_code3': 'JPN', 'geonameid': '1861060', 'place_name': 'Japan', 'feature_class': 'A', 'feature_code': 'PCLI'}}
{'word': 'Japan', 'spans': [{'start': 0, 'end': 5}], 'country_predicted': 'JPN', 'country_conf': 0.9516948, 'geo': {'admin1': 'NA', 'lat': '35.68536', 'lon': '139.75309', 'country_code3': 'JPN', 'geonameid': '1861060', 'place_name': 'Japan', 'feature_class': 'A', 'feature_code': 'PCLI'}}
{'word': 'nm', 'spans': [{'start': 0, 'end': 2}], 'country_predicted': 'ESP', 'country_conf': 0.9048774, 'geo': {'admin1': 'Catalonia', 'lat': '41.80772', 'lon': '3.06392', 'country_code3': 'ESP', 'geonameid': '7147462', 'place_name': 'NM SUITES Hotel', 'feature_class': 'S', 'feature_code': 'HTL'}}
{'word': 'Germany', 'spans': [{'start': 0, 'end': 7}], 'country_predicted': 'DEU', 'country_conf': 0.9516948, 'geo': {'admin1': 'NA', 'lat': '51.5', 'lon': '10.5', 'country_code3': 'DEU', 'geonameid': '2921044', 'place_name': 'Federal Republic of Germany', 'feature_class': 'A', 'feature_code': 'PCLI'}}
{'word': 'st', 'spans': [{'start': 0, 'end': 2}], 'country_predicted': 'JAM', 'country_conf': 0.28365934}
{'word': 'locule', 'spans': [{'start': 0, 'end': 6}], 'country_predicted': 'PRT', 'country_conf': 0.5339668}
{'word': 'locule', 'spans': [{'start': 0, 'end': 6}], 'country_predicted': 'PRT', 'country_conf': 0.5339668}
{'word': 'st', 'spans': [{'start': 0, 'end': 2}], 'country_predicted': 'JAM', 'country_conf': 0.28365934}
{'word': 'locule', 'spans': [{'start': 0, 'end': 6}], 'country_predicted': 'PRT', 'country_conf': 0.5339668}
{'word': 'junction', 'spans': [{'start': 0, 'end': 8}], 'country_predicted': 'USA', 'country_conf': 0.6353264, 'geo': {'admin1': 'Texas', 'lat': '30.48936', 'lon': '-99.77201', 'country_code3': 'USA', 'geonameid': '4701791', 'place_name': 'Junction', 'feature_class': 'P', 'feature_code': 'PPLA2'}}
{'word': 'locule', 'spans': [{'start': 0, 'end': 6}], 'country_predicted': 'PRT', 'country_conf': 0.5339668}
{'word': '72', 'spans': [{'start': 0, 'end': 3}], 'country_predicted': 'IRQ', 'country_conf': 0.9528109, 'geo': {'admin1': 'Mayorality of Baghdad', 'lat': '33.40743', 'lon': '44.46604', 'country_code3': 'IRQ', 'geonameid': '9887697', 'place_name': 'Sector 72', 'feature_class': 'P', 'feature_code': 'PPLX'}}
{'word': 'India', 'spans': [{'start': 0, 'end': 5}], 'country_predicted': 'IND', 'country_conf': 0.68758196, 'geo': {'admin1': 'NA', 'lat': '22', 'lon': '79', 'country_code3': 'IND', 'geonameid': '1269750', 'place_name': 'Republic of India', 'feature_class': 'A', 'feature_code': 'PCLI'}}
{'word': 'India', 'spans': [{'start': 0, 'end': 5}], 'country_predicted': 'IND', 'country_conf': 0.68758196, 'geo': {'admin1': 'NA', 'lat': '22', 'lon': '79', 'country_code3': 'IND', 'geonameid': '1269750', 'place_name': 'Republic of India', 'feature_class': 'A', 'feature_code': 'PCLI'}}
{'word': 'Germany', 'spans': [{'start': 0, 'end': 7}], 'country_predicted': 'DEU', 'country_conf': 0.9516948, 'geo': {'admin1': 'NA', 'lat': '51.5', 'lon': '10.5', 'country_code3': 'DEU', 'geonameid': '2921044', 'place_name': 'Federal Republic of Germany', 'feature_class': 'A', 'feature_code': 'PCLI'}}
{'word': 'st', 'spans': [{'start': 0, 'end': 2}], 'country_predicted': 'JAM', 'country_conf': 0.28365934}
{'word': 'India', 'spans': [{'start': 0, 'end': 5}], 'country_predicted': 'IND', 'country_conf': 0.68758196, 'geo': {'admin1': 'NA', 'lat': '22', 'lon': '79', 'country_code3': 'IND', 'geonameid': '1269750', 'place_name': 'Republic of India', 'feature_class': 'A', 'feature_code': 'PCLI'}}
