{'word': 'Korea', 'spans': [{'start': 0, 'end': 5}], 'country_predicted': 'KOR', 'country_conf': 0.87992215, 'geo': {'admin1': 'NA', 'lat': '36.5', 'lon': '127.75', 'country_code3': 'KOR', 'geonameid': '1835841', 'place_name': 'Republic of Korea', 'feature_class': 'A', 'feature_code': 'PCLI'}}
{'word': 'Louis', 'spans': [{'start': 0, 'end': 5}], 'country_predicted': 'FRA', 'country_conf': 0.87992215, 'geo': {'admin1': 'Alsace-Champagne-Ardenne-Lorraine', 'lat': '47.59206', 'lon': '7.55923', 'country_code3': 'FRA', 'geonameid': '2978742', 'place_name': 'Saint-Louis', 'feature_class': 'P', 'feature_code': 'PPL'}}
{'word': 'Carlsbad', 'spans': [{'start': 0, 'end': 8}], 'country_predicted': 'USA', 'country_conf': 0.957188, 'geo': {'admin1': 'California', 'lat': '33.15809', 'lon': '-117.35059', 'country_code3': 'USA', 'geonameid': '5334223', 'place_name': 'Carlsbad', 'feature_class': 'P', 'feature_code': 'PPL'}}
{'word': 'USA', 'spans': [{'start': 0, 'end': 3}], 'country_predicted': 'USA', 'country_conf': 0.9516948, 'geo': {'admin1': 'Louisiana', 'lat': '29.2605', 'lon': '-89.35478', 'country_code3': 'USA', 'geonameid': '4319780', 'place_name': 'Chevron USA Incorporated Seaplane Base', 'feature_class': 'S', 'feature_code': 'AIRP'}}
{'word': 'Plainfield', 'spans': [{'start': 0, 'end': 10}], 'country_predicted': 'USA', 'country_conf': 0.957188, 'geo': {'admin1': 'New Jersey', 'lat': '40.63371', 'lon': '-74.40737', 'country_code3': 'USA', 'geonameid': '5102720', 'place_name': 'Plainfield', 'feature_class': 'P', 'feature_code': 'PPL'}}
{'word': 'NJ', 'spans': [{'start': 0, 'end': 2}], 'country_predicted': 'THA', 'country_conf': 0.28868946}
{'word': 'USA', 'spans': [{'start': 0, 'end': 3}], 'country_predicted': 'USA', 'country_conf': 0.9516948, 'geo': {'admin1': 'Louisiana', 'lat': '29.2605', 'lon': '-89.35478', 'country_code3': 'USA', 'geonameid': '4319780', 'place_name': 'Chevron USA Incorporated Seaplane Base', 'feature_class': 'S', 'feature_code': 'AIRP'}}
{'word': 'Jersey', 'spans': [{'start': 0, 'end': 6}], 'country_predicted': 'JEY', 'country_conf': 0.9048774, 'geo': {'admin1': 'NA', 'lat': '49.2167', 'lon': '-2.13753', 'country_code3': 'JEY', 'geonameid': '3042143', 'place_name': 'Jersey', 'feature_class': 'T', 'feature_code': 'ISL'}}
