{'word': 'Portugal', 'spans': [{'start': 0, 'end': 8}], 'country_predicted': 'PRT', 'country_conf': 0.9516948, 'geo': {'admin1': 'NA', 'lat': '39.6945', 'lon': '-8.13057', 'country_code3': 'PRT', 'geonameid': '2264397', 'place_name': 'Portuguese Republic', 'feature_class': 'A', 'feature_code': 'PCLI'}}
{'word': 'colonies', 'spans': [{'start': 0, 'end': 8}], 'country_predicted': 'USA', 'country_conf': 0.9048774, 'geo': {'admin1': 'Iowa', 'lat': '41.68539', 'lon': '-91.91103', 'country_code3': 'USA', 'geonameid': '9849033', 'place_name': 'Clarion Inn Amana Colonies & Wasserbahn Waterpark Resort', 'feature_class': 'S', 'feature_code': 'HTL'}}
{'word': 'gobotaniques', 'spans': [{'start': 0, 'end': 13}], 'country_predicted': '', 'country_conf': 0}
{'word': 'Portugal', 'spans': [{'start': 0, 'end': 8}], 'country_predicted': 'PRT', 'country_conf': 0.9516948, 'geo': {'admin1': 'NA', 'lat': '39.6945', 'lon': '-8.13057', 'country_code3': 'PRT', 'geonameid': '2264397', 'place_name': 'Portuguese Republic', 'feature_class': 'A', 'feature_code': 'PCLI'}}
{'word': 'Spain', 'spans': [{'start': 0, 'end': 5}], 'country_predicted': 'ESP', 'country_conf': 0.9516948, 'geo': {'admin1': 'NA', 'lat': '40', 'lon': '-4', 'country_code3': 'ESP', 'geonameid': '2510769', 'place_name': 'Kingdom of Spain', 'feature_class': 'A', 'feature_code': 'PCLI'}}
{'word': 'Cascais', 'spans': [{'start': 0, 'end': 7}], 'country_predicted': 'PRT', 'country_conf': 0.96374094, 'geo': {'admin1': 'Lisbon', 'lat': '38.74333', 'lon': '-9.46382', 'country_code3': 'PRT', 'geonameid': '8010561', 'place_name': 'Cascais', 'feature_class': 'A', 'feature_code': 'ADM2'}}
{'word': 'Balearic', 'spans': [{'start': 0, 'end': 8}], 'country_predicted': 'ESP', 'country_conf': 0.9048774, 'geo': {'admin1': 'Balearic Islands', 'lat': '39.58876', 'lon': '2.90314', 'country_code3': 'ESP', 'geonameid': '2521383', 'place_name': 'Comunitat Autnoma de les Illes Balears', 'feature_class': 'A', 'feature_code': 'ADM1'}}
{'word': 'Portugal', 'spans': [{'start': 0, 'end': 8}], 'country_predicted': 'PRT', 'country_conf': 0.9516948, 'geo': {'admin1': 'NA', 'lat': '39.6945', 'lon': '-8.13057', 'country_code3': 'PRT', 'geonameid': '2264397', 'place_name': 'Portuguese Republic', 'feature_class': 'A', 'feature_code': 'PCLI'}}
{'word': 'Portugal', 'spans': [{'start': 0, 'end': 8}], 'country_predicted': 'PRT', 'country_conf': 0.9516948, 'geo': {'admin1': 'NA', 'lat': '39.6945', 'lon': '-8.13057', 'country_code3': 'PRT', 'geonameid': '2264397', 'place_name': 'Portuguese Republic', 'feature_class': 'A', 'feature_code': 'PCLI'}}
{'word': 'Portugal', 'spans': [{'start': 0, 'end': 8}], 'country_predicted': 'PRT', 'country_conf': 0.9516948, 'geo': {'admin1': 'NA', 'lat': '39.6945', 'lon': '-8.13057', 'country_code3': 'PRT', 'geonameid': '2264397', 'place_name': 'Portuguese Republic', 'feature_class': 'A', 'feature_code': 'PCLI'}}
{'word': 'Portugal', 'spans': [{'start': 0, 'end': 8}], 'country_predicted': 'PRT', 'country_conf': 0.9516948, 'geo': {'admin1': 'NA', 'lat': '39.6945', 'lon': '-8.13057', 'country_code3': 'PRT', 'geonameid': '2264397', 'place_name': 'Portuguese Republic', 'feature_class': 'A', 'feature_code': 'PCLI'}}
{'word': 'Portugal', 'spans': [{'start': 0, 'end': 8}], 'country_predicted': 'PRT', 'country_conf': 0.9516948, 'geo': {'admin1': 'NA', 'lat': '39.6945', 'lon': '-8.13057', 'country_code3': 'PRT', 'geonameid': '2264397', 'place_name': 'Portuguese Republic', 'feature_class': 'A', 'feature_code': 'PCLI'}}
{'word': 'Madeira', 'spans': [{'start': 0, 'end': 7}], 'country_predicted': 'PRT', 'country_conf': 0.957188, 'geo': {'admin1': 'Madeira', 'lat': '32.66667', 'lon': '-16.75', 'country_code3': 'PRT', 'geonameid': '2266877', 'place_name': 'Madeira Islands', 'feature_class': 'T', 'feature_code': 'ISLS'}}
{'word': 'California', 'spans': [{'start': 0, 'end': 10}], 'country_predicted': 'COL', 'country_conf': 0.19161284}
{'word': 'California', 'spans': [{'start': 0, 'end': 10}], 'country_predicted': 'COL', 'country_conf': 0.19161284}
{'word': 'Portugal', 'spans': [{'start': 0, 'end': 8}], 'country_predicted': 'PRT', 'country_conf': 0.9516948, 'geo': {'admin1': 'NA', 'lat': '39.6945', 'lon': '-8.13057', 'country_code3': 'PRT', 'geonameid': '2264397', 'place_name': 'Portuguese Republic', 'feature_class': 'A', 'feature_code': 'PCLI'}}
{'word': 'Denmark', 'spans': [{'start': 0, 'end': 7}], 'country_predicted': 'DNK', 'country_conf': 0.9516948, 'geo': {'admin1': 'NA', 'lat': '56', 'lon': '10', 'country_code3': 'DNK', 'geonameid': '2623032', 'place_name': 'Kingdom of Denmark', 'feature_class': 'A', 'feature_code': 'PCLI'}}
{'word': 'Portugal', 'spans': [{'start': 0, 'end': 8}], 'country_predicted': 'PRT', 'country_conf': 0.9516948, 'geo': {'admin1': 'NA', 'lat': '39.6945', 'lon': '-8.13057', 'country_code3': 'PRT', 'geonameid': '2264397', 'place_name': 'Portuguese Republic', 'feature_class': 'A', 'feature_code': 'PCLI'}}
{'word': 'Portugal', 'spans': [{'start': 0, 'end': 8}], 'country_predicted': 'PRT', 'country_conf': 0.9516948, 'geo': {'admin1': 'NA', 'lat': '39.6945', 'lon': '-8.13057', 'country_code3': 'PRT', 'geonameid': '2264397', 'place_name': 'Portuguese Republic', 'feature_class': 'A', 'feature_code': 'PCLI'}}
{'word': 'Bioclimatic', 'spans': [{'start': 0, 'end': 11}], 'country_predicted': 'USA', 'country_conf': 0.9528109, 'geo': {'admin1': 'New York', 'lat': '42.4473', 'lon': '-76.4604', 'country_code3': 'USA', 'geonameid': '7185937', 'place_name': 'Guterman Bioclimatic Laboratory', 'feature_class': 'S', 'feature_code': 'BLDG'}}
{'word': 'Portugal', 'spans': [{'start': 0, 'end': 8}], 'country_predicted': 'PRT', 'country_conf': 0.9516948, 'geo': {'admin1': 'NA', 'lat': '39.6945', 'lon': '-8.13057', 'country_code3': 'PRT', 'geonameid': '2264397', 'place_name': 'Portuguese Republic', 'feature_class': 'A', 'feature_code': 'PCLI'}}
{'word': 'Paiva', 'spans': [{'start': 0, 'end': 5}], 'country_predicted': 'PRT', 'country_conf': 0.92213035, 'geo': {'admin1': 'Aveiro', 'lat': '41.03353', 'lon': '-8.29822', 'country_code3': 'PRT', 'geonameid': '8010418', 'place_name': 'Castelo de Paiva', 'feature_class': 'A', 'feature_code': 'ADM2'}}
{'word': 'hydrographical', 'spans': [{'start': 0, 'end': 14}], 'country_predicted': '', 'country_conf': 0}
{'word': 'dufourii', 'spans': [{'start': 0, 'end': 8}], 'country_predicted': '', 'country_conf': 0}
{'word': 'Espaa', 'spans': [{'start': 0, 'end': 6}], 'country_predicted': 'COL', 'country_conf': 0.6353264, 'geo': {'admin1': 'Norte de Santander', 'lat': '7.65111', 'lon': '-72.48778', 'country_code3': 'COL', 'geonameid': '3759485', 'place_name': 'Hacienda Puerto Espaa', 'feature_class': 'S', 'feature_code': 'FRM'}}
{'word': 'dufourii', 'spans': [{'start': 0, 'end': 8}], 'country_predicted': '', 'country_conf': 0}
{'word': 'Portugal', 'spans': [{'start': 0, 'end': 8}], 'country_predicted': 'PRT', 'country_conf': 0.9516948, 'geo': {'admin1': 'NA', 'lat': '39.6945', 'lon': '-8.13057', 'country_code3': 'PRT', 'geonameid': '2264397', 'place_name': 'Portuguese Republic', 'feature_class': 'A', 'feature_code': 'PCLI'}}
{'word': 'Lisbon', 'spans': [{'start': 0, 'end': 6}], 'country_predicted': 'PRT', 'country_conf': 0.957188, 'geo': {'admin1': 'Lisbon', 'lat': '38.74724', 'lon': '-9.24526', 'country_code3': 'PRT', 'geonameid': '12070034', 'place_name': 'Lisbon metropolitan area', 'feature_class': 'L', 'feature_code': 'RGN'}}
{'word': 'Portugal', 'spans': [{'start': 0, 'end': 8}], 'country_predicted': 'PRT', 'country_conf': 0.9516948, 'geo': {'admin1': 'NA', 'lat': '39.6945', 'lon': '-8.13057', 'country_code3': 'PRT', 'geonameid': '2264397', 'place_name': 'Portuguese Republic', 'feature_class': 'A', 'feature_code': 'PCLI'}}
{'word': 'Portugal', 'spans': [{'start': 0, 'end': 8}], 'country_predicted': 'PRT', 'country_conf': 0.9516948, 'geo': {'admin1': 'NA', 'lat': '39.6945', 'lon': '-8.13057', 'country_code3': 'PRT', 'geonameid': '2264397', 'place_name': 'Portuguese Republic', 'feature_class': 'A', 'feature_code': 'PCLI'}}
{'word': 'Portugal', 'spans': [{'start': 0, 'end': 8}], 'country_predicted': 'PRT', 'country_conf': 0.9516948, 'geo': {'admin1': 'NA', 'lat': '39.6945', 'lon': '-8.13057', 'country_code3': 'PRT', 'geonameid': '2264397', 'place_name': 'Portuguese Republic', 'feature_class': 'A', 'feature_code': 'PCLI'}}
{'word': 'Portugal', 'spans': [{'start': 0, 'end': 8}], 'country_predicted': 'PRT', 'country_conf': 0.9516948, 'geo': {'admin1': 'NA', 'lat': '39.6945', 'lon': '-8.13057', 'country_code3': 'PRT', 'geonameid': '2264397', 'place_name': 'Portuguese Republic', 'feature_class': 'A', 'feature_code': 'PCLI'}}
{'word': 'Salisbury', 'spans': [{'start': 0, 'end': 9}], 'country_predicted': 'AUS', 'country_conf': 0.28365934}
{'word': 'Costa', 'spans': [{'start': 0, 'end': 5}], 'country_predicted': 'ITA', 'country_conf': 0.9048774, 'geo': {'admin1': 'Piedmont', 'lat': '44.61758', 'lon': '8.63968', 'country_code3': 'ITA', 'geonameid': '8953792', 'place_name': 'Costa', 'feature_class': 'P', 'feature_code': 'PPL'}}
{'word': 'Costa', 'spans': [{'start': 0, 'end': 5}], 'country_predicted': 'ITA', 'country_conf': 0.9048774, 'geo': {'admin1': 'Piedmont', 'lat': '44.61758', 'lon': '8.63968', 'country_code3': 'ITA', 'geonameid': '8953792', 'place_name': 'Costa', 'feature_class': 'P', 'feature_code': 'PPL'}}
{'word': 'Portugal', 'spans': [{'start': 0, 'end': 8}], 'country_predicted': 'PRT', 'country_conf': 0.9516948, 'geo': {'admin1': 'NA', 'lat': '39.6945', 'lon': '-8.13057', 'country_code3': 'PRT', 'geonameid': '2264397', 'place_name': 'Portuguese Republic', 'feature_class': 'A', 'feature_code': 'PCLI'}}
{'word': 'Kruskal', 'spans': [{'start': 0, 'end': 7}], 'country_predicted': 'IND', 'country_conf': 0.5714737}
{'word': 'Bioclimatic', 'spans': [{'start': 0, 'end': 11}], 'country_predicted': 'USA', 'country_conf': 0.9528109, 'geo': {'admin1': 'New York', 'lat': '42.4473', 'lon': '-76.4604', 'country_code3': 'USA', 'geonameid': '7185937', 'place_name': 'Guterman Bioclimatic Laboratory', 'feature_class': 'S', 'feature_code': 'BLDG'}}
{'word': 'coast', 'spans': [{'start': 0, 'end': 5}], 'country_predicted': 'GMB', 'country_conf': 0.28365934}
{'word': 'V.S.', 'spans': [{'start': 0, 'end': 4}], 'country_predicted': 'VIR', 'country_conf': 0.87992215, 'geo': {'admin1': 'NA', 'lat': '18.34829', 'lon': '-64.98348', 'country_code3': 'VIR', 'geonameid': '4796775', 'place_name': 'Virgin Islands of the United States', 'feature_class': 'A', 'feature_code': 'PCLD'}}
{'word': 'Costa', 'spans': [{'start': 0, 'end': 5}], 'country_predicted': 'ITA', 'country_conf': 0.9048774, 'geo': {'admin1': 'Piedmont', 'lat': '44.61758', 'lon': '8.63968', 'country_code3': 'ITA', 'geonameid': '8953792', 'place_name': 'Costa', 'feature_class': 'P', 'feature_code': 'PPL'}}
{'word': 'Costa', 'spans': [{'start': 0, 'end': 5}], 'country_predicted': 'ITA', 'country_conf': 0.9048774, 'geo': {'admin1': 'Piedmont', 'lat': '44.61758', 'lon': '8.63968', 'country_code3': 'ITA', 'geonameid': '8953792', 'place_name': 'Costa', 'feature_class': 'P', 'feature_code': 'PPL'}}
{'word': 'Costa', 'spans': [{'start': 0, 'end': 5}], 'country_predicted': 'ITA', 'country_conf': 0.9048774, 'geo': {'admin1': 'Piedmont', 'lat': '44.61758', 'lon': '8.63968', 'country_code3': 'ITA', 'geonameid': '8953792', 'place_name': 'Costa', 'feature_class': 'P', 'feature_code': 'PPL'}}
{'word': 'Costa', 'spans': [{'start': 0, 'end': 5}], 'country_predicted': 'ITA', 'country_conf': 0.9048774, 'geo': {'admin1': 'Piedmont', 'lat': '44.61758', 'lon': '8.63968', 'country_code3': 'ITA', 'geonameid': '8953792', 'place_name': 'Costa', 'feature_class': 'P', 'feature_code': 'PPL'}}
{'word': 'Costa', 'spans': [{'start': 0, 'end': 5}], 'country_predicted': 'ITA', 'country_conf': 0.9048774, 'geo': {'admin1': 'Piedmont', 'lat': '44.61758', 'lon': '8.63968', 'country_code3': 'ITA', 'geonameid': '8953792', 'place_name': 'Costa', 'feature_class': 'P', 'feature_code': 'PPL'}}
{'word': 'dufourii', 'spans': [{'start': 0, 'end': 8}], 'country_predicted': '', 'country_conf': 0}
{'word': 'Spain', 'spans': [{'start': 1, 'end': 6}], 'country_predicted': 'ESP', 'country_conf': 0.9516948, 'geo': {'admin1': 'NA', 'lat': '40', 'lon': '-4', 'country_code3': 'ESP', 'geonameid': '2510769', 'place_name': 'Kingdom of Spain', 'feature_class': 'A', 'feature_code': 'PCLI'}}
{'word': 'V.S.', 'spans': [{'start': 0, 'end': 4}], 'country_predicted': 'VIR', 'country_conf': 0.87992215, 'geo': {'admin1': 'NA', 'lat': '18.34829', 'lon': '-64.98348', 'country_code3': 'VIR', 'geonameid': '4796775', 'place_name': 'Virgin Islands of the United States', 'feature_class': 'A', 'feature_code': 'PCLD'}}
{'word': 'cape', 'spans': [{'start': 0, 'end': 4}], 'country_predicted': 'GNB', 'country_conf': 0.28868946}
{'word': 'Portugal', 'spans': [{'start': 1, 'end': 9}], 'country_predicted': 'PRT', 'country_conf': 0.9516948, 'geo': {'admin1': 'NA', 'lat': '39.6945', 'lon': '-8.13057', 'country_code3': 'PRT', 'geonameid': '2264397', 'place_name': 'Portuguese Republic', 'feature_class': 'A', 'feature_code': 'PCLI'}}
{'word': 'V.S.', 'spans': [{'start': 0, 'end': 4}], 'country_predicted': 'VIR', 'country_conf': 0.87992215, 'geo': {'admin1': 'NA', 'lat': '18.34829', 'lon': '-64.98348', 'country_code3': 'VIR', 'geonameid': '4796775', 'place_name': 'Virgin Islands of the United States', 'feature_class': 'A', 'feature_code': 'PCLD'}}
