{'word': 'Valley', 'spans': [{'start': 0, 'end': 6}], 'country_predicted': 'USA', 'country_conf': 0.957188, 'geo': {'admin1': 'Alabama', 'lat': '32.81874', 'lon': '-85.17939', 'country_code3': 'USA', 'geonameid': '4095186', 'place_name': 'Valley', 'feature_class': 'P', 'feature_code': 'PPL'}}
{'word': 'Texas', 'spans': [{'start': 0, 'end': 5}], 'country_predicted': 'USA', 'country_conf': 0.9634983, 'geo': {'admin1': 'Texas', 'lat': '31.25044', 'lon': '-99.25061', 'country_code3': 'USA', 'geonameid': '4736286', 'place_name': 'Texas', 'feature_class': 'A', 'feature_code': 'ADM1'}}
{'word': 'Texas', 'spans': [{'start': 0, 'end': 5}], 'country_predicted': 'USA', 'country_conf': 0.9634983, 'geo': {'admin1': 'Texas', 'lat': '31.25044', 'lon': '-99.25061', 'country_code3': 'USA', 'geonameid': '4736286', 'place_name': 'Texas', 'feature_class': 'A', 'feature_code': 'ADM1'}}
{'word': 'Senegal', 'spans': [{'start': 0, 'end': 7}], 'country_predicted': 'SEN', 'country_conf': 0.9516948, 'geo': {'admin1': 'NA', 'lat': '14.5', 'lon': '-14.25', 'country_code3': 'SEN', 'geonameid': '2245662', 'place_name': 'Republic of Senegal', 'feature_class': 'A', 'feature_code': 'PCLI'}}
{'word': 'Texas', 'spans': [{'start': 0, 'end': 5}], 'country_predicted': 'USA', 'country_conf': 0.9634983, 'geo': {'admin1': 'Texas', 'lat': '31.25044', 'lon': '-99.25061', 'country_code3': 'USA', 'geonameid': '4736286', 'place_name': 'Texas', 'feature_class': 'A', 'feature_code': 'ADM1'}}
{'word': 'USA', 'spans': [{'start': 0, 'end': 3}], 'country_predicted': 'USA', 'country_conf': 0.9516948, 'geo': {'admin1': 'Louisiana', 'lat': '29.2605', 'lon': '-89.35478', 'country_code3': 'USA', 'geonameid': '4319780', 'place_name': 'Chevron USA Incorporated Seaplane Base', 'feature_class': 'S', 'feature_code': 'AIRP'}}
{'word': 'Norway', 'spans': [{'start': 0, 'end': 6}], 'country_predicted': 'NOR', 'country_conf': 0.9516948, 'geo': {'admin1': 'NA', 'lat': '62', 'lon': '10', 'country_code3': 'NOR', 'geonameid': '3144096', 'place_name': 'Kingdom of Norway', 'feature_class': 'A', 'feature_code': 'PCLI'}}
{'word': 'Acacia', 'spans': [{'start': 0, 'end': 6}], 'country_predicted': 'AUS', 'country_conf': 0.28365934}
{'word': 'Texas', 'spans': [{'start': 0, 'end': 5}], 'country_predicted': 'USA', 'country_conf': 0.9634983, 'geo': {'admin1': 'Texas', 'lat': '31.25044', 'lon': '-99.25061', 'country_code3': 'USA', 'geonameid': '4736286', 'place_name': 'Texas', 'feature_class': 'A', 'feature_code': 'ADM1'}}
{'word': 'Texas', 'spans': [{'start': 0, 'end': 5}], 'country_predicted': 'USA', 'country_conf': 0.9634983, 'geo': {'admin1': 'Texas', 'lat': '31.25044', 'lon': '-99.25061', 'country_code3': 'USA', 'geonameid': '4736286', 'place_name': 'Texas', 'feature_class': 'A', 'feature_code': 'ADM1'}}
{'word': 'Acacia', 'spans': [{'start': 0, 'end': 6}], 'country_predicted': 'AUS', 'country_conf': 0.28365934}
{'word': 'Mexico', 'spans': [{'start': 0, 'end': 6}], 'country_predicted': 'MEX', 'country_conf': 0.9516948, 'geo': {'admin1': 'NA', 'lat': '23', 'lon': '-102', 'country_code3': 'MEX', 'geonameid': '3996063', 'place_name': 'Mexico', 'feature_class': 'A', 'feature_code': 'PCLI'}}
{'word': 'Mexico', 'spans': [{'start': 0, 'end': 6}], 'country_predicted': 'MEX', 'country_conf': 0.9516948, 'geo': {'admin1': 'NA', 'lat': '23', 'lon': '-102', 'country_code3': 'MEX', 'geonameid': '3996063', 'place_name': 'Mexico', 'feature_class': 'A', 'feature_code': 'PCLI'}}
{'word': 'Texas', 'spans': [{'start': 0, 'end': 5}], 'country_predicted': 'USA', 'country_conf': 0.9634983, 'geo': {'admin1': 'Texas', 'lat': '31.25044', 'lon': '-99.25061', 'country_code3': 'USA', 'geonameid': '4736286', 'place_name': 'Texas', 'feature_class': 'A', 'feature_code': 'ADM1'}}
{'word': 'Valley', 'spans': [{'start': 0, 'end': 6}], 'country_predicted': 'USA', 'country_conf': 0.957188, 'geo': {'admin1': 'Alabama', 'lat': '32.81874', 'lon': '-85.17939', 'country_code3': 'USA', 'geonameid': '4095186', 'place_name': 'Valley', 'feature_class': 'P', 'feature_code': 'PPL'}}
{'word': 'Texas', 'spans': [{'start': 0, 'end': 5}], 'country_predicted': 'USA', 'country_conf': 0.9634983, 'geo': {'admin1': 'Texas', 'lat': '31.25044', 'lon': '-99.25061', 'country_code3': 'USA', 'geonameid': '4736286', 'place_name': 'Texas', 'feature_class': 'A', 'feature_code': 'ADM1'}}
{'word': 'Acacia', 'spans': [{'start': 0, 'end': 6}], 'country_predicted': 'AUS', 'country_conf': 0.28365934}
{'word': 'Mexico', 'spans': [{'start': 0, 'end': 6}], 'country_predicted': 'MEX', 'country_conf': 0.9516948, 'geo': {'admin1': 'NA', 'lat': '23', 'lon': '-102', 'country_code3': 'MEX', 'geonameid': '3996063', 'place_name': 'Mexico', 'feature_class': 'A', 'feature_code': 'PCLI'}}
{'word': 'Michx', 'spans': [{'start': 0, 'end': 5}], 'country_predicted': 'PER', 'country_conf': 0.5339668}
{'word': 'Acacia', 'spans': [{'start': 0, 'end': 6}], 'country_predicted': 'AUS', 'country_conf': 0.28365934}
{'word': 'Tunisia', 'spans': [{'start': 0, 'end': 7}], 'country_predicted': 'TUN', 'country_conf': 0.9516948, 'geo': {'admin1': 'NA', 'lat': '34', 'lon': '9', 'country_code3': 'TUN', 'geonameid': '2464461', 'place_name': 'Republic of Tunisia', 'feature_class': 'A', 'feature_code': 'PCLI'}}
{'word': 'Mexico', 'spans': [{'start': 0, 'end': 6}], 'country_predicted': 'MEX', 'country_conf': 0.9516948, 'geo': {'admin1': 'NA', 'lat': '23', 'lon': '-102', 'country_code3': 'MEX', 'geonameid': '3996063', 'place_name': 'Mexico', 'feature_class': 'A', 'feature_code': 'PCLI'}}
{'word': 'Texas', 'spans': [{'start': 0, 'end': 5}], 'country_predicted': 'USA', 'country_conf': 0.9634983, 'geo': {'admin1': 'Texas', 'lat': '31.25044', 'lon': '-99.25061', 'country_code3': 'USA', 'geonameid': '4736286', 'place_name': 'Texas', 'feature_class': 'A', 'feature_code': 'ADM1'}}
{'word': 'Valley', 'spans': [{'start': 0, 'end': 6}], 'country_predicted': 'USA', 'country_conf': 0.957188, 'geo': {'admin1': 'Alabama', 'lat': '32.81874', 'lon': '-85.17939', 'country_code3': 'USA', 'geonameid': '4095186', 'place_name': 'Valley', 'feature_class': 'P', 'feature_code': 'PPL'}}
{'word': 'USA', 'spans': [{'start': 0, 'end': 3}], 'country_predicted': 'USA', 'country_conf': 0.9516948, 'geo': {'admin1': 'Louisiana', 'lat': '29.2605', 'lon': '-89.35478', 'country_code3': 'USA', 'geonameid': '4319780', 'place_name': 'Chevron USA Incorporated Seaplane Base', 'feature_class': 'S', 'feature_code': 'AIRP'}}
{'word': 'Valley', 'spans': [{'start': 0, 'end': 6}], 'country_predicted': 'USA', 'country_conf': 0.957188, 'geo': {'admin1': 'Alabama', 'lat': '32.81874', 'lon': '-85.17939', 'country_code3': 'USA', 'geonameid': '4095186', 'place_name': 'Valley', 'feature_class': 'P', 'feature_code': 'PPL'}}
{'word': 'TX', 'spans': [{'start': 0, 'end': 2}], 'country_predicted': 'USA', 'country_conf': 0.96374094, 'geo': {'admin1': 'Texas', 'lat': '32.7585', 'lon': '-97.8085', 'country_code3': 'USA', 'geonameid': '6480279', 'place_name': 'Ramada Limited Weatherford Tx', 'feature_class': 'S', 'feature_code': 'HTL'}}
{'word': 'USA', 'spans': [{'start': 0, 'end': 3}], 'country_predicted': 'USA', 'country_conf': 0.9516948, 'geo': {'admin1': 'Louisiana', 'lat': '29.2605', 'lon': '-89.35478', 'country_code3': 'USA', 'geonameid': '4319780', 'place_name': 'Chevron USA Incorporated Seaplane Base', 'feature_class': 'S', 'feature_code': 'AIRP'}}
{'word': 'Acacia', 'spans': [{'start': 0, 'end': 6}], 'country_predicted': 'AUS', 'country_conf': 0.28365934}
{'word': 'Valley', 'spans': [{'start': 0, 'end': 6}], 'country_predicted': 'USA', 'country_conf': 0.957188, 'geo': {'admin1': 'Alabama', 'lat': '32.81874', 'lon': '-85.17939', 'country_code3': 'USA', 'geonameid': '4095186', 'place_name': 'Valley', 'feature_class': 'P', 'feature_code': 'PPL'}}
{'word': 'Wiedenfeld', 'spans': [{'start': 0, 'end': 10}], 'country_predicted': 'DEU', 'country_conf': 0.9528109, 'geo': {'admin1': 'North Rhine-Westphalia', 'lat': '50.98333', 'lon': '6.61667', 'country_code3': 'DEU', 'geonameid': '2809602', 'place_name': 'Wiedenfeld', 'feature_class': 'P', 'feature_code': 'PPL'}}
{'word': 'Texas', 'spans': [{'start': 0, 'end': 5}], 'country_predicted': 'USA', 'country_conf': 0.9634983, 'geo': {'admin1': 'Texas', 'lat': '31.25044', 'lon': '-99.25061', 'country_code3': 'USA', 'geonameid': '4736286', 'place_name': 'Texas', 'feature_class': 'A', 'feature_code': 'ADM1'}}
{'word': 'Texas', 'spans': [{'start': 0, 'end': 5}], 'country_predicted': 'USA', 'country_conf': 0.9634983, 'geo': {'admin1': 'Texas', 'lat': '31.25044', 'lon': '-99.25061', 'country_code3': 'USA', 'geonameid': '4736286', 'place_name': 'Texas', 'feature_class': 'A', 'feature_code': 'ADM1'}}
{'word': 'USA', 'spans': [{'start': 0, 'end': 3}], 'country_predicted': 'USA', 'country_conf': 0.9516948, 'geo': {'admin1': 'Louisiana', 'lat': '29.2605', 'lon': '-89.35478', 'country_code3': 'USA', 'geonameid': '4319780', 'place_name': 'Chevron USA Incorporated Seaplane Base', 'feature_class': 'S', 'feature_code': 'AIRP'}}
{'word': 'Mexico', 'spans': [{'start': 0, 'end': 6}], 'country_predicted': 'MEX', 'country_conf': 0.9516948, 'geo': {'admin1': 'NA', 'lat': '23', 'lon': '-102', 'country_code3': 'MEX', 'geonameid': '3996063', 'place_name': 'Mexico', 'feature_class': 'A', 'feature_code': 'PCLI'}}
{'word': 'plains', 'spans': [{'start': 0, 'end': 6}], 'country_predicted': 'USA', 'country_conf': 0.957188, 'geo': {'admin1': 'Pennsylvania', 'lat': '41.27536', 'lon': '-75.8502', 'country_code3': 'USA', 'geonameid': '5206422', 'place_name': 'Plains', 'feature_class': 'P', 'feature_code': 'PPL'}}
{'word': 'Texas', 'spans': [{'start': 0, 'end': 5}], 'country_predicted': 'USA', 'country_conf': 0.9634983, 'geo': {'admin1': 'Texas', 'lat': '31.25044', 'lon': '-99.25061', 'country_code3': 'USA', 'geonameid': '4736286', 'place_name': 'Texas', 'feature_class': 'A', 'feature_code': 'ADM1'}}
{'word': 'Mexico', 'spans': [{'start': 0, 'end': 6}], 'country_predicted': 'MEX', 'country_conf': 0.9516948, 'geo': {'admin1': 'NA', 'lat': '23', 'lon': '-102', 'country_code3': 'MEX', 'geonameid': '3996063', 'place_name': 'Mexico', 'feature_class': 'A', 'feature_code': 'PCLI'}}
{'word': 'Wiedenfeld', 'spans': [{'start': 0, 'end': 10}], 'country_predicted': 'DEU', 'country_conf': 0.9528109, 'geo': {'admin1': 'North Rhine-Westphalia', 'lat': '50.98333', 'lon': '6.61667', 'country_code3': 'DEU', 'geonameid': '2809602', 'place_name': 'Wiedenfeld', 'feature_class': 'P', 'feature_code': 'PPL'}}
{'word': 'Wiedenfeld', 'spans': [{'start': 0, 'end': 10}], 'country_predicted': 'DEU', 'country_conf': 0.9528109, 'geo': {'admin1': 'North Rhine-Westphalia', 'lat': '50.98333', 'lon': '6.61667', 'country_code3': 'DEU', 'geonameid': '2809602', 'place_name': 'Wiedenfeld', 'feature_class': 'P', 'feature_code': 'PPL'}}
{'word': 'Wiedenfeld', 'spans': [{'start': 0, 'end': 10}], 'country_predicted': 'DEU', 'country_conf': 0.9528109, 'geo': {'admin1': 'North Rhine-Westphalia', 'lat': '50.98333', 'lon': '6.61667', 'country_code3': 'DEU', 'geonameid': '2809602', 'place_name': 'Wiedenfeld', 'feature_class': 'P', 'feature_code': 'PPL'}}
{'word': 'Acacia', 'spans': [{'start': 0, 'end': 6}], 'country_predicted': 'AUS', 'country_conf': 0.28365934}
{'word': 'Marysville', 'spans': [{'start': 0, 'end': 10}], 'country_predicted': 'USA', 'country_conf': 0.957188, 'geo': {'admin1': 'Washington', 'lat': '48.05176', 'lon': '-122.17708', 'country_code3': 'USA', 'geonameid': '5802570', 'place_name': 'Marysville', 'feature_class': 'P', 'feature_code': 'PPL'}}
{'word': 'n.s.', 'spans': [{'start': 0, 'end': 4}], 'country_predicted': 'ITA', 'country_conf': 0.28868946}
{'word': 'Hinckley', 'spans': [{'start': 0, 'end': 8}], 'country_predicted': 'USA', 'country_conf': 0.6353264, 'geo': {'admin1': 'Illinois', 'lat': '41.76892', 'lon': '-88.64091', 'country_code3': 'USA', 'geonameid': '4895999', 'place_name': 'Hinckley', 'feature_class': 'P', 'feature_code': 'PPL'}}
{'word': 'Texas', 'spans': [{'start': 0, 'end': 5}], 'country_predicted': 'USA', 'country_conf': 0.9634983, 'geo': {'admin1': 'Texas', 'lat': '31.25044', 'lon': '-99.25061', 'country_code3': 'USA', 'geonameid': '4736286', 'place_name': 'Texas', 'feature_class': 'A', 'feature_code': 'ADM1'}}
{'word': 'Acacia', 'spans': [{'start': 0, 'end': 6}], 'country_predicted': 'AUS', 'country_conf': 0.28365934}
{'word': 'Parida', 'spans': [{'start': 0, 'end': 6}], 'country_predicted': 'MEX', 'country_conf': 0.92213035, 'geo': {'admin1': 'Chihuahua', 'lat': '28.07614', 'lon': '-107.67912', 'country_code3': 'MEX', 'geonameid': '8899873', 'place_name': 'La Parida', 'feature_class': 'P', 'feature_code': 'PPL'}}
